{"class":"VERSION","release":"3.16","rev":"3.16-4","proto_major":3,"proto_minor":11}
{"class":"DEVICES","devices":[{"class":"DEVICE","path":"/dev/ttyACM0","activated":"2019-05-16T21:05:20.715Z","native":0,"bps":9600,"parity":"N","stopbits":1,"cycle":1.00}]}
{"class":"WATCH","enable":true,"json":true,"nmea":false,"raw":0,"scaled":false,"timing":false,"split24":false,"pps":false}
{"class":"DEVICE","path":"/dev/ttyACM0","driver":"NMEA0183","activated":"2019-05-16T21:05:21.060Z","native":0,"bps":9600,"parity":"N","stopbits":1,"cycle":1.00}
{"class":"TPV","device":"/dev/ttyACM0","mode":2,"time":"2019-05-16T21:05:21.000Z","ept":0.005,"lat":35.937258833,"lon":-78.930006833,"track":0.0000,"speed":0.028}
{"class":"TPV","device":"/dev/ttyACM0","mode":3,"time":"2019-05-16T21:05:21.000Z","ept":0.005,"lat":35.937258833,"lon":-78.930006833,"alt":97.200,"track":0.0000,"speed":0.028}
{"class":"TPV","device":"/dev/ttyACM0","mode":3,"time":"2019-05-16T21:05:21.000Z","ept":0.005,"lat":35.937258833,"lon":-78.930006833,"alt":97.200,"epv":39.100,"track":0.0000,"speed":0.028,"climb":0.000}
{"class":"SKY","device":"/dev/ttyACM0","xdop":0.66,"ydop":0.89,"vdop":1.70,"tdop":0.96,"hdop":1.19,"gdop":2.03,"pdop":2.08,"satellites":[{"PRN":1,"el":7,"az":47,"ss":0,"used":false},{"PRN":2,"el":21,"az":237,"ss":23,"used":true},{"PRN":3,"el":29,"az":59,"ss":33,"used":true},{"PRN":6,"el":59,"az":242,"ss":42,"used":true},{"PRN":12,"el":1,"az":318,"ss":0,"used":false},{"PRN":17,"el":63,"az":20,"ss":34,"used":true},{"PRN":19,"el":59,"az":330,"ss":37,"used":true},{"PRN":22,"el":14,"az":44,"ss":14,"used":true},{"PRN":24,"el":17,"az":297,"ss":31,"used":true},{"PRN":28,"el":54,"az":141,"ss":38,"used":true},{"PRN":133,"el":44,"az":211,"ss":29,"used":false},{"PRN":135,"el":20,"az":247,"ss":0,"used":false},{"PRN":138,"el":39,"az":223,"ss":29,"used":false}]}
{"class":"TPV","device":"/dev/ttyACM0","mode":3,"time":"2019-05-16T21:05:21.000Z","ept":0.005,"lat":35.937258833,"lon":-78.930006833,"alt":97.200,"epx":9.856,"epy":13.397,"epv":39.100,"track":0.0000,"speed":0.028,"climb":0.000}
{"class":"DEVICE","path":"/dev/ttyACM0","driver":"u-blox","activated":"2019-05-16T21:05:21.069Z","flags":1,"native":1,"bps":9600,"parity":"N","stopbits":1,"cycle":1.00,"mincycle":0.25}
{"class":"TPV","device":"/dev/ttyACM0","mode":3,"time":"2019-05-16T21:05:23.000Z","ept":0.005,"lat":35.937258755,"lon":-78.930006872,"alt":96.594,"epx":9.856,"epy":13.397,"epv":39.100,"track":167.1382,"speed":0.035,"climb":-0.073,"eps":0.41,"epc":39.10}
{"class":"SKY","device":"/dev/ttyACM0","xdop":0.66,"ydop":0.89,"vdop":1.70,"tdop":0.96,"hdop":1.19,"gdop":2.03,"pdop":2.08,"satellites":[{"PRN":2,"el":21,"az":237,"ss":23,"used":true},{"PRN":3,"el":29,"az":59,"ss":33,"used":true},{"PRN":6,"el":59,"az":242,"ss":42,"used":true},{"PRN":17,"el":63,"az":20,"ss":34,"used":true},{"PRN":19,"el":59,"az":330,"ss":37,"used":true},{"PRN":22,"el":14,"az":44,"ss":14,"used":false},{"PRN":24,"el":17,"az":297,"ss":31,"used":true},{"PRN":28,"el":54,"az":141,"ss":38,"used":true},{"PRN":133,"el":44,"az":211,"ss":29,"used":false},{"PRN":138,"el":39,"az":223,"ss":29,"used":false}]}
{"class":"SKY","device":"/dev/ttyACM0","xdop":0.66,"ydop":0.89,"vdop":1.70,"tdop":1.23,"hdop":1.19,"gdop":2.41,"pdop":2.08,"satellites":[{"PRN":1,"el":6,"az":48,"ss":0,"used":false},{"PRN":2,"el":21,"az":237,"ss":23,"used":true},{"PRN":3,"el":29,"az":59,"ss":33,"used":true},{"PRN":6,"el":59,"az":242,"ss":42,"used":true},{"PRN":12,"el":1,"az":318,"ss":0,"used":false},{"PRN":17,"el":63,"az":20,"ss":34,"used":true},{"PRN":19,"el":59,"az":330,"ss":37,"used":true},{"PRN":22,"el":14,"az":44,"ss":14,"used":true},{"PRN":24,"el":17,"az":297,"ss":31,"used":true},{"PRN":28,"el":54,"az":141,"ss":38,"used":true},{"PRN":131,"el":32,"az":233,"ss":0,"used":false},{"PRN":133,"el":44,"az":211,"ss":29,"used":false},{"PRN":135,"el":20,"az":247,"ss":0,"used":false},{"PRN":138,"el":39,"az":223,"ss":29,"used":false}]}
{"class":"TPV","device":"/dev/ttyACM0","mode":3,"time":"2019-05-16T21:05:22.000Z","ept":0.005,"lat":35.937258833,"lon":-78.930006833,"alt":97.200,"epx":9.856,"epy":13.397,"epv":39.100,"track":0.0000,"speed":0.030,"climb":0.000}
{"class":"TPV","device":"/dev/ttyACM0","mode":3,"time":"2019-05-16T21:05:23.000Z","ept":0.005,"lat":35.937259015,"lon":-78.930006938,"alt":96.588,"epx":9.856,"epy":13.397,"epv":39.100,"track":187.4498,"speed":0.016,"climb":-0.063,"eps":0.41,"epc":78.20}
{"class":"SKY","device":"/dev/ttyACM0","xdop":0.66,"ydop":0.89,"vdop":1.40,"tdop":0.97,"hdop":1.11,"gdop":2.04,"pdop":1.79,"satellites":[{"PRN":1,"el":6,"az":48,"ss":0,"used":false},{"PRN":2,"el":21,"az":237,"ss":23,"used":true},{"PRN":3,"el":29,"az":59,"ss":34,"used":true},{"PRN":6,"el":59,"az":242,"ss":42,"used":true},{"PRN":12,"el":1,"az":318,"ss":0,"used":false},{"PRN":17,"el":63,"az":20,"ss":34,"used":true},{"PRN":19,"el":59,"az":330,"ss":37,"used":true},{"PRN":22,"el":14,"az":44,"ss":14,"used":true},{"PRN":24,"el":17,"az":297,"ss":31,"used":true},{"PRN":28,"el":54,"az":141,"ss":38,"used":true},{"PRN":131,"el":32,"az":233,"ss":0,"used":false},{"PRN":133,"el":44,"az":211,"ss":29,"used":false},{"PRN":135,"el":20,"az":247,"ss":0,"used":false},{"PRN":138,"el":39,"az":223,"ss":29,"used":false}]}
{"class":"TPV","device":"/dev/ttyACM0","mode":3,"time":"2019-05-16T21:05:23.000Z","ept":0.005,"lat":35.937259000,"lon":-78.930006833,"alt":97.200,"epx":9.856,"epy":13.397,"epv":32.200,"track":0.0000,"speed":0.015,"climb":0.000}
{"class":"TPV","device":"/dev/ttyACM0","mode":3,"time":"2019-05-16T21:05:24.000Z","ept":0.005,"lat":35.937259129,"lon":-78.930006832,"alt":96.537,"epx":9.856,"epy":13.397,"epv":32.200,"track":261.2859,"speed":0.008,"climb":-0.015,"eps":0.39,"epc":64.40}
{"class":"SKY","device":"/dev/ttyACM0","xdop":0.66,"ydop":0.89,"vdop":1.40,"tdop":0.97,"hdop":1.11,"gdop":2.04,"pdop":1.79,"satellites":[{"PRN":1,"el":6,"az":48,"ss":0,"used":false},{"PRN":2,"el":21,"az":237,"ss":25,"used":true},{"PRN":3,"el":29,"az":58,"ss":34,"used":true},{"PRN":6,"el":59,"az":242,"ss":42,"used":true},{"PRN":12,"el":1,"az":318,"ss":0,"used":false},{"PRN":17,"el":63,"az":20,"ss":35,"used":true},{"PRN":19,"el":59,"az":330,"ss":37,"used":true},{"PRN":22,"el":14,"az":44,"ss":14,"used":true},{"PRN":24,"el":17,"az":297,"ss":31,"used":true},{"PRN":28,"el":54,"az":141,"ss":38,"used":true},{"PRN":131,"el":32,"az":233,"ss":0,"used":false},{"PRN":133,"el":44,"az":211,"ss":29,"used":false},{"PRN":135,"el":20,"az":247,"ss":0,"used":false},{"PRN":138,"el":39,"az":223,"ss":30,"used":false}]}
{"class":"TPV","device":"/dev/ttyACM0","mode":3,"time":"2019-05-16T21:05:24.000Z","ept":0.005,"lat":35.937259167,"lon":-78.930006833,"alt":97.100,"epx":9.856,"epy":13.397,"epv":32.200,"track":0.0000,"speed":0.008,"climb":0.000}
{"class":"TPV","device":"/dev/ttyACM0","mode":3,"time":"2019-05-16T21:05:25.000Z","ept":0.005,"lat":35.937259336,"lon":-78.930006943,"alt":96.488,"epx":9.856,"epy":13.397,"epv":32.200,"track":248.4546,"speed":0.025,"climb":0.013,"eps":0.27,"epc":64.40}
{"class":"SKY","device":"/dev/ttyACM0","xdop":0.66,"ydop":0.89,"vdop":1.40,"tdop":0.97,"hdop":1.11,"gdop":2.04,"pdop":1.79,"satellites":[{"PRN":1,"el":6,"az":48,"ss":0,"used":false},{"PRN":2,"el":21,"az":237,"ss":25,"used":true},{"PRN":3,"el":29,"az":58,"ss":35,"used":true},{"PRN":6,"el":59,"az":242,"ss":42,"used":true},{"PRN":12,"el":1,"az":318,"ss":0,"used":false},{"PRN":17,"el":63,"az":20,"ss":34,"used":true},{"PRN":19,"el":59,"az":330,"ss":37,"used":true},{"PRN":22,"el":14,"az":44,"ss":14,"used":true},{"PRN":24,"el":17,"az":297,"ss":31,"used":true},{"PRN":28,"el":54,"az":141,"ss":38,"used":true},{"PRN":131,"el":32,"az":233,"ss":0,"used":false},{"PRN":133,"el":44,"az":211,"ss":29,"used":false},{"PRN":135,"el":20,"az":247,"ss":0,"used":false},{"PRN":138,"el":39,"az":223,"ss":29,"used":false}]}
{"class":"TPV","device":"/dev/ttyACM0","mode":3,"time":"2019-05-16T21:05:25.000Z","ept":0.005,"lat":35.937259333,"lon":-78.930007000,"alt":97.100,"epx":9.856,"epy":13.397,"epv":32.200,"track":0.0000,"speed":0.022,"climb":0.000}
{"class":"TPV","device":"/dev/ttyACM0","mode":3,"time":"2019-05-16T21:05:26.000Z","ept":0.005,"lat":35.937259576,"lon":-78.930006964,"alt":96.519,"epx":9.856,"epy":13.397,"epv":32.200,"track":96.5503,"speed":0.020,"climb":0.003,"eps":0.28,"epc":64.40}
{"class":"SKY","device":"/dev/ttyACM0","xdop":0.66,"ydop":0.89,"vdop":1.40,"tdop":0.97,"hdop":1.11,"gdop":2.04,"pdop":1.79,"satellites":[{"PRN":1,"el":6,"az":48,"ss":0,"used":false},{"PRN":2,"el":21,"az":237,"ss":25,"used":true},{"PRN":3,"el":29,"az":58,"ss":34,"used":true},{"PRN":6,"el":59,"az":243,"ss":42,"used":true},{"PRN":12,"el":1,"az":318,"ss":0,"used":false},{"PRN":17,"el":63,"az":20,"ss":34,"used":true},{"PRN":19,"el":59,"az":330,"ss":37,"used":true},{"PRN":22,"el":14,"az":44,"ss":9,"used":true},{"PRN":24,"el":17,"az":297,"ss":30,"used":true},{"PRN":28,"el":54,"az":141,"ss":38,"used":true},{"PRN":131,"el":32,"az":233,"ss":0,"used":false},{"PRN":133,"el":44,"az":211,"ss":28,"used":false},{"PRN":135,"el":20,"az":247,"ss":0,"used":false},{"PRN":138,"el":39,"az":223,"ss":29,"used":false}]}
{"class":"TPV","device":"/dev/ttyACM0","mode":3,"time":"2019-05-16T21:05:26.000Z","ept":0.005,"lat":35.937259667,"lon":-78.930007000,"alt":97.100,"epx":9.856,"epy":13.397,"epv":32.200,"track":0.0000,"speed":0.018,"climb":0.000}
{"class":"TPV","device":"/dev/ttyACM0","mode":3,"time":"2019-05-16T21:05:27.000Z","ept":0.005,"lat":35.937259723,"lon":-78.930007113,"alt":96.616,"epx":9.856,"epy":13.397,"epv":32.200,"track":207.2027,"speed":0.017,"climb":0.038,"eps":0.35,"epc":64.40}
{"class":"SKY","device":"/dev/ttyACM0","xdop":0.66,"ydop":0.89,"vdop":1.40,"tdop":0.97,"hdop":1.11,"gdop":2.04,"pdop":1.79,"satellites":[{"PRN":1,"el":6,"az":48,"ss":0,"used":false},{"PRN":2,"el":21,"az":237,"ss":25,"used":true},{"PRN":3,"el":29,"az":58,"ss":33,"used":true},{"PRN":6,"el":59,"az":243,"ss":42,"used":true},{"PRN":12,"el":1,"az":318,"ss":0,"used":false},{"PRN":17,"el":63,"az":20,"ss":34,"used":true},{"PRN":19,"el":59,"az":330,"ss":37,"used":true},{"PRN":22,"el":14,"az":44,"ss":9,"used":true},{"PRN":24,"el":17,"az":297,"ss":30,"used":true},{"PRN":28,"el":54,"az":141,"ss":38,"used":true},{"PRN":131,"el":32,"az":233,"ss":0,"used":false},{"PRN":133,"el":44,"az":211,"ss":28,"used":false},{"PRN":135,"el":20,"az":247,"ss":0,"used":false},{"PRN":138,"el":39,"az":223,"ss":30,"used":false}]}
{"class":"TPV","device":"/dev/ttyACM0","mode":3,"time":"2019-05-16T21:05:27.000Z","ept":0.005,"lat":35.937259667,"lon":-78.930007167,"alt":97.200,"epx":9.856,"epy":13.397,"epv":32.200,"track":0.0000,"speed":0.023,"climb":0.000}
