{"class":"VERSION","release":"3.16","rev":"3.16-4","proto_major":3,"proto_minor":11}
{"class":"DEVICES","devices":[{"class":"DEVICE","path":"/dev/ttyACM0","driver":"u-blox","subtype":"SW 1.00 (59842),HW 00070000,PROTVER 14.00,GPS;SBAS;GLO;QZSS","activated":"2019-05-16T21:06:12.069Z","flags":1,"native":0,"bps":9600,"parity":"N","stopbits":1,"cycle":1.00,"mincycle":0.25}]}
{"class":"WATCH","enable":true,"json":true,"nmea":false,"raw":0,"scaled":false,"timing":false,"split24":false,"pps":false}
{"class":"TPV","device":"/dev/ttyACM0","mode":3,"time":"2019-05-16T21:06:13.000Z","ept":0.005,"lat":35.937259966,"lon":-78.929996384,"alt":95.284,"epx":9.856,"epy":13.397,"epv":39.100,"track":320.5912,"speed":0.003,"climb":0.014,"eps":0.37,"epc":78.20}
{"class":"SKY","device":"/dev/ttyACM0","xdop":0.66,"ydop":0.89,"vdop":1.70,"tdop":1.23,"hdop":1.19,"gdop":2.42,"pdop":2.08,"satellites":[{"PRN":1,"el":6,"az":48,"ss":0,"used":false},{"PRN":2,"el":22,"az":237,"ss":30,"used":true},{"PRN":3,"el":29,"az":58,"ss":33,"used":true},{"PRN":6,"el":60,"az":243,"ss":43,"used":true},{"PRN":12,"el":1,"az":318,"ss":0,"used":false},{"PRN":17,"el":63,"az":20,"ss":30,"used":true},{"PRN":19,"el":59,"az":331,"ss":36,"used":true},{"PRN":22,"el":14,"az":44,"ss":0,"used":false},{"PRN":24,"el":17,"az":297,"ss":32,"used":true},{"PRN":28,"el":54,"az":142,"ss":37,"used":true},{"PRN":131,"el":32,"az":233,"ss":0,"used":false},{"PRN":135,"el":20,"az":247,"ss":0,"used":false},{"PRN":138,"el":39,"az":223,"ss":30,"used":false}]}
{"class":"TPV","device":"/dev/ttyACM0","mode":3,"time":"2019-05-16T21:06:13.000Z","ept":0.005,"lat":35.937260000,"lon":-78.929996333,"alt":95.900,"epx":9.856,"epy":13.397,"epv":39.100,"track":0.0000,"speed":0.007,"climb":0.000}
{"class":"TPV","device":"/dev/ttyACM0","mode":3,"time":"2019-05-16T21:06:14.000Z","ept":0.005,"lat":35.937259907,"lon":-78.929996422,"alt":95.429,"epx":9.856,"epy":13.397,"epv":39.100,"track":174.0841,"speed":0.019,"climb":-0.026,"eps":0.38,"epc":78.20}
{"class":"SKY","device":"/dev/ttyACM0","xdop":0.66,"ydop":0.89,"vdop":1.70,"tdop":1.23,"hdop":1.19,"gdop":2.42,"pdop":2.08,"satellites":[{"PRN":1,"el":6,"az":48,"ss":0,"used":false},{"PRN":2,"el":22,"az":237,"ss":30,"used":true},{"PRN":3,"el":29,"az":58,"ss":33,"used":true},{"PRN":6,"el":60,"az":243,"ss":41,"used":true},{"PRN":12,"el":1,"az":318,"ss":0,"used":false},{"PRN":17,"el":63,"az":20,"ss":32,"used":true},{"PRN":19,"el":59,"az":331,"ss":36,"used":true},{"PRN":22,"el":14,"az":44,"ss":0,"used":false},{"PRN":24,"el":17,"az":297,"ss":32,"used":true},{"PRN":28,"el":54,"az":142,"ss":37,"used":true},{"PRN":131,"el":32,"az":233,"ss":0,"used":false},{"PRN":135,"el":20,"az":247,"ss":0,"used":false},{"PRN":138,"el":39,"az":223,"ss":29,"used":false}]}
{"class":"TPV","device":"/dev/ttyACM0","mode":3,"time":"2019-05-16T21:06:14.000Z","ept":0.005,"lat":35.937259833,"lon":-78.929996500,"alt":96.000,"epx":9.856,"epy":13.397,"epv":39.100,"track":0.0000,"speed":0.020,"climb":0.000}
{"class":"TPV","device":"/dev/ttyACM0","mode":3,"time":"2019-05-16T21:06:15.000Z","ept":0.005,"lat":35.937260107,"lon":-78.929996353,"alt":95.535,"epx":9.856,"epy":13.397,"epv":39.100,"track":176.8350,"speed":0.035,"climb":-0.037,"eps":0.38,"epc":78.20}
{"class":"SKY","device":"/dev/ttyACM0","xdop":0.66,"ydop":0.89,"vdop":1.70,"tdop":1.23,"hdop":1.19,"gdop":2.42,"pdop":2.08,"satellites":[{"PRN":1,"el":6,"az":48,"ss":0,"used":false},{"PRN":2,"el":22,"az":237,"ss":29,"used":true},{"PRN":3,"el":29,"az":58,"ss":33,"used":true},{"PRN":6,"el":60,"az":243,"ss":43,"used":true},{"PRN":12,"el":1,"az":318,"ss":0,"used":false},{"PRN":17,"el":63,"az":20,"ss":31,"used":true},{"PRN":19,"el":59,"az":331,"ss":36,"used":true},{"PRN":22,"el":14,"az":44,"ss":0,"used":false},{"PRN":24,"el":17,"az":297,"ss":32,"used":true},{"PRN":28,"el":54,"az":142,"ss":37,"used":true},{"PRN":131,"el":32,"az":233,"ss":0,"used":false},{"PRN":135,"el":20,"az":247,"ss":0,"used":false},{"PRN":138,"el":39,"az":223,"ss":29,"used":false}]}
{"class":"TPV","device":"/dev/ttyACM0","mode":3,"time":"2019-05-16T21:06:15.000Z","ept":0.005,"lat":35.937260167,"lon":-78.929996333,"alt":96.100,"epx":9.856,"epy":13.397,"epv":39.100,"track":0.0000,"speed":0.030,"climb":0.000}
{"class":"TPV","device":"/dev/ttyACM0","mode":3,"time":"2019-05-16T21:06:16.000Z","ept":0.005,"lat":35.937260226,"lon":-78.929997039,"alt":95.807,"epx":9.856,"epy":13.397,"epv":39.100,"track":328.1673,"speed":0.026,"climb":0.038,"eps":0.37,"epc":78.20}
{"class":"SKY","device":"/dev/ttyACM0","xdop":0.66,"ydop":0.89,"vdop":1.70,"tdop":1.23,"hdop":1.19,"gdop":2.42,"pdop":2.08,"satellites":[{"PRN":1,"el":6,"az":48,"ss":0,"used":false},{"PRN":2,"el":22,"az":237,"ss":30,"used":true},{"PRN":3,"el":29,"az":58,"ss":36,"used":true},{"PRN":6,"el":60,"az":243,"ss":44,"used":true},{"PRN":12,"el":1,"az":319,"ss":0,"used":false},{"PRN":17,"el":63,"az":20,"ss":31,"used":true},{"PRN":19,"el":59,"az":331,"ss":36,"used":true},{"PRN":22,"el":14,"az":44,"ss":0,"used":false},{"PRN":24,"el":17,"az":297,"ss":33,"used":true},{"PRN":28,"el":54,"az":142,"ss":37,"used":true},{"PRN":131,"el":32,"az":233,"ss":0,"used":false},{"PRN":135,"el":20,"az":247,"ss":0,"used":false},{"PRN":138,"el":39,"az":223,"ss":29,"used":false}]}
{"class":"TPV","device":"/dev/ttyACM0","mode":3,"time":"2019-05-16T21:06:16.000Z","ept":0.005,"lat":35.937260167,"lon":-78.929997000,"alt":96.400,"epx":9.856,"epy":13.397,"epv":39.100,"track":0.0000,"speed":0.024,"climb":0.000}
{"class":"TPV","device":"/dev/ttyACM0","mode":3,"time":"2019-05-16T21:06:17.000Z","ept":0.005,"lat":35.937260509,"lon":-78.929997448,"alt":95.934,"epx":9.856,"epy":13.397,"epv":39.100,"track":27.1607,"speed":0.013,"climb":0.035,"eps":0.37,"epc":78.20}
{"class":"SKY","device":"/dev/ttyACM0","xdop":0.66,"ydop":0.89,"vdop":1.70,"tdop":1.23,"hdop":1.19,"gdop":2.42,"pdop":2.08,"satellites":[{"PRN":1,"el":6,"az":48,"ss":0,"used":false},{"PRN":2,"el":22,"az":237,"ss":30,"used":true},{"PRN":3,"el":29,"az":58,"ss":35,"used":true},{"PRN":6,"el":60,"az":243,"ss":43,"used":true},{"PRN":12,"el":1,"az":319,"ss":0,"used":false},{"PRN":17,"el":63,"az":20,"ss":31,"used":true},{"PRN":19,"el":59,"az":331,"ss":36,"used":true},{"PRN":22,"el":14,"az":44,"ss":0,"used":false},{"PRN":24,"el":17,"az":297,"ss":33,"used":true},{"PRN":28,"el":54,"az":142,"ss":37,"used":true},{"PRN":131,"el":32,"az":233,"ss":0,"used":false},{"PRN":135,"el":20,"az":247,"ss":0,"used":false},{"PRN":138,"el":39,"az":223,"ss":29,"used":false}]}
{"class":"TPV","device":"/dev/ttyACM0","mode":3,"time":"2019-05-16T21:06:17.000Z","ept":0.005,"lat":35.937260500,"lon":-78.929997333,"alt":96.500,"epx":9.856,"epy":13.397,"epv":39.100,"track":0.0000,"speed":0.014,"climb":0.000}
{"class":"TPV","device":"/dev/ttyACM0","mode":3,"time":"2019-05-16T21:06:18.000Z","ept":0.005,"lat":35.937260604,"lon":-78.929997987,"alt":96.055,"epx":9.856,"epy":13.397,"epv":39.100,"track":148.1673,"speed":0.026,"climb":-0.038,"eps":0.38,"epc":78.20}
{"class":"SKY","device":"/dev/ttyACM0","xdop":0.66,"ydop":0.89,"vdop":1.70,"tdop":1.23,"hdop":1.19,"gdop":2.42,"pdop":2.08,"satellites":[{"PRN":1,"el":6,"az":48,"ss":0,"used":false},{"PRN":2,"el":22,"az":237,"ss":29,"used":true},{"PRN":3,"el":29,"az":58,"ss":35,"used":true},{"PRN":6,"el":60,"az":243,"ss":43,"used":true},{"PRN":12,"el":1,"az":319,"ss":0,"used":false},{"PRN":17,"el":63,"az":20,"ss":33,"used":true},{"PRN":19,"el":59,"az":331,"ss":35,"used":true},{"PRN":22,"el":14,"az":44,"ss":0,"used":false},{"PRN":24,"el":17,"az":297,"ss":33,"used":true},{"PRN":28,"el":54,"az":142,"ss":37,"used":true},{"PRN":131,"el":32,"az":233,"ss":0,"used":false},{"PRN":135,"el":20,"az":247,"ss":0,"used":false},{"PRN":138,"el":39,"az":223,"ss":29,"used":false}]}
{"class":"TPV","device":"/dev/ttyACM0","mode":3,"time":"2019-05-16T21:06:18.000Z","ept":0.005,"lat":35.937260667,"lon":-78.929998000,"alt":96.600,"epx":9.856,"epy":13.397,"epv":39.100,"track":0.0000,"speed":0.028,"climb":0.000}
{"class":"TPV","device":"/dev/ttyACM0","mode":3,"time":"2019-05-16T21:06:19.000Z","ept":0.005,"lat":35.937260952,"lon":-78.929998781,"alt":96.343,"epx":9.856,"epy":13.397,"epv":39.100,"track":158.8874,"speed":0.027,"climb":-0.016,"eps":0.36,"epc":78.20}
{"class":"SKY","device":"/dev/ttyACM0","xdop":0.66,"ydop":0.89,"vdop":1.70,"tdop":1.23,"hdop":1.19,"gdop":2.42,"pdop":2.08,"satellites":[{"PRN":1,"el":6,"az":48,"ss":0,"used":false},{"PRN":2,"el":22,"az":237,"ss":31,"used":true},{"PRN":3,"el":29,"az":58,"ss":36,"used":true},{"PRN":6,"el":60,"az":243,"ss":43,"used":true},{"PRN":12,"el":1,"az":319,"ss":0,"used":false},{"PRN":17,"el":63,"az":20,"ss":33,"used":true},{"PRN":19,"el":59,"az":331,"ss":36,"used":true},{"PRN":22,"el":14,"az":44,"ss":0,"used":false},{"PRN":24,"el":17,"az":297,"ss":34,"used":true},{"PRN":28,"el":54,"az":142,"ss":37,"used":true},{"PRN":131,"el":32,"az":233,"ss":0,"used":false},{"PRN":135,"el":20,"az":247,"ss":0,"used":false},{"PRN":138,"el":39,"az":223,"ss":29,"used":false}]}
{"class":"TPV","device":"/dev/ttyACM0","mode":3,"time":"2019-05-16T21:06:19.000Z","ept":0.005,"lat":35.937261000,"lon":-78.929998833,"alt":96.900,"epx":9.856,"epy":13.397,"epv":39.100,"track":0.0000,"speed":0.027,"climb":0.000}
{"class":"TPV","device":"/dev/ttyACM0","mode":3,"time":"2019-05-16T21:06:20.000Z","ept":0.005,"lat":35.937259859,"lon":-78.929999817,"alt":96.459,"epx":9.856,"epy":13.397,"epv":39.100,"track":184.8360,"speed":0.248,"climb":0.017,"eps":0.31,"epc":78.20}
{"class":"SKY","device":"/dev/ttyACM0","xdop":0.66,"ydop":0.89,"vdop":1.70,"tdop":1.23,"hdop":1.19,"gdop":2.42,"pdop":2.08,"satellites":[{"PRN":1,"el":6,"az":48,"ss":0,"used":false},{"PRN":2,"el":22,"az":237,"ss":26,"used":true},{"PRN":3,"el":29,"az":58,"ss":35,"used":true},{"PRN":6,"el":60,"az":243,"ss":41,"used":true},{"PRN":12,"el":1,"az":319,"ss":0,"used":false},{"PRN":17,"el":63,"az":20,"ss":33,"used":true},{"PRN":19,"el":59,"az":331,"ss":37,"used":true},{"PRN":22,"el":14,"az":44,"ss":16,"used":false},{"PRN":24,"el":17,"az":297,"ss":33,"used":true},{"PRN":28,"el":54,"az":142,"ss":38,"used":true},{"PRN":131,"el":32,"az":233,"ss":0,"used":false},{"PRN":135,"el":20,"az":247,"ss":0,"used":false},{"PRN":138,"el":39,"az":223,"ss":31,"used":false}]}
{"class":"TPV","device":"/dev/ttyACM0","mode":3,"time":"2019-05-16T21:06:20.000Z","ept":0.005,"lat":35.937259833,"lon":-78.929999833,"alt":97.000,"epx":9.856,"epy":13.397,"epv":39.100,"track":0.0000,"speed":0.248,"climb":0.000}
{"class":"TPV","device":"/dev/ttyACM0","mode":3,"time":"2019-05-16T21:06:21.000Z","ept":0.005,"lat":35.937255211,"lon":-78.929999689,"alt":96.591,"epx":9.856,"epy":13.397,"epv":39.100,"track":178.3526,"speed":0.750,"climb":0.028,"eps":0.33,"epc":78.20}
{"class":"SKY","device":"/dev/ttyACM0","xdop":0.66,"ydop":0.89,"vdop":1.70,"tdop":1.23,"hdop":1.19,"gdop":2.42,"pdop":2.08,"satellites":[{"PRN":1,"el":6,"az":48,"ss":0,"used":false},{"PRN":2,"el":22,"az":237,"ss":25,"used":true},{"PRN":3,"el":29,"az":58,"ss":32,"used":true},{"PRN":6,"el":60,"az":243,"ss":43,"used":true},{"PRN":12,"el":1,"az":319,"ss":0,"used":false},{"PRN":17,"el":63,"az":21,"ss":34,"used":true},{"PRN":19,"el":59,"az":331,"ss":37,"used":true},{"PRN":22,"el":14,"az":44,"ss":16,"used":false},{"PRN":24,"el":17,"az":297,"ss":32,"used":true},{"PRN":28,"el":54,"az":142,"ss":38,"used":true},{"PRN":131,"el":32,"az":233,"ss":0,"used":false},{"PRN":135,"el":20,"az":247,"ss":0,"used":false},{"PRN":138,"el":39,"az":223,"ss":31,"used":false}]}
{"class":"TPV","device":"/dev/ttyACM0","mode":3,"time":"2019-05-16T21:06:21.000Z","ept":0.005,"lat":35.937255167,"lon":-78.929999667,"alt":97.200,"epx":9.856,"epy":13.397,"epv":39.100,"track":167.1500,"speed":0.749,"climb":0.000}
{"class":"TPV","device":"/dev/ttyACM0","mode":3,"time":"2019-05-16T21:06:22.000Z","ept":0.005,"lat":35.937247978,"lon":-78.929999580,"alt":96.591,"epx":9.856,"epy":13.397,"epv":39.100,"track":178.8843,"speed":0.920,"climb":-0.008,"eps":0.36,"epc":78.20}
{"class":"SKY","device":"/dev/ttyACM0","xdop":0.66,"ydop":0.89,"vdop":1.70,"tdop":1.23,"hdop":1.19,"gdop":2.42,"pdop":2.08,"satellites":[{"PRN":2,"el":22,"az":237,"ss":26,"used":true},{"PRN":3,"el":29,"az":58,"ss":26,"used":true},{"PRN":6,"el":60,"az":243,"ss":42,"used":true},{"PRN":17,"el":63,"az":21,"ss":36,"used":true},{"PRN":19,"el":59,"az":331,"ss":37,"used":true},{"PRN":22,"el":14,"az":44,"ss":14,"used":false},{"PRN":24,"el":17,"az":297,"ss":36,"used":true},{"PRN":28,"el":54,"az":142,"ss":35,"used":true}]}
{"class":"SKY","device":"/dev/ttyACM0","xdop":0.66,"ydop":0.89,"vdop":1.70,"tdop":1.23,"hdop":1.19,"gdop":2.42,"pdop":2.08,"satellites":[{"PRN":1,"el":6,"az":48,"ss":0,"used":false},{"PRN":2,"el":22,"az":237,"ss":26,"used":true},{"PRN":3,"el":29,"az":58,"ss":26,"used":true},{"PRN":6,"el":60,"az":243,"ss":42,"used":true},{"PRN":12,"el":1,"az":319,"ss":0,"used":false},{"PRN":17,"el":63,"az":21,"ss":36,"used":true},{"PRN":19,"el":59,"az":331,"ss":37,"used":true},{"PRN":22,"el":14,"az":44,"ss":14,"used":false},{"PRN":24,"el":17,"az":297,"ss":36,"used":true},{"PRN":28,"el":54,"az":142,"ss":35,"used":true},{"PRN":131,"el":32,"az":233,"ss":0,"used":false},{"PRN":135,"el":20,"az":247,"ss":0,"used":false},{"PRN":138,"el":39,"az":223,"ss":0,"used":false}]}
{"class":"TPV","device":"/dev/ttyACM0","mode":3,"time":"2019-05-16T21:06:22.000Z","ept":0.005,"lat":35.937248000,"lon":-78.929999667,"alt":97.200,"epx":9.856,"epy":13.397,"epv":39.100,"track":172.7700,"speed":0.921,"climb":0.000}
{"class":"TPV","device":"/dev/ttyACM0","mode":3,"time":"2019-05-16T21:06:23.000Z","ept":0.005,"lat":35.937240287,"lon":-78.929999623,"alt":96.575,"epx":9.856,"epy":13.397,"epv":39.100,"track":176.7963,"speed":0.989,"climb":-0.035,"eps":0.31,"epc":78.20}
{"class":"SKY","device":"/dev/ttyACM0","xdop":0.66,"ydop":0.89,"vdop":1.70,"tdop":1.23,"hdop":1.19,"gdop":2.42,"pdop":2.08,"satellites":[{"PRN":1,"el":6,"az":48,"ss":0,"used":false},{"PRN":2,"el":22,"az":237,"ss":27,"used":true},{"PRN":3,"el":29,"az":58,"ss":32,"used":true},{"PRN":6,"el":60,"az":243,"ss":43,"used":true},{"PRN":12,"el":1,"az":319,"ss":0,"used":false},{"PRN":17,"el":63,"az":21,"ss":36,"used":true},{"PRN":19,"el":59,"az":331,"ss":37,"used":true},{"PRN":22,"el":14,"az":44,"ss":14,"used":false},{"PRN":24,"el":17,"az":297,"ss":30,"used":true},{"PRN":28,"el":54,"az":142,"ss":40,"used":true},{"PRN":131,"el":32,"az":233,"ss":0,"used":false},{"PRN":135,"el":20,"az":247,"ss":0,"used":false},{"PRN":138,"el":39,"az":223,"ss":0,"used":false}]}
{"class":"TPV","device":"/dev/ttyACM0","mode":3,"time":"2019-05-16T21:06:23.000Z","ept":0.005,"lat":35.937240333,"lon":-78.929999667,"alt":97.100,"epx":9.856,"epy":13.397,"epv":39.100,"track":175.5700,"speed":0.983,"climb":0.000}
{"class":"TPV","device":"/dev/ttyACM0","mode":3,"time":"2019-05-16T21:06:24.000Z","ept":0.005,"lat":35.937232534,"lon":-78.929999947,"alt":96.587,"epx":9.856,"epy":13.397,"epv":39.100,"track":180.4457,"speed":0.960,"climb":-0.005,"eps":0.33,"epc":78.20}
{"class":"SKY","device":"/dev/ttyACM0","xdop":0.66,"ydop":0.89,"vdop":1.40,"tdop":0.97,"hdop":1.12,"gdop":2.04,"pdop":1.79,"satellites":[{"PRN":1,"el":6,"az":48,"ss":0,"used":false},{"PRN":2,"el":22,"az":237,"ss":27,"used":true},{"PRN":3,"el":29,"az":58,"ss":26,"used":true},{"PRN":6,"el":60,"az":243,"ss":44,"used":true},{"PRN":12,"el":1,"az":319,"ss":0,"used":false},{"PRN":17,"el":63,"az":21,"ss":36,"used":true},{"PRN":19,"el":59,"az":331,"ss":37,"used":true},{"PRN":22,"el":14,"az":44,"ss":15,"used":true},{"PRN":24,"el":17,"az":297,"ss":32,"used":true},{"PRN":28,"el":54,"az":142,"ss":41,"used":true},{"PRN":131,"el":32,"az":233,"ss":0,"used":false},{"PRN":135,"el":20,"az":247,"ss":0,"used":false},{"PRN":138,"el":39,"az":223,"ss":0,"used":false}]}
{"class":"TPV","device":"/dev/ttyACM0","mode":3,"time":"2019-05-16T21:06:24.000Z","ept":0.005,"lat":35.937232500,"lon":-78.929999833,"alt":97.200,"epx":9.856,"epy":13.397,"epv":32.200,"track":177.5800,"speed":0.959,"climb":0.000}
{"class":"TPV","device":"/dev/ttyACM0","mode":3,"time":"2019-05-16T21:06:25.000Z","ept":0.005,"lat":35.937226060,"lon":-78.930001098,"alt":96.657,"epx":9.856,"epy":13.397,"epv":32.200,"track":179.3981,"speed":0.752,"climb":0.049,"eps":0.32,"epc":64.40}
{"class":"SKY","device":"/dev/ttyACM0","xdop":0.66,"ydop":0.89,"vdop":1.40,"tdop":0.97,"hdop":1.12,"gdop":2.04,"pdop":1.79,"satellites":[{"PRN":1,"el":6,"az":48,"ss":0,"used":false},{"PRN":2,"el":22,"az":237,"ss":28,"used":true},{"PRN":3,"el":29,"az":58,"ss":27,"used":true},{"PRN":6,"el":60,"az":243,"ss":43,"used":true},{"PRN":12,"el":1,"az":319,"ss":0,"used":false},{"PRN":17,"el":63,"az":21,"ss":37,"used":true},{"PRN":19,"el":59,"az":331,"ss":36,"used":true},{"PRN":22,"el":14,"az":44,"ss":15,"used":true},{"PRN":24,"el":17,"az":297,"ss":29,"used":true},{"PRN":28,"el":54,"az":142,"ss":41,"used":true},{"PRN":131,"el":32,"az":233,"ss":0,"used":false},{"PRN":135,"el":20,"az":247,"ss":0,"used":false},{"PRN":138,"el":39,"az":223,"ss":0,"used":false}]}
{"class":"TPV","device":"/dev/ttyACM0","mode":3,"time":"2019-05-16T21:06:25.000Z","ept":0.005,"lat":35.937226167,"lon":-78.930001167,"alt":97.200,"epx":9.856,"epy":13.397,"epv":32.200,"track":178.3600,"speed":0.757,"climb":0.000}
{"class":"TPV","device":"/dev/ttyACM0","mode":3,"time":"2019-05-16T21:06:26.000Z","ept":0.005,"lat":35.937220467,"lon":-78.930003363,"alt":96.662,"epx":9.856,"epy":13.397,"epv":32.200,"track":186.0018,"speed":0.806,"climb":0.015,"eps":0.28,"epc":64.40}
{"class":"SKY","device":"/dev/ttyACM0","xdop":0.66,"ydop":0.89,"vdop":1.70,"tdop":1.23,"hdop":1.19,"gdop":2.42,"pdop":2.08,"satellites":[{"PRN":1,"el":6,"az":48,"ss":0,"used":false},{"PRN":2,"el":22,"az":237,"ss":28,"used":true},{"PRN":3,"el":29,"az":58,"ss":31,"used":true},{"PRN":6,"el":60,"az":243,"ss":42,"used":true},{"PRN":12,"el":1,"az":319,"ss":0,"used":false},{"PRN":17,"el":63,"az":21,"ss":36,"used":true},{"PRN":19,"el":59,"az":331,"ss":39,"used":true},{"PRN":22,"el":13,"az":43,"ss":0,"used":false},{"PRN":24,"el":17,"az":297,"ss":29,"used":true},{"PRN":28,"el":54,"az":142,"ss":42,"used":true},{"PRN":131,"el":32,"az":233,"ss":0,"used":false},{"PRN":135,"el":20,"az":247,"ss":0,"used":false},{"PRN":138,"el":39,"az":223,"ss":0,"used":false}]}
{"class":"TPV","device":"/dev/ttyACM0","mode":3,"time":"2019-05-16T21:06:26.000Z","ept":0.005,"lat":35.937220500,"lon":-78.930003333,"alt":97.200,"epx":9.856,"epy":13.397,"epv":39.100,"track":183.0300,"speed":0.807,"climb":0.000}
{"class":"TPV","device":"/dev/ttyACM0","mode":3,"time":"2019-05-16T21:06:27.000Z","ept":0.005,"lat":35.937213819,"lon":-78.930004683,"alt":96.878,"epx":9.856,"epy":13.397,"epv":39.100,"track":174.1936,"speed":0.993,"climb":0.000,"eps":0.30,"epc":78.20}
{"class":"SKY","device":"/dev/ttyACM0","xdop":0.66,"ydop":0.89,"vdop":1.70,"tdop":1.23,"hdop":1.19,"gdop":2.42,"pdop":2.08,"satellites":[{"PRN":1,"el":6,"az":48,"ss":0,"used":false},{"PRN":2,"el":22,"az":237,"ss":30,"used":true},{"PRN":3,"el":29,"az":58,"ss":28,"used":true},{"PRN":6,"el":60,"az":243,"ss":42,"used":true},{"PRN":12,"el":1,"az":319,"ss":0,"used":false},{"PRN":17,"el":63,"az":21,"ss":37,"used":true},{"PRN":19,"el":59,"az":331,"ss":39,"used":true},{"PRN":22,"el":13,"az":43,"ss":0,"used":false},{"PRN":24,"el":17,"az":297,"ss":22,"used":true},{"PRN":28,"el":54,"az":142,"ss":42,"used":true},{"PRN":131,"el":32,"az":233,"ss":0,"used":false},{"PRN":135,"el":20,"az":247,"ss":0,"used":false},{"PRN":138,"el":39,"az":223,"ss":0,"used":false}]}
{"class":"TPV","device":"/dev/ttyACM0","mode":3,"time":"2019-05-16T21:06:27.000Z","ept":0.005,"lat":35.937213833,"lon":-78.930004667,"alt":97.400,"epx":9.856,"epy":13.397,"epv":39.100,"track":178.3900,"speed":0.990,"climb":0.000}
{"class":"TPV","device":"/dev/ttyACM0","mode":3,"time":"2019-05-16T21:06:28.000Z","ept":0.005,"lat":35.937206397,"lon":-78.930005293,"alt":96.822,"epx":9.856,"epy":13.397,"epv":39.100,"track":175.8363,"speed":0.890,"climb":-0.087,"eps":0.34,"epc":78.20}
{"class":"SKY","device":"/dev/ttyACM0","xdop":0.66,"ydop":0.89,"vdop":1.70,"tdop":1.23,"hdop":1.19,"gdop":2.42,"pdop":2.08,"satellites":[{"PRN":1,"el":6,"az":48,"ss":0,"used":false},{"PRN":2,"el":22,"az":237,"ss":28,"used":true},{"PRN":3,"el":29,"az":58,"ss":33,"used":true},{"PRN":6,"el":60,"az":243,"ss":41,"used":true},{"PRN":12,"el":1,"az":319,"ss":0,"used":false},{"PRN":17,"el":63,"az":21,"ss":35,"used":true},{"PRN":19,"el":59,"az":331,"ss":37,"used":true},{"PRN":22,"el":13,"az":43,"ss":0,"used":false},{"PRN":24,"el":17,"az":297,"ss":29,"used":true},{"PRN":28,"el":54,"az":142,"ss":39,"used":true},{"PRN":131,"el":32,"az":233,"ss":0,"used":false},{"PRN":135,"el":20,"az":247,"ss":0,"used":false},{"PRN":138,"el":39,"az":223,"ss":0,"used":false}]}
{"class":"TPV","device":"/dev/ttyACM0","mode":3,"time":"2019-05-16T21:06:28.000Z","ept":0.005,"lat":35.937206333,"lon":-78.930005333,"alt":97.400,"epx":9.856,"epy":13.397,"epv":39.100,"track":177.1400,"speed":0.889,"climb":0.000}
{"class":"TPV","device":"/dev/ttyACM0","mode":3,"time":"2019-05-16T21:06:29.000Z","ept":0.005,"lat":35.937198896,"lon":-78.930008555,"alt":96.726,"epx":9.856,"epy":13.397,"epv":39.100,"track":196.9425,"speed":1.009,"climb":-0.066,"eps":0.34,"epc":78.20}
{"class":"SKY","device":"/dev/ttyACM0","xdop":0.66,"ydop":0.89,"vdop":1.70,"tdop":1.23,"hdop":1.19,"gdop":2.42,"pdop":2.08,"satellites":[{"PRN":1,"el":6,"az":48,"ss":0,"used":false},{"PRN":2,"el":22,"az":237,"ss":28,"used":true},{"PRN":3,"el":29,"az":58,"ss":33,"used":true},{"PRN":6,"el":60,"az":243,"ss":42,"used":true},{"PRN":12,"el":1,"az":319,"ss":0,"used":false},{"PRN":17,"el":63,"az":21,"ss":35,"used":true},{"PRN":19,"el":59,"az":331,"ss":37,"used":true},{"PRN":22,"el":13,"az":43,"ss":0,"used":false},{"PRN":24,"el":17,"az":297,"ss":19,"used":true},{"PRN":28,"el":54,"az":142,"ss":39,"used":true},{"PRN":131,"el":32,"az":233,"ss":0,"used":false},{"PRN":135,"el":20,"az":247,"ss":0,"used":false},{"PRN":138,"el":39,"az":223,"ss":0,"used":false}]}
{"class":"TPV","device":"/dev/ttyACM0","mode":3,"time":"2019-05-16T21:06:29.000Z","ept":0.005,"lat":35.937198833,"lon":-78.930008500,"alt":97.300,"epx":9.856,"epy":13.397,"epv":39.100,"track":186.8600,"speed":1.009,"climb":0.000}
{"class":"TPV","device":"/dev/ttyACM0","mode":3,"time":"2019-05-16T21:06:30.000Z","ept":0.005,"lat":35.937192233,"lon":-78.930012567,"alt":96.996,"epx":9.856,"epy":13.397,"epv":39.100,"track":195.0500,"speed":0.897,"climb":0.071,"eps":0.29,"epc":78.20}
{"class":"SKY","device":"/dev/ttyACM0","xdop":0.66,"ydop":0.89,"vdop":1.70,"tdop":1.23,"hdop":1.19,"gdop":2.42,"pdop":2.08,"satellites":[{"PRN":1,"el":6,"az":48,"ss":0,"used":false},{"PRN":2,"el":22,"az":237,"ss":28,"used":true},{"PRN":3,"el":29,"az":58,"ss":33,"used":true},{"PRN":6,"el":60,"az":243,"ss":45,"used":true},{"PRN":12,"el":1,"az":319,"ss":0,"used":false},{"PRN":17,"el":63,"az":21,"ss":37,"used":true},{"PRN":19,"el":59,"az":331,"ss":36,"used":true},{"PRN":22,"el":13,"az":43,"ss":0,"used":false},{"PRN":24,"el":17,"az":297,"ss":22,"used":true},{"PRN":28,"el":54,"az":142,"ss":42,"used":true},{"PRN":131,"el":32,"az":233,"ss":0,"used":false},{"PRN":135,"el":20,"az":247,"ss":0,"used":false},{"PRN":138,"el":39,"az":223,"ss":0,"used":false}]}
{"class":"TPV","device":"/dev/ttyACM0","mode":3,"time":"2019-05-16T21:06:30.000Z","ept":0.005,"lat":35.937192167,"lon":-78.930012500,"alt":97.600,"epx":9.856,"epy":13.397,"epv":39.100,"track":191.4800,"speed":0.897,"climb":0.000}
{"class":"TPV","device":"/dev/ttyACM0","mode":3,"time":"2019-05-16T21:06:31.000Z","ept":0.005,"lat":35.937187824,"lon":-78.930016769,"alt":97.041,"epx":9.856,"epy":13.397,"epv":39.100,"track":201.3133,"speed":0.633,"climb":-0.005,"eps":0.31,"epc":78.20}
{"class":"SKY","device":"/dev/ttyACM0","xdop":0.66,"ydop":0.89,"vdop":1.70,"tdop":1.23,"hdop":1.19,"gdop":2.42,"pdop":2.08,"satellites":[{"PRN":1,"el":6,"az":48,"ss":0,"used":false},{"PRN":2,"el":22,"az":237,"ss":29,"used":true},{"PRN":3,"el":29,"az":58,"ss":23,"used":true},{"PRN":6,"el":60,"az":243,"ss":46,"used":true},{"PRN":12,"el":1,"az":319,"ss":0,"used":false},{"PRN":17,"el":63,"az":21,"ss":36,"used":true},{"PRN":19,"el":59,"az":331,"ss":38,"used":true},{"PRN":22,"el":13,"az":43,"ss":0,"used":false},{"PRN":24,"el":17,"az":297,"ss":30,"used":true},{"PRN":28,"el":54,"az":142,"ss":41,"used":true},{"PRN":131,"el":32,"az":233,"ss":0,"used":false},{"PRN":135,"el":20,"az":247,"ss":0,"used":false},{"PRN":138,"el":39,"az":223,"ss":0,"used":false}]}
{"class":"TPV","device":"/dev/ttyACM0","mode":3,"time":"2019-05-16T21:06:31.000Z","ept":0.005,"lat":35.937187833,"lon":-78.930016667,"alt":97.600,"epx":9.856,"epy":13.397,"epv":39.100,"track":194.5300,"speed":0.634,"climb":0.000}
{"class":"TPV","device":"/dev/ttyACM0","mode":3,"time":"2019-05-16T21:06:32.000Z","ept":0.005,"lat":35.937186235,"lon":-78.930020133,"alt":97.029,"epx":9.856,"epy":13.397,"epv":39.100,"track":203.3163,"speed":0.247,"climb":-0.062,"eps":0.40,"epc":78.20}
{"class":"SKY","device":"/dev/ttyACM0","xdop":0.66,"ydop":0.89,"vdop":1.70,"tdop":1.23,"hdop":1.19,"gdop":2.42,"pdop":2.08,"satellites":[{"PRN":2,"el":22,"az":237,"ss":28,"used":true},{"PRN":3,"el":29,"az":58,"ss":36,"used":true},{"PRN":6,"el":60,"az":243,"ss":45,"used":true},{"PRN":17,"el":63,"az":21,"ss":33,"used":true},{"PRN":19,"el":59,"az":331,"ss":34,"used":true},{"PRN":24,"el":17,"az":297,"ss":29,"used":true},{"PRN":28,"el":54,"az":142,"ss":40,"used":true}]}
{"class":"SKY","device":"/dev/ttyACM0","xdop":0.66,"ydop":0.89,"vdop":1.70,"tdop":1.23,"hdop":1.19,"gdop":2.42,"pdop":2.08,"satellites":[{"PRN":1,"el":6,"az":48,"ss":0,"used":false},{"PRN":2,"el":22,"az":237,"ss":28,"used":true},{"PRN":3,"el":29,"az":58,"ss":36,"used":true},{"PRN":6,"el":60,"az":243,"ss":45,"used":true},{"PRN":12,"el":1,"az":319,"ss":0,"used":false},{"PRN":17,"el":63,"az":21,"ss":33,"used":true},{"PRN":19,"el":59,"az":331,"ss":34,"used":true},{"PRN":22,"el":13,"az":43,"ss":0,"used":false},{"PRN":24,"el":17,"az":297,"ss":29,"used":true},{"PRN":28,"el":54,"az":142,"ss":40,"used":true},{"PRN":131,"el":32,"az":233,"ss":0,"used":false},{"PRN":135,"el":20,"az":247,"ss":0,"used":false},{"PRN":138,"el":39,"az":223,"ss":0,"used":false}]}
{"class":"TPV","device":"/dev/ttyACM0","mode":3,"time":"2019-05-16T21:06:32.000Z","ept":0.005,"lat":35.937186167,"lon":-78.930020167,"alt":97.600,"epx":9.856,"epy":13.397,"epv":39.100,"track":0.0000,"speed":0.242,"climb":0.000}
{"class":"TPV","device":"/dev/ttyACM0","mode":3,"time":"2019-05-16T21:06:33.000Z","ept":0.005,"lat":35.937186389,"lon":-78.930021003,"alt":97.022,"epx":9.856,"epy":13.397,"epv":39.100,"track":62.2590,"speed":0.060,"climb":-0.055,"eps":0.39,"epc":78.20}
{"class":"SKY","device":"/dev/ttyACM0","xdop":0.66,"ydop":0.89,"vdop":1.70,"tdop":1.23,"hdop":1.19,"gdop":2.42,"pdop":2.08,"satellites":[{"PRN":1,"el":6,"az":48,"ss":0,"used":false},{"PRN":2,"el":22,"az":237,"ss":27,"used":true},{"PRN":3,"el":29,"az":58,"ss":39,"used":true},{"PRN":6,"el":60,"az":243,"ss":45,"used":true},{"PRN":12,"el":1,"az":319,"ss":0,"used":false},{"PRN":17,"el":63,"az":21,"ss":32,"used":true},{"PRN":19,"el":59,"az":331,"ss":33,"used":true},{"PRN":22,"el":13,"az":43,"ss":0,"used":false},{"PRN":24,"el":17,"az":297,"ss":29,"used":true},{"PRN":28,"el":54,"az":142,"ss":38,"used":true},{"PRN":131,"el":32,"az":233,"ss":0,"used":false},{"PRN":135,"el":20,"az":247,"ss":0,"used":false},{"PRN":138,"el":39,"az":223,"ss":0,"used":false}]}
{"class":"TPV","device":"/dev/ttyACM0","mode":3,"time":"2019-05-16T21:06:33.000Z","ept":0.005,"lat":35.937186333,"lon":-78.930021000,"alt":97.600,"epx":9.856,"epy":13.397,"epv":39.100,"track":0.0000,"speed":0.059,"climb":0.000}
{"class":"TPV","device":"/dev/ttyACM0","mode":3,"time":"2019-05-16T21:06:34.000Z","ept":0.005,"lat":35.937191507,"lon":-78.930015156,"alt":96.869,"epx":9.856,"epy":13.397,"epv":39.100,"track":53.3711,"speed":1.085,"climb":-0.075,"eps":0.58,"epc":78.20}
{"class":"SKY","device":"/dev/ttyACM0","xdop":0.66,"ydop":0.89,"vdop":1.70,"tdop":1.23,"hdop":1.19,"gdop":2.42,"pdop":2.08,"satellites":[{"PRN":1,"el":6,"az":48,"ss":0,"used":false},{"PRN":2,"el":22,"az":237,"ss":27,"used":true},{"PRN":3,"el":29,"az":58,"ss":37,"used":true},{"PRN":6,"el":60,"az":243,"ss":45,"used":true},{"PRN":12,"el":1,"az":319,"ss":0,"used":false},{"PRN":17,"el":63,"az":21,"ss":28,"used":true},{"PRN":19,"el":59,"az":331,"ss":27,"used":true},{"PRN":22,"el":13,"az":43,"ss":0,"used":false},{"PRN":24,"el":17,"az":297,"ss":21,"used":true},{"PRN":28,"el":54,"az":142,"ss":40,"used":true},{"PRN":131,"el":32,"az":233,"ss":0,"used":false},{"PRN":135,"el":20,"az":247,"ss":33,"used":false},{"PRN":138,"el":39,"az":223,"ss":0,"used":false}]}
{"class":"TPV","device":"/dev/ttyACM0","mode":3,"time":"2019-05-16T21:06:34.000Z","ept":0.005,"lat":35.937191500,"lon":-78.930015167,"alt":97.400,"epx":9.856,"epy":13.397,"epv":39.100,"track":122.2100,"speed":1.084,"climb":0.000}
{"class":"TPV","device":"/dev/ttyACM0","mode":3,"time":"2019-05-16T21:06:35.000Z","ept":0.005,"lat":35.937195193,"lon":-78.929997961,"alt":97.276,"epx":9.856,"epy":13.397,"epv":39.100,"track":84.8617,"speed":2.081,"climb":-0.019,"eps":0.39,"epc":78.20}
{"class":"SKY","device":"/dev/ttyACM0","xdop":0.66,"ydop":0.89,"vdop":1.70,"tdop":1.23,"hdop":1.19,"gdop":2.42,"pdop":2.08,"satellites":[{"PRN":1,"el":6,"az":48,"ss":0,"used":false},{"PRN":2,"el":22,"az":237,"ss":27,"used":true},{"PRN":3,"el":29,"az":58,"ss":31,"used":true},{"PRN":6,"el":60,"az":243,"ss":39,"used":true},{"PRN":12,"el":1,"az":319,"ss":0,"used":false},{"PRN":17,"el":63,"az":21,"ss":40,"used":true},{"PRN":19,"el":59,"az":331,"ss":36,"used":true},{"PRN":22,"el":13,"az":43,"ss":0,"used":false},{"PRN":24,"el":17,"az":297,"ss":23,"used":true},{"PRN":28,"el":54,"az":142,"ss":40,"used":true},{"PRN":131,"el":32,"az":233,"ss":0,"used":false},{"PRN":135,"el":20,"az":247,"ss":30,"used":false},{"PRN":138,"el":39,"az":223,"ss":0,"used":false}]}
{"class":"TPV","device":"/dev/ttyACM0","mode":3,"time":"2019-05-16T21:06:35.000Z","ept":0.005,"lat":35.937195167,"lon":-78.929997833,"alt":97.800,"epx":9.856,"epy":13.397,"epv":39.100,"track":93.8400,"speed":2.083,"climb":0.000}
{"class":"TPV","device":"/dev/ttyACM0","mode":3,"time":"2019-05-16T21:06:36.000Z","ept":0.005,"lat":35.937195426,"lon":-78.929974859,"alt":97.258,"epx":9.856,"epy":13.397,"epv":39.100,"track":108.9225,"speed":2.235,"climb":-0.040,"eps":0.31,"epc":78.20}
{"class":"SKY","device":"/dev/ttyACM0","xdop":0.66,"ydop":0.89,"vdop":1.70,"tdop":1.23,"hdop":1.19,"gdop":2.42,"pdop":2.08,"satellites":[{"PRN":1,"el":6,"az":48,"ss":0,"used":false},{"PRN":2,"el":22,"az":237,"ss":31,"used":true},{"PRN":3,"el":29,"az":58,"ss":39,"used":true},{"PRN":6,"el":60,"az":243,"ss":41,"used":true},{"PRN":12,"el":1,"az":319,"ss":0,"used":false},{"PRN":17,"el":63,"az":21,"ss":36,"used":true},{"PRN":19,"el":59,"az":331,"ss":40,"used":true},{"PRN":22,"el":13,"az":43,"ss":0,"used":false},{"PRN":24,"el":17,"az":297,"ss":25,"used":true},{"PRN":28,"el":54,"az":142,"ss":40,"used":true},{"PRN":131,"el":32,"az":233,"ss":0,"used":false},{"PRN":135,"el":20,"az":247,"ss":29,"used":false},{"PRN":138,"el":39,"az":223,"ss":36,"used":false}]}
{"class":"TPV","device":"/dev/ttyACM0","mode":3,"time":"2019-05-16T21:06:36.000Z","ept":0.005,"lat":35.937195500,"lon":-78.929974833,"alt":97.800,"epx":9.856,"epy":13.397,"epv":39.100,"track":106.1600,"speed":2.231,"climb":0.000}
{"class":"TPV","device":"/dev/ttyACM0","mode":3,"time":"2019-05-16T21:06:37.000Z","ept":0.005,"lat":35.937184380,"lon":-78.929955897,"alt":97.210,"epx":9.856,"epy":13.397,"epv":39.100,"track":134.7285,"speed":2.153,"climb":-0.074,"eps":0.55,"epc":78.20}
{"class":"SKY","device":"/dev/ttyACM0","xdop":0.66,"ydop":0.89,"vdop":1.70,"tdop":1.23,"hdop":1.19,"gdop":2.42,"pdop":2.08,"satellites":[{"PRN":1,"el":6,"az":48,"ss":0,"used":false},{"PRN":2,"el":22,"az":237,"ss":26,"used":true},{"PRN":3,"el":29,"az":58,"ss":35,"used":true},{"PRN":6,"el":60,"az":243,"ss":41,"used":true},{"PRN":12,"el":1,"az":319,"ss":0,"used":false},{"PRN":17,"el":63,"az":21,"ss":39,"used":true},{"PRN":19,"el":59,"az":331,"ss":41,"used":true},{"PRN":22,"el":13,"az":43,"ss":0,"used":false},{"PRN":24,"el":17,"az":297,"ss":31,"used":true},{"PRN":28,"el":54,"az":142,"ss":34,"used":true},{"PRN":131,"el":32,"az":233,"ss":0,"used":false},{"PRN":135,"el":20,"az":247,"ss":29,"used":false},{"PRN":138,"el":39,"az":223,"ss":37,"used":false}]}
{"class":"TPV","device":"/dev/ttyACM0","mode":3,"time":"2019-05-16T21:06:37.000Z","ept":0.005,"lat":35.937184333,"lon":-78.929955833,"alt":97.800,"epx":9.856,"epy":13.397,"epv":39.100,"track":121.7200,"speed":2.154,"climb":0.000}
{"class":"TPV","device":"/dev/ttyACM0","mode":3,"time":"2019-05-16T21:06:38.000Z","ept":0.005,"lat":35.937169934,"lon":-78.929941099,"alt":97.718,"epx":9.856,"epy":13.397,"epv":39.100,"track":153.4234,"speed":2.660,"climb":-0.040,"eps":0.37,"epc":78.20}
{"class":"SKY","device":"/dev/ttyACM0","xdop":0.66,"ydop":0.89,"vdop":1.70,"tdop":1.23,"hdop":1.19,"gdop":2.42,"pdop":2.08,"satellites":[{"PRN":1,"el":6,"az":48,"ss":0,"used":false},{"PRN":2,"el":22,"az":237,"ss":35,"used":true},{"PRN":3,"el":29,"az":58,"ss":31,"used":true},{"PRN":6,"el":60,"az":243,"ss":32,"used":true},{"PRN":12,"el":1,"az":319,"ss":0,"used":false},{"PRN":17,"el":63,"az":21,"ss":42,"used":true},{"PRN":19,"el":59,"az":331,"ss":37,"used":true},{"PRN":22,"el":13,"az":43,"ss":16,"used":false},{"PRN":24,"el":17,"az":297,"ss":25,"used":true},{"PRN":28,"el":54,"az":142,"ss":37,"used":true},{"PRN":131,"el":32,"az":233,"ss":0,"used":false},{"PRN":135,"el":20,"az":247,"ss":29,"used":false},{"PRN":138,"el":39,"az":223,"ss":37,"used":false}]}
{"class":"TPV","device":"/dev/ttyACM0","mode":3,"time":"2019-05-16T21:06:38.000Z","ept":0.005,"lat":35.937170000,"lon":-78.929941000,"alt":98.300,"epx":9.856,"epy":13.397,"epv":39.100,"track":136.1600,"speed":2.658,"climb":0.000}
{"class":"TPV","device":"/dev/ttyACM0","mode":3,"time":"2019-05-16T21:06:39.000Z","ept":0.005,"lat":35.937143548,"lon":-78.929935361,"alt":97.923,"epx":9.856,"epy":13.397,"epv":39.100,"track":174.7904,"speed":3.327,"climb":-0.063,"eps":0.28,"epc":78.20}
{"class":"SKY","device":"/dev/ttyACM0","xdop":0.66,"ydop":0.89,"vdop":1.70,"tdop":1.23,"hdop":1.19,"gdop":2.42,"pdop":2.08,"satellites":[{"PRN":1,"el":6,"az":48,"ss":0,"used":false},{"PRN":2,"el":22,"az":237,"ss":32,"used":true},{"PRN":3,"el":29,"az":58,"ss":27,"used":true},{"PRN":6,"el":60,"az":243,"ss":39,"used":true},{"PRN":12,"el":1,"az":319,"ss":0,"used":false},{"PRN":17,"el":63,"az":21,"ss":44,"used":true},{"PRN":19,"el":59,"az":331,"ss":41,"used":true},{"PRN":22,"el":13,"az":43,"ss":16,"used":false},{"PRN":24,"el":17,"az":297,"ss":26,"used":true},{"PRN":28,"el":54,"az":142,"ss":41,"used":true},{"PRN":131,"el":32,"az":233,"ss":0,"used":false},{"PRN":135,"el":20,"az":247,"ss":33,"used":false},{"PRN":138,"el":39,"az":223,"ss":39,"used":false}]}
{"class":"TPV","device":"/dev/ttyACM0","mode":3,"time":"2019-05-16T21:06:39.000Z","ept":0.005,"lat":35.937143500,"lon":-78.929935333,"alt":98.500,"epx":9.856,"epy":13.397,"epv":39.100,"track":166.3900,"speed":3.323,"climb":0.000}
{"class":"TPV","device":"/dev/ttyACM0","mode":3,"time":"2019-05-16T21:06:40.000Z","ept":0.005,"lat":35.937113066,"lon":-78.929940985,"alt":97.904,"epx":9.856,"epy":13.397,"epv":39.100,"track":192.3648,"speed":3.879,"climb":-0.141,"eps":0.31,"epc":78.20}
{"class":"SKY","device":"/dev/ttyACM0","xdop":0.66,"ydop":0.89,"vdop":1.70,"tdop":1.23,"hdop":1.19,"gdop":2.42,"pdop":2.08,"satellites":[{"PRN":1,"el":6,"az":48,"ss":0,"used":false},{"PRN":2,"el":22,"az":237,"ss":31,"used":true},{"PRN":3,"el":29,"az":58,"ss":26,"used":true},{"PRN":6,"el":60,"az":243,"ss":37,"used":true},{"PRN":12,"el":1,"az":319,"ss":0,"used":false},{"PRN":17,"el":63,"az":21,"ss":45,"used":true},{"PRN":19,"el":59,"az":331,"ss":39,"used":true},{"PRN":22,"el":13,"az":43,"ss":16,"used":false},{"PRN":24,"el":17,"az":297,"ss":26,"used":true},{"PRN":28,"el":54,"az":142,"ss":35,"used":true},{"PRN":131,"el":32,"az":233,"ss":0,"used":false},{"PRN":135,"el":20,"az":247,"ss":29,"used":false},{"PRN":138,"el":39,"az":223,"ss":36,"used":false}]}
{"class":"TPV","device":"/dev/ttyACM0","mode":3,"time":"2019-05-16T21:06:40.000Z","ept":0.005,"lat":35.937113000,"lon":-78.929941000,"alt":98.500,"epx":9.856,"epy":13.397,"epv":39.100,"track":184.1700,"speed":3.874,"climb":0.000}
{"class":"TPV","device":"/dev/ttyACM0","mode":3,"time":"2019-05-16T21:06:41.000Z","ept":0.005,"lat":35.937081115,"lon":-78.929952755,"alt":97.921,"epx":9.856,"epy":13.397,"epv":39.100,"track":193.2934,"speed":4.190,"climb":-0.219,"eps":0.33,"epc":78.20}
{"class":"SKY","device":"/dev/ttyACM0","xdop":0.66,"ydop":0.89,"vdop":1.40,"tdop":0.97,"hdop":1.12,"gdop":2.04,"pdop":1.79,"satellites":[{"PRN":1,"el":6,"az":48,"ss":0,"used":false},{"PRN":2,"el":22,"az":237,"ss":25,"used":true},{"PRN":3,"el":29,"az":58,"ss":37,"used":true},{"PRN":6,"el":60,"az":243,"ss":36,"used":true},{"PRN":12,"el":1,"az":319,"ss":0,"used":false},{"PRN":17,"el":63,"az":21,"ss":44,"used":true},{"PRN":19,"el":59,"az":331,"ss":41,"used":true},{"PRN":22,"el":13,"az":43,"ss":17,"used":true},{"PRN":24,"el":17,"az":297,"ss":26,"used":true},{"PRN":28,"el":54,"az":142,"ss":39,"used":true},{"PRN":131,"el":32,"az":233,"ss":0,"used":false},{"PRN":135,"el":20,"az":247,"ss":28,"used":false},{"PRN":138,"el":39,"az":223,"ss":38,"used":false}]}
{"class":"TPV","device":"/dev/ttyACM0","mode":3,"time":"2019-05-16T21:06:41.000Z","ept":0.005,"lat":35.937081167,"lon":-78.929952833,"alt":98.500,"epx":9.856,"epy":13.397,"epv":32.200,"track":190.6200,"speed":4.191,"climb":0.000}
{"class":"TPV","device":"/dev/ttyACM0","mode":3,"time":"2019-05-16T21:06:42.000Z","ept":0.005,"lat":35.937044433,"lon":-78.929966406,"alt":97.794,"epx":9.856,"epy":13.397,"epv":32.200,"track":196.2555,"speed":4.379,"climb":-0.198,"eps":0.37,"epc":64.40}
{"class":"SKY","device":"/dev/ttyACM0","xdop":0.66,"ydop":0.89,"vdop":1.40,"tdop":0.97,"hdop":1.12,"gdop":2.04,"pdop":1.79,"satellites":[{"PRN":2,"el":22,"az":237,"ss":24,"used":true},{"PRN":3,"el":29,"az":58,"ss":38,"used":true},{"PRN":6,"el":60,"az":243,"ss":37,"used":true},{"PRN":17,"el":63,"az":21,"ss":42,"used":true},{"PRN":19,"el":59,"az":331,"ss":41,"used":true},{"PRN":22,"el":13,"az":43,"ss":20,"used":true},{"PRN":24,"el":17,"az":297,"ss":27,"used":true},{"PRN":28,"el":54,"az":142,"ss":36,"used":true},{"PRN":135,"el":20,"az":247,"ss":27,"used":false},{"PRN":138,"el":39,"az":223,"ss":38,"used":false}]}
{"class":"SKY","device":"/dev/ttyACM0","xdop":0.66,"ydop":0.89,"vdop":1.40,"tdop":0.97,"hdop":1.12,"gdop":2.04,"pdop":1.79,"satellites":[{"PRN":1,"el":6,"az":48,"ss":0,"used":false},{"PRN":2,"el":22,"az":237,"ss":24,"used":true},{"PRN":3,"el":29,"az":58,"ss":38,"used":true},{"PRN":6,"el":60,"az":243,"ss":37,"used":true},{"PRN":12,"el":1,"az":319,"ss":0,"used":false},{"PRN":17,"el":63,"az":21,"ss":42,"used":true},{"PRN":19,"el":59,"az":331,"ss":41,"used":true},{"PRN":22,"el":13,"az":43,"ss":20,"used":true},{"PRN":24,"el":17,"az":297,"ss":27,"used":true},{"PRN":28,"el":54,"az":142,"ss":36,"used":true},{"PRN":131,"el":32,"az":233,"ss":0,"used":false},{"PRN":135,"el":20,"az":247,"ss":27,"used":false},{"PRN":138,"el":39,"az":223,"ss":38,"used":false}]}
{"class":"TPV","device":"/dev/ttyACM0","mode":3,"time":"2019-05-16T21:06:42.000Z","ept":0.005,"lat":35.937044500,"lon":-78.929966333,"alt":98.400,"epx":9.856,"epy":13.397,"epv":32.200,"track":194.8000,"speed":4.378,"climb":0.000}
{"class":"TPV","device":"/dev/ttyACM0","mode":3,"time":"2019-05-16T21:06:43.000Z","ept":0.005,"lat":35.937007792,"lon":-78.929980665,"alt":97.695,"epx":9.856,"epy":13.397,"epv":32.200,"track":197.6556,"speed":4.384,"climb":-0.166,"eps":0.37,"epc":64.40}
{"class":"SKY","device":"/dev/ttyACM0","xdop":0.66,"ydop":0.89,"vdop":1.40,"tdop":0.97,"hdop":1.12,"gdop":2.04,"pdop":1.79,"satellites":[{"PRN":1,"el":6,"az":48,"ss":0,"used":false},{"PRN":2,"el":22,"az":237,"ss":23,"used":true},{"PRN":3,"el":29,"az":58,"ss":29,"used":true},{"PRN":6,"el":60,"az":243,"ss":37,"used":true},{"PRN":12,"el":1,"az":319,"ss":0,"used":false},{"PRN":17,"el":63,"az":21,"ss":42,"used":true},{"PRN":19,"el":59,"az":331,"ss":39,"used":true},{"PRN":22,"el":13,"az":43,"ss":24,"used":true},{"PRN":24,"el":17,"az":297,"ss":29,"used":true},{"PRN":28,"el":54,"az":142,"ss":36,"used":true},{"PRN":131,"el":32,"az":233,"ss":0,"used":false},{"PRN":135,"el":20,"az":247,"ss":26,"used":false},{"PRN":138,"el":39,"az":223,"ss":35,"used":false}]}
{"class":"TPV","device":"/dev/ttyACM0","mode":3,"time":"2019-05-16T21:06:43.000Z","ept":0.005,"lat":35.937007833,"lon":-78.929980667,"alt":98.300,"epx":9.856,"epy":13.397,"epv":32.200,"track":196.9000,"speed":4.386,"climb":0.000}
{"class":"TPV","device":"/dev/ttyACM0","mode":3,"time":"2019-05-16T21:06:44.000Z","ept":0.005,"lat":35.936972538,"lon":-78.929996894,"alt":97.929,"epx":9.856,"epy":13.397,"epv":32.200,"track":200.4555,"speed":4.317,"climb":-0.163,"eps":0.38,"epc":64.40}
{"class":"SKY","device":"/dev/ttyACM0","xdop":0.66,"ydop":0.89,"vdop":1.40,"tdop":0.97,"hdop":1.12,"gdop":2.04,"pdop":1.79,"satellites":[{"PRN":1,"el":6,"az":48,"ss":0,"used":false},{"PRN":2,"el":22,"az":237,"ss":23,"used":true},{"PRN":3,"el":29,"az":58,"ss":28,"used":true},{"PRN":6,"el":60,"az":243,"ss":37,"used":true},{"PRN":12,"el":1,"az":319,"ss":0,"used":false},{"PRN":17,"el":63,"az":21,"ss":41,"used":true},{"PRN":19,"el":59,"az":331,"ss":41,"used":true},{"PRN":22,"el":13,"az":43,"ss":23,"used":true},{"PRN":24,"el":17,"az":297,"ss":19,"used":true},{"PRN":28,"el":54,"az":142,"ss":36,"used":true},{"PRN":131,"el":32,"az":233,"ss":0,"used":false},{"PRN":135,"el":20,"az":247,"ss":0,"used":false},{"PRN":138,"el":39,"az":223,"ss":31,"used":false}]}
{"class":"TPV","device":"/dev/ttyACM0","mode":3,"time":"2019-05-16T21:06:44.000Z","ept":0.005,"lat":35.936972500,"lon":-78.929996833,"alt":98.500,"epx":9.856,"epy":13.397,"epv":32.200,"track":199.2500,"speed":4.319,"climb":0.000}
{"class":"TPV","device":"/dev/ttyACM0","mode":3,"time":"2019-05-16T21:06:45.000Z","ept":0.005,"lat":35.936939122,"lon":-78.930010382,"alt":97.200,"epx":9.856,"epy":13.397,"epv":32.200,"track":196.8928,"speed":4.001,"climb":-0.325,"eps":0.35,"epc":64.40}
{"class":"SKY","device":"/dev/ttyACM0","xdop":0.66,"ydop":0.89,"vdop":1.40,"tdop":0.97,"hdop":1.12,"gdop":2.04,"pdop":1.79,"satellites":[{"PRN":1,"el":6,"az":48,"ss":0,"used":false},{"PRN":2,"el":22,"az":237,"ss":22,"used":true},{"PRN":3,"el":29,"az":58,"ss":25,"used":true},{"PRN":6,"el":60,"az":243,"ss":39,"used":true},{"PRN":12,"el":1,"az":319,"ss":0,"used":false},{"PRN":17,"el":63,"az":21,"ss":42,"used":true},{"PRN":19,"el":59,"az":331,"ss":40,"used":true},{"PRN":22,"el":13,"az":43,"ss":21,"used":true},{"PRN":24,"el":17,"az":297,"ss":17,"used":true},{"PRN":28,"el":54,"az":142,"ss":36,"used":true},{"PRN":131,"el":32,"az":233,"ss":0,"used":false},{"PRN":135,"el":20,"az":247,"ss":0,"used":false},{"PRN":138,"el":39,"az":223,"ss":34,"used":false}]}
{"class":"TPV","device":"/dev/ttyACM0","mode":3,"time":"2019-05-16T21:06:45.000Z","ept":0.005,"lat":35.936939167,"lon":-78.930010333,"alt":97.800,"epx":9.856,"epy":13.397,"epv":32.200,"track":197.7400,"speed":4.005,"climb":0.000}
{"class":"TPV","device":"/dev/ttyACM0","mode":3,"time":"2019-05-16T21:06:46.000Z","ept":0.005,"lat":35.936907421,"lon":-78.930018492,"alt":96.890,"epx":9.856,"epy":13.397,"epv":32.200,"track":188.7761,"speed":3.587,"climb":-0.273,"eps":0.35,"epc":64.40}
{"class":"SKY","device":"/dev/ttyACM0","xdop":0.66,"ydop":0.89,"vdop":1.40,"tdop":0.97,"hdop":1.12,"gdop":2.04,"pdop":1.79,"satellites":[{"PRN":1,"el":6,"az":48,"ss":0,"used":false},{"PRN":2,"el":22,"az":237,"ss":21,"used":true},{"PRN":3,"el":29,"az":58,"ss":30,"used":true},{"PRN":6,"el":60,"az":243,"ss":37,"used":true},{"PRN":12,"el":1,"az":319,"ss":0,"used":false},{"PRN":17,"el":63,"az":21,"ss":43,"used":true},{"PRN":19,"el":59,"az":331,"ss":40,"used":true},{"PRN":22,"el":13,"az":43,"ss":20,"used":true},{"PRN":24,"el":17,"az":297,"ss":15,"used":true},{"PRN":28,"el":54,"az":142,"ss":36,"used":true},{"PRN":131,"el":32,"az":233,"ss":0,"used":false},{"PRN":135,"el":20,"az":247,"ss":0,"used":false},{"PRN":138,"el":39,"az":223,"ss":35,"used":false}]}
{"class":"TPV","device":"/dev/ttyACM0","mode":3,"time":"2019-05-16T21:06:46.000Z","ept":0.005,"lat":35.936907500,"lon":-78.930018500,"alt":97.500,"epx":9.856,"epy":13.397,"epv":32.200,"track":192.4200,"speed":3.581,"climb":0.000}
{"class":"TPV","device":"/dev/ttyACM0","mode":3,"time":"2019-05-16T21:06:47.000Z","ept":0.005,"lat":35.936882013,"lon":-78.930022825,"alt":97.508,"epx":9.856,"epy":13.397,"epv":32.200,"track":181.2895,"speed":2.758,"climb":-0.063,"eps":0.32,"epc":64.40}
{"class":"SKY","device":"/dev/ttyACM0","xdop":0.66,"ydop":0.89,"vdop":1.40,"tdop":0.97,"hdop":1.12,"gdop":2.04,"pdop":1.79,"satellites":[{"PRN":1,"el":6,"az":48,"ss":0,"used":false},{"PRN":2,"el":22,"az":237,"ss":23,"used":true},{"PRN":3,"el":29,"az":58,"ss":30,"used":true},{"PRN":6,"el":60,"az":243,"ss":38,"used":true},{"PRN":12,"el":1,"az":319,"ss":0,"used":false},{"PRN":17,"el":63,"az":21,"ss":45,"used":true},{"PRN":19,"el":59,"az":331,"ss":39,"used":true},{"PRN":22,"el":13,"az":43,"ss":18,"used":true},{"PRN":24,"el":17,"az":297,"ss":15,"used":true},{"PRN":28,"el":54,"az":142,"ss":38,"used":true},{"PRN":131,"el":32,"az":233,"ss":0,"used":false},{"PRN":135,"el":20,"az":247,"ss":0,"used":false},{"PRN":138,"el":39,"az":223,"ss":35,"used":false}]}
{"class":"TPV","device":"/dev/ttyACM0","mode":3,"time":"2019-05-16T21:06:47.000Z","ept":0.005,"lat":35.936882000,"lon":-78.930022833,"alt":98.100,"epx":9.856,"epy":13.397,"epv":32.200,"track":186.7900,"speed":2.758,"climb":0.000}
{"class":"TPV","device":"/dev/ttyACM0","mode":3,"time":"2019-05-16T21:06:48.000Z","ept":0.005,"lat":35.936864089,"lon":-78.930022799,"alt":97.338,"epx":9.856,"epy":13.397,"epv":32.200,"track":178.0873,"speed":1.764,"climb":-0.106,"eps":0.33,"epc":64.40}
{"class":"SKY","device":"/dev/ttyACM0","xdop":0.66,"ydop":0.89,"vdop":1.40,"tdop":0.97,"hdop":1.12,"gdop":2.04,"pdop":1.79,"satellites":[{"PRN":1,"el":6,"az":48,"ss":0,"used":false},{"PRN":2,"el":22,"az":237,"ss":24,"used":true},{"PRN":3,"el":29,"az":58,"ss":33,"used":true},{"PRN":6,"el":60,"az":243,"ss":37,"used":true},{"PRN":12,"el":1,"az":319,"ss":0,"used":false},{"PRN":17,"el":63,"az":21,"ss":44,"used":true},{"PRN":19,"el":59,"az":331,"ss":40,"used":true},{"PRN":22,"el":13,"az":43,"ss":17,"used":true},{"PRN":24,"el":17,"az":297,"ss":16,"used":true},{"PRN":28,"el":54,"az":142,"ss":37,"used":true},{"PRN":131,"el":32,"az":233,"ss":0,"used":false},{"PRN":135,"el":20,"az":247,"ss":0,"used":false},{"PRN":138,"el":39,"az":223,"ss":32,"used":false}]}
{"class":"TPV","device":"/dev/ttyACM0","mode":3,"time":"2019-05-16T21:06:48.000Z","ept":0.005,"lat":35.936864167,"lon":-78.930022833,"alt":97.900,"epx":9.856,"epy":13.397,"epv":32.200,"track":183.4500,"speed":1.762,"climb":0.000}
{"class":"TPV","device":"/dev/ttyACM0","mode":3,"time":"2019-05-16T21:06:49.000Z","ept":0.005,"lat":35.936852332,"lon":-78.930022196,"alt":97.399,"epx":9.856,"epy":13.397,"epv":32.200,"track":173.6891,"speed":1.273,"climb":-0.128,"eps":0.31,"epc":64.40}
{"class":"SKY","device":"/dev/ttyACM0","xdop":0.66,"ydop":0.89,"vdop":1.40,"tdop":0.97,"hdop":1.12,"gdop":2.04,"pdop":1.79,"satellites":[{"PRN":1,"el":6,"az":48,"ss":0,"used":false},{"PRN":2,"el":22,"az":237,"ss":25,"used":true},{"PRN":3,"el":29,"az":58,"ss":33,"used":true},{"PRN":6,"el":60,"az":243,"ss":36,"used":true},{"PRN":12,"el":1,"az":319,"ss":0,"used":false},{"PRN":17,"el":63,"az":21,"ss":44,"used":true},{"PRN":19,"el":59,"az":331,"ss":41,"used":true},{"PRN":22,"el":13,"az":43,"ss":16,"used":true},{"PRN":24,"el":17,"az":297,"ss":17,"used":true},{"PRN":28,"el":54,"az":142,"ss":38,"used":true},{"PRN":131,"el":32,"az":233,"ss":0,"used":false},{"PRN":135,"el":20,"az":247,"ss":0,"used":false},{"PRN":138,"el":39,"az":223,"ss":31,"used":false}]}
{"class":"TPV","device":"/dev/ttyACM0","mode":3,"time":"2019-05-16T21:06:49.000Z","ept":0.005,"lat":35.936852333,"lon":-78.930022167,"alt":98.000,"epx":9.856,"epy":13.397,"epv":32.200,"track":179.1500,"speed":1.274,"climb":0.000}
{"class":"TPV","device":"/dev/ttyACM0","mode":3,"time":"2019-05-16T21:06:50.000Z","ept":0.005,"lat":35.936840079,"lon":-78.930019983,"alt":97.469,"epx":9.856,"epy":13.397,"epv":32.200,"track":166.2634,"speed":1.750,"climb":-0.125,"eps":0.25,"epc":64.40}
{"class":"SKY","device":"/dev/ttyACM0","xdop":0.66,"ydop":0.89,"vdop":1.40,"tdop":0.97,"hdop":1.12,"gdop":2.04,"pdop":1.79,"satellites":[{"PRN":1,"el":6,"az":48,"ss":0,"used":false},{"PRN":2,"el":22,"az":237,"ss":32,"used":true},{"PRN":3,"el":29,"az":58,"ss":28,"used":true},{"PRN":6,"el":60,"az":243,"ss":36,"used":true},{"PRN":12,"el":1,"az":319,"ss":0,"used":false},{"PRN":17,"el":63,"az":21,"ss":45,"used":true},{"PRN":19,"el":59,"az":331,"ss":43,"used":true},{"PRN":22,"el":13,"az":43,"ss":18,"used":true},{"PRN":24,"el":17,"az":297,"ss":18,"used":true},{"PRN":28,"el":54,"az":142,"ss":42,"used":true},{"PRN":131,"el":32,"az":233,"ss":0,"used":false},{"PRN":135,"el":20,"az":247,"ss":0,"used":false},{"PRN":138,"el":39,"az":223,"ss":30,"used":false}]}
{"class":"TPV","device":"/dev/ttyACM0","mode":3,"time":"2019-05-16T21:06:50.000Z","ept":0.005,"lat":35.936840167,"lon":-78.930020000,"alt":98.000,"epx":9.856,"epy":13.397,"epv":32.200,"track":169.9800,"speed":1.752,"climb":0.000}
{"class":"TPV","device":"/dev/ttyACM0","mode":3,"time":"2019-05-16T21:06:51.000Z","ept":0.005,"lat":35.936820770,"lon":-78.930010110,"alt":97.818,"epx":9.856,"epy":13.397,"epv":32.200,"track":150.9443,"speed":2.867,"climb":-0.121,"eps":0.32,"epc":64.40}
{"class":"SKY","device":"/dev/ttyACM0","xdop":0.66,"ydop":0.89,"vdop":1.40,"tdop":0.97,"hdop":1.12,"gdop":2.04,"pdop":1.79,"satellites":[{"PRN":1,"el":6,"az":48,"ss":0,"used":false},{"PRN":2,"el":22,"az":238,"ss":32,"used":true},{"PRN":3,"el":29,"az":58,"ss":38,"used":true},{"PRN":6,"el":60,"az":243,"ss":38,"used":true},{"PRN":12,"el":1,"az":319,"ss":0,"used":false},{"PRN":17,"el":63,"az":21,"ss":43,"used":true},{"PRN":19,"el":59,"az":331,"ss":39,"used":true},{"PRN":22,"el":13,"az":43,"ss":18,"used":true},{"PRN":24,"el":17,"az":297,"ss":19,"used":true},{"PRN":28,"el":54,"az":142,"ss":40,"used":true},{"PRN":131,"el":32,"az":233,"ss":0,"used":false},{"PRN":135,"el":20,"az":247,"ss":0,"used":false},{"PRN":138,"el":39,"az":223,"ss":39,"used":false}]}
{"class":"TPV","device":"/dev/ttyACM0","mode":3,"time":"2019-05-16T21:06:51.000Z","ept":0.005,"lat":35.936820667,"lon":-78.930010167,"alt":98.400,"epx":9.856,"epy":13.397,"epv":32.200,"track":154.0900,"speed":2.869,"climb":0.000}
{"class":"TPV","device":"/dev/ttyACM0","mode":3,"time":"2019-05-16T21:06:52.000Z","ept":0.005,"lat":35.936798695,"lon":-78.929982911,"alt":98.045,"epx":9.856,"epy":13.397,"epv":32.200,"track":129.9825,"speed":3.811,"climb":-0.012,"eps":0.35,"epc":64.40}
{"class":"SKY","device":"/dev/ttyACM0","xdop":0.66,"ydop":0.89,"vdop":1.40,"tdop":0.97,"hdop":1.12,"gdop":2.04,"pdop":1.79,"satellites":[{"PRN":2,"el":22,"az":238,"ss":27,"used":true},{"PRN":3,"el":29,"az":58,"ss":28,"used":true},{"PRN":6,"el":60,"az":243,"ss":39,"used":true},{"PRN":17,"el":63,"az":21,"ss":42,"used":true},{"PRN":19,"el":59,"az":331,"ss":42,"used":true},{"PRN":22,"el":13,"az":43,"ss":29,"used":true},{"PRN":24,"el":17,"az":297,"ss":20,"used":true},{"PRN":28,"el":54,"az":142,"ss":37,"used":true},{"PRN":138,"el":39,"az":223,"ss":40,"used":false}]}
{"class":"SKY","device":"/dev/ttyACM0","xdop":0.66,"ydop":0.89,"vdop":1.40,"tdop":0.97,"hdop":1.12,"gdop":2.04,"pdop":1.79,"satellites":[{"PRN":1,"el":6,"az":48,"ss":0,"used":false},{"PRN":2,"el":22,"az":238,"ss":27,"used":true},{"PRN":3,"el":29,"az":58,"ss":28,"used":true},{"PRN":6,"el":60,"az":243,"ss":39,"used":true},{"PRN":12,"el":1,"az":319,"ss":0,"used":false},{"PRN":17,"el":63,"az":21,"ss":42,"used":true},{"PRN":19,"el":59,"az":331,"ss":42,"used":true},{"PRN":22,"el":13,"az":43,"ss":29,"used":true},{"PRN":24,"el":17,"az":297,"ss":20,"used":true},{"PRN":28,"el":54,"az":142,"ss":37,"used":true},{"PRN":131,"el":32,"az":233,"ss":0,"used":false},{"PRN":135,"el":20,"az":247,"ss":0,"used":false},{"PRN":138,"el":39,"az":223,"ss":40,"used":false}]}
{"class":"TPV","device":"/dev/ttyACM0","mode":3,"time":"2019-05-16T21:06:52.000Z","ept":0.005,"lat":35.936798667,"lon":-78.929982833,"alt":98.600,"epx":9.856,"epy":13.397,"epv":32.200,"track":135.8000,"speed":3.807,"climb":0.000}
{"class":"TPV","device":"/dev/ttyACM0","mode":3,"time":"2019-05-16T21:06:53.000Z","ept":0.005,"lat":35.936779619,"lon":-78.929944224,"alt":98.273,"epx":9.856,"epy":13.397,"epv":32.200,"track":114.3711,"speed":4.278,"climb":-0.086,"eps":0.39,"epc":64.40}
{"class":"SKY","device":"/dev/ttyACM0","xdop":0.66,"ydop":0.89,"vdop":1.40,"tdop":0.97,"hdop":1.12,"gdop":2.04,"pdop":1.79,"satellites":[{"PRN":1,"el":6,"az":48,"ss":0,"used":false},{"PRN":2,"el":22,"az":238,"ss":27,"used":true},{"PRN":3,"el":29,"az":58,"ss":36,"used":true},{"PRN":6,"el":60,"az":243,"ss":39,"used":true},{"PRN":12,"el":1,"az":319,"ss":0,"used":false},{"PRN":17,"el":63,"az":21,"ss":38,"used":true},{"PRN":19,"el":59,"az":331,"ss":43,"used":true},{"PRN":22,"el":13,"az":43,"ss":20,"used":true},{"PRN":24,"el":17,"az":297,"ss":19,"used":true},{"PRN":28,"el":54,"az":142,"ss":34,"used":true},{"PRN":131,"el":32,"az":233,"ss":0,"used":false},{"PRN":135,"el":20,"az":247,"ss":0,"used":false},{"PRN":138,"el":39,"az":223,"ss":38,"used":false}]}
{"class":"TPV","device":"/dev/ttyACM0","mode":3,"time":"2019-05-16T21:06:53.000Z","ept":0.005,"lat":35.936779667,"lon":-78.929944167,"alt":98.800,"epx":9.856,"epy":13.397,"epv":32.200,"track":120.2900,"speed":4.281,"climb":0.000}
{"class":"TPV","device":"/dev/ttyACM0","mode":3,"time":"2019-05-16T21:06:54.000Z","ept":0.005,"lat":35.936769827,"lon":-78.929893294,"alt":99.414,"epx":9.856,"epy":13.397,"epv":32.200,"track":97.2485,"speed":5.073,"climb":-0.003,"eps":0.31,"epc":64.40}
{"class":"SKY","device":"/dev/ttyACM0","xdop":0.66,"ydop":0.89,"vdop":1.40,"tdop":0.97,"hdop":1.12,"gdop":2.04,"pdop":1.79,"satellites":[{"PRN":1,"el":6,"az":48,"ss":0,"used":false},{"PRN":2,"el":22,"az":238,"ss":32,"used":true},{"PRN":3,"el":29,"az":58,"ss":39,"used":true},{"PRN":6,"el":60,"az":243,"ss":36,"used":true},{"PRN":12,"el":1,"az":319,"ss":0,"used":false},{"PRN":17,"el":63,"az":21,"ss":41,"used":true},{"PRN":19,"el":59,"az":331,"ss":41,"used":true},{"PRN":22,"el":13,"az":43,"ss":20,"used":true},{"PRN":24,"el":17,"az":297,"ss":19,"used":true},{"PRN":28,"el":54,"az":142,"ss":35,"used":true},{"PRN":131,"el":32,"az":233,"ss":0,"used":false},{"PRN":135,"el":20,"az":247,"ss":0,"used":false},{"PRN":138,"el":39,"az":223,"ss":33,"used":false}]}
{"class":"TPV","device":"/dev/ttyACM0","mode":3,"time":"2019-05-16T21:06:54.000Z","ept":0.005,"lat":35.936769833,"lon":-78.929893333,"alt":100.000,"epx":9.856,"epy":13.397,"epv":32.200,"track":101.0700,"speed":5.070,"climb":0.000}
{"class":"TPV","device":"/dev/ttyACM0","mode":3,"time":"2019-05-16T21:06:55.000Z","ept":0.005,"lat":35.936767750,"lon":-78.929834497,"alt":99.459,"epx":9.856,"epy":13.397,"epv":32.200,"track":90.4649,"speed":5.452,"climb":0.027,"eps":0.42,"epc":64.40}
{"class":"SKY","device":"/dev/ttyACM0","xdop":0.66,"ydop":0.89,"vdop":1.40,"tdop":0.97,"hdop":1.12,"gdop":2.04,"pdop":1.79,"satellites":[{"PRN":1,"el":6,"az":48,"ss":0,"used":false},{"PRN":2,"el":22,"az":238,"ss":24,"used":true},{"PRN":3,"el":29,"az":58,"ss":30,"used":true},{"PRN":6,"el":60,"az":243,"ss":36,"used":true},{"PRN":12,"el":1,"az":319,"ss":0,"used":false},{"PRN":17,"el":63,"az":21,"ss":33,"used":true},{"PRN":19,"el":59,"az":331,"ss":34,"used":true},{"PRN":22,"el":13,"az":43,"ss":20,"used":true},{"PRN":24,"el":17,"az":297,"ss":21,"used":true},{"PRN":28,"el":54,"az":142,"ss":34,"used":true},{"PRN":131,"el":32,"az":233,"ss":0,"used":false},{"PRN":135,"el":20,"az":247,"ss":0,"used":false},{"PRN":138,"el":39,"az":223,"ss":27,"used":false}]}
{"class":"TPV","device":"/dev/ttyACM0","mode":3,"time":"2019-05-16T21:06:55.000Z","ept":0.005,"lat":35.936767667,"lon":-78.929834500,"alt":100.000,"epx":9.856,"epy":13.397,"epv":32.200,"track":93.0800,"speed":5.457,"climb":0.000}
{"class":"TPV","device":"/dev/ttyACM0","mode":3,"time":"2019-05-16T21:06:56.000Z","ept":0.005,"lat":35.936768955,"lon":-78.929775205,"alt":99.616,"epx":9.856,"epy":13.397,"epv":32.200,"track":87.7707,"speed":5.299,"climb":0.108,"eps":0.39,"epc":64.40}
{"class":"SKY","device":"/dev/ttyACM0","xdop":0.66,"ydop":0.89,"vdop":1.40,"tdop":0.97,"hdop":1.12,"gdop":2.04,"pdop":1.79,"satellites":[{"PRN":1,"el":6,"az":48,"ss":0,"used":false},{"PRN":2,"el":22,"az":238,"ss":22,"used":true},{"PRN":3,"el":29,"az":58,"ss":32,"used":true},{"PRN":6,"el":60,"az":243,"ss":39,"used":true},{"PRN":12,"el":1,"az":319,"ss":0,"used":false},{"PRN":17,"el":63,"az":21,"ss":27,"used":true},{"PRN":19,"el":59,"az":331,"ss":35,"used":true},{"PRN":22,"el":13,"az":43,"ss":20,"used":true},{"PRN":24,"el":17,"az":297,"ss":21,"used":true},{"PRN":28,"el":54,"az":142,"ss":35,"used":true},{"PRN":131,"el":32,"az":233,"ss":0,"used":false},{"PRN":135,"el":20,"az":247,"ss":0,"used":false},{"PRN":138,"el":39,"az":223,"ss":29,"used":false}]}
{"class":"TPV","device":"/dev/ttyACM0","mode":3,"time":"2019-05-16T21:06:56.000Z","ept":0.005,"lat":35.936769000,"lon":-78.929775167,"alt":100.200,"epx":9.856,"epy":13.397,"epv":32.200,"track":89.0300,"speed":5.298,"climb":0.000}
{"class":"TPV","device":"/dev/ttyACM0","mode":3,"time":"2019-05-16T21:06:57.000Z","ept":0.005,"lat":35.936772888,"lon":-78.929712842,"alt":99.593,"epx":9.856,"epy":13.397,"epv":32.200,"track":86.0161,"speed":6.223,"climb":0.102,"eps":0.38,"epc":64.40}
{"class":"SKY","device":"/dev/ttyACM0","xdop":0.66,"ydop":0.89,"vdop":1.40,"tdop":0.97,"hdop":1.12,"gdop":2.04,"pdop":1.79,"satellites":[{"PRN":1,"el":6,"az":48,"ss":0,"used":false},{"PRN":2,"el":22,"az":238,"ss":21,"used":true},{"PRN":3,"el":29,"az":58,"ss":31,"used":true},{"PRN":6,"el":60,"az":243,"ss":39,"used":true},{"PRN":12,"el":1,"az":319,"ss":0,"used":false},{"PRN":17,"el":63,"az":21,"ss":24,"used":true},{"PRN":19,"el":59,"az":331,"ss":35,"used":true},{"PRN":22,"el":13,"az":43,"ss":22,"used":true},{"PRN":24,"el":17,"az":297,"ss":24,"used":true},{"PRN":28,"el":54,"az":142,"ss":38,"used":true},{"PRN":131,"el":32,"az":233,"ss":0,"used":false},{"PRN":135,"el":20,"az":247,"ss":0,"used":false},{"PRN":138,"el":39,"az":223,"ss":34,"used":false}]}
{"class":"TPV","device":"/dev/ttyACM0","mode":3,"time":"2019-05-16T21:06:57.000Z","ept":0.005,"lat":35.936772833,"lon":-78.929712833,"alt":100.200,"epx":9.856,"epy":13.397,"epv":32.200,"track":86.5200,"speed":6.225,"climb":0.000}
{"class":"TPV","device":"/dev/ttyACM0","mode":3,"time":"2019-05-16T21:06:58.000Z","ept":0.005,"lat":35.936778364,"lon":-78.929637342,"alt":99.931,"epx":9.856,"epy":13.397,"epv":32.200,"track":85.5481,"speed":7.163,"climb":0.153,"eps":0.32,"epc":64.40}
{"class":"SKY","device":"/dev/ttyACM0","xdop":0.66,"ydop":0.89,"vdop":1.40,"tdop":0.97,"hdop":1.12,"gdop":2.04,"pdop":1.79,"satellites":[{"PRN":1,"el":6,"az":48,"ss":0,"used":false},{"PRN":2,"el":22,"az":238,"ss":25,"used":true},{"PRN":3,"el":29,"az":58,"ss":31,"used":true},{"PRN":6,"el":60,"az":243,"ss":39,"used":true},{"PRN":12,"el":1,"az":319,"ss":0,"used":false},{"PRN":17,"el":63,"az":21,"ss":26,"used":true},{"PRN":19,"el":59,"az":331,"ss":38,"used":true},{"PRN":22,"el":13,"az":43,"ss":21,"used":true},{"PRN":24,"el":17,"az":297,"ss":26,"used":true},{"PRN":28,"el":54,"az":142,"ss":38,"used":true},{"PRN":131,"el":32,"az":233,"ss":0,"used":false},{"PRN":135,"el":20,"az":247,"ss":0,"used":false},{"PRN":138,"el":39,"az":223,"ss":34,"used":false}]}
{"class":"TPV","device":"/dev/ttyACM0","mode":3,"time":"2019-05-16T21:06:58.000Z","ept":0.005,"lat":35.936778333,"lon":-78.929637333,"alt":100.500,"epx":9.856,"epy":13.397,"epv":32.200,"track":85.6500,"speed":7.163,"climb":0.000}
