{"class":"VERSION","release":"3.16","rev":"3.16-4","proto_major":3,"proto_minor":11}
{"class":"DEVICES","devices":[{"class":"DEVICE","path":"/dev/ttyACM0","driver":"NMEA0183","activated":"2019-05-16T21:21:26.068Z","flags":1,"native":0,"bps":9600,"parity":"N","stopbits":1,"cycle":1.00}]}
{"class":"WATCH","enable":true,"json":true,"nmea":false,"raw":0,"scaled":false,"timing":false,"split24":false,"pps":false}
{"class":"SKY","device":"/dev/ttyACM0","xdop":0.63,"ydop":0.90,"vdop":1.69,"tdop":0.82,"hdop":1.19,"gdop":1.84,"pdop":2.07,"satellites":[{"PRN":1,"el":1,"az":50,"ss":7,"used":false},{"PRN":2,"el":27,"az":242,"ss":11,"used":true},{"PRN":3,"el":26,"az":52,"ss":26,"used":true},{"PRN":6,"el":65,"az":254,"ss":43,"used":true},{"PRN":12,"el":7,"az":319,"ss":17,"used":false},{"PRN":17,"el":62,"az":35,"ss":35,"used":true},{"PRN":19,"el":62,"az":345,"ss":32,"used":true},{"PRN":22,"el":9,"az":40,"ss":9,"used":false},{"PRN":24,"el":17,"az":290,"ss":20,"used":true},{"PRN":28,"el":47,"az":147,"ss":31,"used":true},{"PRN":135,"el":20,"az":247,"ss":0,"used":false},{"PRN":138,"el":39,"az":223,"ss":0,"used":false}]}
{"class":"TPV","device":"/dev/ttyACM0","mode":3,"time":"2019-05-16T21:21:27.000Z","ept":0.005,"lat":35.925998333,"lon":-78.954528333,"alt":96.500,"epx":9.392,"epy":13.513,"epv":31.510,"track":0.0000,"speed":0.069,"climb":0.000,"eps":27.03}
{"class":"SKY","device":"/dev/ttyACM0","xdop":0.63,"ydop":0.90,"vdop":1.69,"tdop":0.82,"hdop":1.19,"gdop":1.84,"pdop":2.07,"satellites":[{"PRN":1,"el":1,"az":50,"ss":7,"used":false},{"PRN":2,"el":27,"az":242,"ss":10,"used":true},{"PRN":3,"el":26,"az":52,"ss":28,"used":true},{"PRN":6,"el":65,"az":254,"ss":42,"used":true},{"PRN":12,"el":7,"az":319,"ss":18,"used":false},{"PRN":17,"el":62,"az":35,"ss":34,"used":true},{"PRN":19,"el":62,"az":345,"ss":32,"used":true},{"PRN":22,"el":9,"az":40,"ss":8,"used":false},{"PRN":24,"el":17,"az":290,"ss":20,"used":true},{"PRN":28,"el":47,"az":147,"ss":31,"used":true},{"PRN":135,"el":20,"az":247,"ss":0,"used":false},{"PRN":138,"el":39,"az":223,"ss":0,"used":false}]}
{"class":"TPV","device":"/dev/ttyACM0","mode":3,"time":"2019-05-16T21:21:28.000Z","ept":0.005,"lat":35.925997500,"lon":-78.954526167,"alt":96.900,"epx":9.392,"epy":13.513,"epv":38.870,"track":0.0000,"speed":0.094,"climb":0.000,"eps":27.03}
{"class":"SKY","device":"/dev/ttyACM0","xdop":0.63,"ydop":0.90,"vdop":1.69,"tdop":0.82,"hdop":1.19,"gdop":1.84,"pdop":2.07,"satellites":[{"PRN":1,"el":1,"az":50,"ss":7,"used":false},{"PRN":2,"el":27,"az":242,"ss":10,"used":true},{"PRN":3,"el":26,"az":52,"ss":30,"used":true},{"PRN":6,"el":65,"az":254,"ss":41,"used":true},{"PRN":12,"el":7,"az":319,"ss":17,"used":false},{"PRN":17,"el":62,"az":35,"ss":33,"used":true},{"PRN":19,"el":62,"az":345,"ss":31,"used":true},{"PRN":22,"el":9,"az":40,"ss":8,"used":false},{"PRN":24,"el":17,"az":290,"ss":19,"used":true},{"PRN":28,"el":47,"az":147,"ss":31,"used":true},{"PRN":135,"el":20,"az":247,"ss":0,"used":false},{"PRN":138,"el":39,"az":223,"ss":0,"used":false}]}
{"class":"TPV","device":"/dev/ttyACM0","mode":3,"time":"2019-05-16T21:21:29.000Z","ept":0.005,"lat":35.925996667,"lon":-78.954523333,"alt":97.400,"epx":9.392,"epy":13.513,"epv":38.870,"track":0.0000,"speed":0.185,"climb":0.000,"eps":27.03}
{"class":"SKY","device":"/dev/ttyACM0","xdop":0.63,"ydop":0.90,"vdop":1.69,"tdop":0.82,"hdop":1.19,"gdop":1.84,"pdop":2.07,"satellites":[{"PRN":1,"el":1,"az":50,"ss":8,"used":false},{"PRN":2,"el":27,"az":242,"ss":12,"used":true},{"PRN":3,"el":26,"az":52,"ss":29,"used":true},{"PRN":6,"el":65,"az":254,"ss":40,"used":true},{"PRN":12,"el":7,"az":319,"ss":17,"used":false},{"PRN":17,"el":62,"az":35,"ss":34,"used":true},{"PRN":19,"el":62,"az":345,"ss":30,"used":true},{"PRN":22,"el":9,"az":40,"ss":11,"used":false},{"PRN":24,"el":17,"az":290,"ss":21,"used":true},{"PRN":28,"el":47,"az":147,"ss":35,"used":true},{"PRN":135,"el":20,"az":247,"ss":0,"used":false},{"PRN":138,"el":39,"az":223,"ss":0,"used":false}]}
{"class":"TPV","device":"/dev/ttyACM0","mode":3,"time":"2019-05-16T21:21:30.000Z","ept":0.005,"lat":35.926001167,"lon":-78.954517000,"alt":97.900,"epx":9.392,"epy":13.513,"epv":38.870,"track":33.1300,"speed":0.942,"climb":0.000,"eps":27.03}
{"class":"SKY","device":"/dev/ttyACM0","xdop":0.63,"ydop":0.90,"vdop":1.69,"tdop":0.82,"hdop":1.19,"gdop":1.84,"pdop":2.07,"satellites":[{"PRN":1,"el":1,"az":50,"ss":0,"used":false},{"PRN":2,"el":27,"az":242,"ss":13,"used":true},{"PRN":3,"el":25,"az":51,"ss":28,"used":true},{"PRN":6,"el":65,"az":254,"ss":38,"used":true},{"PRN":12,"el":7,"az":319,"ss":18,"used":false},{"PRN":17,"el":62,"az":35,"ss":33,"used":true},{"PRN":19,"el":62,"az":345,"ss":25,"used":true},{"PRN":22,"el":9,"az":40,"ss":12,"used":false},{"PRN":24,"el":17,"az":290,"ss":22,"used":true},{"PRN":28,"el":47,"az":147,"ss":32,"used":true},{"PRN":135,"el":20,"az":247,"ss":0,"used":false},{"PRN":138,"el":39,"az":223,"ss":0,"used":false}]}
{"class":"TPV","device":"/dev/ttyACM0","mode":3,"time":"2019-05-16T21:21:31.000Z","ept":0.005,"lat":35.926017667,"lon":-78.954505000,"alt":97.900,"epx":9.392,"epy":13.513,"epv":38.870,"track":32.2800,"speed":2.538,"climb":0.000,"eps":27.03}
{"class":"SKY","device":"/dev/ttyACM0","xdop":0.63,"ydop":0.90,"vdop":1.69,"tdop":0.82,"hdop":1.19,"gdop":1.84,"pdop":2.07,"satellites":[{"PRN":1,"el":1,"az":50,"ss":0,"used":false},{"PRN":2,"el":27,"az":242,"ss":14,"used":true},{"PRN":3,"el":25,"az":51,"ss":33,"used":true},{"PRN":6,"el":65,"az":254,"ss":38,"used":true},{"PRN":12,"el":7,"az":319,"ss":18,"used":false},{"PRN":17,"el":62,"az":35,"ss":34,"used":true},{"PRN":19,"el":62,"az":345,"ss":34,"used":true},{"PRN":22,"el":9,"az":40,"ss":14,"used":false},{"PRN":24,"el":17,"az":290,"ss":22,"used":true},{"PRN":28,"el":47,"az":147,"ss":35,"used":true},{"PRN":135,"el":20,"az":247,"ss":0,"used":false},{"PRN":138,"el":39,"az":223,"ss":0,"used":false}]}
{"class":"TPV","device":"/dev/ttyACM0","mode":3,"time":"2019-05-16T21:21:32.000Z","ept":0.005,"lat":35.926045500,"lon":-78.954486500,"alt":97.200,"epx":9.392,"epy":13.513,"epv":38.870,"track":30.9100,"speed":3.806,"climb":0.000,"eps":27.03}
{"class":"SKY","device":"/dev/ttyACM0","xdop":0.63,"ydop":0.90,"vdop":1.69,"tdop":0.82,"hdop":1.19,"gdop":1.84,"pdop":2.07,"satellites":[{"PRN":1,"el":1,"az":50,"ss":0,"used":false},{"PRN":2,"el":27,"az":242,"ss":14,"used":true},{"PRN":3,"el":25,"az":51,"ss":32,"used":true},{"PRN":6,"el":65,"az":255,"ss":33,"used":true},{"PRN":12,"el":7,"az":319,"ss":20,"used":false},{"PRN":17,"el":62,"az":35,"ss":31,"used":true},{"PRN":19,"el":62,"az":345,"ss":38,"used":true},{"PRN":22,"el":9,"az":40,"ss":14,"used":false},{"PRN":24,"el":17,"az":290,"ss":22,"used":true},{"PRN":28,"el":47,"az":147,"ss":28,"used":true},{"PRN":135,"el":20,"az":247,"ss":0,"used":false},{"PRN":138,"el":39,"az":223,"ss":0,"used":false}]}
{"class":"TPV","device":"/dev/ttyACM0","mode":3,"time":"2019-05-16T21:21:33.000Z","ept":0.005,"lat":35.926080333,"lon":-78.954461000,"alt":96.200,"epx":9.392,"epy":13.513,"epv":38.870,"track":30.7400,"speed":4.957,"climb":0.000,"eps":27.03}
{"class":"SKY","device":"/dev/ttyACM0","xdop":0.63,"ydop":0.90,"vdop":1.37,"tdop":0.82,"hdop":1.13,"gdop":1.84,"pdop":1.77,"satellites":[{"PRN":1,"el":1,"az":50,"ss":0,"used":false},{"PRN":2,"el":27,"az":242,"ss":14,"used":true},{"PRN":3,"el":25,"az":51,"ss":25,"used":true},{"PRN":6,"el":65,"az":255,"ss":39,"used":true},{"PRN":12,"el":7,"az":319,"ss":20,"used":false},{"PRN":17,"el":62,"az":35,"ss":37,"used":true},{"PRN":19,"el":62,"az":345,"ss":39,"used":true},{"PRN":22,"el":9,"az":40,"ss":14,"used":true},{"PRN":24,"el":17,"az":290,"ss":22,"used":true},{"PRN":28,"el":47,"az":147,"ss":27,"used":true},{"PRN":135,"el":20,"az":247,"ss":0,"used":false},{"PRN":138,"el":39,"az":223,"ss":0,"used":false}]}
{"class":"TPV","device":"/dev/ttyACM0","mode":3,"time":"2019-05-16T21:21:34.000Z","ept":0.005,"lat":35.926118000,"lon":-78.954429167,"alt":97.200,"epx":9.392,"epy":13.513,"epv":38.870,"track":31.3500,"speed":5.110,"climb":0.000,"eps":27.03}
{"class":"SKY","device":"/dev/ttyACM0","xdop":0.63,"ydop":0.90,"vdop":1.37,"tdop":0.82,"hdop":1.13,"gdop":1.84,"pdop":1.77,"satellites":[{"PRN":1,"el":1,"az":50,"ss":0,"used":false},{"PRN":2,"el":27,"az":242,"ss":14,"used":true},{"PRN":3,"el":25,"az":51,"ss":24,"used":true},{"PRN":6,"el":65,"az":255,"ss":41,"used":true},{"PRN":12,"el":7,"az":319,"ss":19,"used":false},{"PRN":17,"el":62,"az":35,"ss":34,"used":true},{"PRN":19,"el":62,"az":345,"ss":39,"used":true},{"PRN":22,"el":9,"az":40,"ss":14,"used":true},{"PRN":24,"el":17,"az":290,"ss":21,"used":true},{"PRN":28,"el":47,"az":147,"ss":32,"used":true},{"PRN":135,"el":20,"az":247,"ss":0,"used":false},{"PRN":138,"el":39,"az":223,"ss":0,"used":false}]}
{"class":"TPV","device":"/dev/ttyACM0","mode":3,"time":"2019-05-16T21:21:35.000Z","ept":0.005,"lat":35.926167500,"lon":-78.954394333,"alt":97.700,"epx":9.392,"epy":13.513,"epv":31.510,"track":29.4900,"speed":6.693,"climb":0.000,"eps":27.03}
{"class":"SKY","device":"/dev/ttyACM0","xdop":0.63,"ydop":0.90,"vdop":1.37,"tdop":0.82,"hdop":1.13,"gdop":1.84,"pdop":1.77,"satellites":[{"PRN":1,"el":1,"az":50,"ss":0,"used":false},{"PRN":2,"el":27,"az":242,"ss":22,"used":true},{"PRN":3,"el":25,"az":51,"ss":25,"used":true},{"PRN":6,"el":65,"az":255,"ss":40,"used":true},{"PRN":12,"el":7,"az":319,"ss":18,"used":false},{"PRN":17,"el":62,"az":35,"ss":34,"used":true},{"PRN":19,"el":62,"az":345,"ss":37,"used":true},{"PRN":22,"el":9,"az":40,"ss":14,"used":true},{"PRN":24,"el":17,"az":290,"ss":19,"used":true},{"PRN":28,"el":47,"az":147,"ss":33,"used":true},{"PRN":135,"el":20,"az":247,"ss":0,"used":false},{"PRN":138,"el":39,"az":223,"ss":0,"used":false}]}
{"class":"TPV","device":"/dev/ttyACM0","mode":3,"time":"2019-05-16T21:21:36.000Z","ept":0.005,"lat":35.926229500,"lon":-78.954354167,"alt":97.600,"epx":9.392,"epy":13.513,"epv":31.510,"track":29.8300,"speed":7.932,"climb":0.000,"eps":27.03}
{"class":"SKY","device":"/dev/ttyACM0","xdop":0.63,"ydop":0.90,"vdop":1.37,"tdop":0.82,"hdop":1.13,"gdop":1.84,"pdop":1.77,"satellites":[{"PRN":1,"el":1,"az":50,"ss":0,"used":false},{"PRN":2,"el":27,"az":242,"ss":25,"used":true},{"PRN":3,"el":25,"az":51,"ss":28,"used":true},{"PRN":6,"el":65,"az":255,"ss":40,"used":true},{"PRN":12,"el":7,"az":319,"ss":18,"used":false},{"PRN":17,"el":62,"az":35,"ss":34,"used":true},{"PRN":19,"el":62,"az":345,"ss":38,"used":true},{"PRN":22,"el":9,"az":40,"ss":14,"used":true},{"PRN":24,"el":17,"az":290,"ss":18,"used":true},{"PRN":28,"el":47,"az":147,"ss":26,"used":true},{"PRN":135,"el":20,"az":247,"ss":0,"used":false},{"PRN":138,"el":39,"az":223,"ss":0,"used":false}]}
{"class":"TPV","device":"/dev/ttyACM0","mode":3,"time":"2019-05-16T21:21:37.000Z","ept":0.005,"lat":35.926297667,"lon":-78.954303000,"alt":97.500,"epx":9.392,"epy":13.513,"epv":31.510,"track":31.5200,"speed":9.175,"climb":0.000,"eps":27.03}
{"class":"SKY","device":"/dev/ttyACM0","xdop":0.63,"ydop":0.90,"vdop":1.37,"tdop":0.82,"hdop":1.13,"gdop":1.84,"pdop":1.77,"satellites":[{"PRN":1,"el":1,"az":50,"ss":0,"used":false},{"PRN":2,"el":27,"az":242,"ss":28,"used":true},{"PRN":3,"el":25,"az":51,"ss":26,"used":true},{"PRN":6,"el":65,"az":255,"ss":43,"used":true},{"PRN":12,"el":7,"az":319,"ss":17,"used":false},{"PRN":17,"el":62,"az":35,"ss":35,"used":true},{"PRN":19,"el":62,"az":345,"ss":38,"used":true},{"PRN":22,"el":9,"az":40,"ss":10,"used":true},{"PRN":24,"el":17,"az":290,"ss":17,"used":true},{"PRN":28,"el":47,"az":147,"ss":38,"used":true},{"PRN":135,"el":20,"az":247,"ss":0,"used":false},{"PRN":138,"el":39,"az":223,"ss":0,"used":false}]}
{"class":"TPV","device":"/dev/ttyACM0","mode":3,"time":"2019-05-16T21:21:38.000Z","ept":0.005,"lat":35.926369500,"lon":-78.954245833,"alt":97.100,"epx":9.392,"epy":13.513,"epv":31.510,"track":30.8700,"speed":9.757,"climb":0.000,"eps":27.03}
{"class":"SKY","device":"/dev/ttyACM0","xdop":0.63,"ydop":0.90,"vdop":1.37,"tdop":0.82,"hdop":1.13,"gdop":1.84,"pdop":1.77,"satellites":[{"PRN":1,"el":1,"az":50,"ss":0,"used":false},{"PRN":2,"el":27,"az":242,"ss":32,"used":true},{"PRN":3,"el":25,"az":51,"ss":27,"used":true},{"PRN":6,"el":65,"az":255,"ss":43,"used":true},{"PRN":12,"el":7,"az":319,"ss":18,"used":false},{"PRN":17,"el":62,"az":35,"ss":37,"used":true},{"PRN":19,"el":62,"az":345,"ss":39,"used":true},{"PRN":22,"el":9,"az":40,"ss":10,"used":true},{"PRN":24,"el":17,"az":290,"ss":20,"used":true},{"PRN":28,"el":47,"az":147,"ss":29,"used":true},{"PRN":135,"el":20,"az":247,"ss":0,"used":false},{"PRN":138,"el":39,"az":223,"ss":0,"used":false}]}
{"class":"TPV","device":"/dev/ttyACM0","mode":3,"time":"2019-05-16T21:21:39.000Z","ept":0.005,"lat":35.926445833,"lon":-78.954188333,"alt":97.600,"epx":9.392,"epy":13.513,"epv":31.510,"track":31.2800,"speed":9.781,"climb":0.000,"eps":27.03}
{"class":"SKY","device":"/dev/ttyACM0","xdop":0.63,"ydop":0.90,"vdop":1.37,"tdop":0.82,"hdop":1.13,"gdop":1.84,"pdop":1.77,"satellites":[{"PRN":1,"el":1,"az":50,"ss":0,"used":false},{"PRN":2,"el":27,"az":242,"ss":18,"used":true},{"PRN":3,"el":25,"az":51,"ss":28,"used":true},{"PRN":6,"el":65,"az":255,"ss":44,"used":true},{"PRN":12,"el":7,"az":319,"ss":19,"used":false},{"PRN":17,"el":62,"az":35,"ss":36,"used":true},{"PRN":19,"el":62,"az":345,"ss":39,"used":true},{"PRN":22,"el":9,"az":40,"ss":10,"used":true},{"PRN":24,"el":17,"az":290,"ss":22,"used":true},{"PRN":28,"el":47,"az":147,"ss":30,"used":true},{"PRN":135,"el":20,"az":247,"ss":0,"used":false},{"PRN":138,"el":39,"az":223,"ss":0,"used":false}]}
{"class":"TPV","device":"/dev/ttyACM0","mode":3,"time":"2019-05-16T21:21:40.000Z","ept":0.005,"lat":35.926523500,"lon":-78.954132167,"alt":97.100,"epx":9.392,"epy":13.513,"epv":31.510,"track":31.2800,"speed":9.948,"climb":0.000,"eps":27.03}
{"class":"SKY","device":"/dev/ttyACM0","xdop":0.63,"ydop":0.90,"vdop":1.37,"tdop":0.82,"hdop":1.13,"gdop":1.84,"pdop":1.77,"satellites":[{"PRN":1,"el":1,"az":50,"ss":0,"used":false},{"PRN":2,"el":27,"az":242,"ss":19,"used":true},{"PRN":3,"el":25,"az":51,"ss":33,"used":true},{"PRN":6,"el":65,"az":255,"ss":44,"used":true},{"PRN":12,"el":7,"az":319,"ss":18,"used":false},{"PRN":17,"el":62,"az":35,"ss":38,"used":true},{"PRN":19,"el":62,"az":345,"ss":39,"used":true},{"PRN":22,"el":9,"az":40,"ss":10,"used":true},{"PRN":24,"el":17,"az":290,"ss":25,"used":true},{"PRN":28,"el":47,"az":147,"ss":31,"used":true},{"PRN":135,"el":20,"az":247,"ss":0,"used":false},{"PRN":138,"el":39,"az":223,"ss":0,"used":false}]}
{"class":"TPV","device":"/dev/ttyACM0","mode":3,"time":"2019-05-16T21:21:41.000Z","ept":0.005,"lat":35.926596667,"lon":-78.954075333,"alt":96.100,"epx":9.392,"epy":13.513,"epv":31.510,"track":32.2800,"speed":9.385,"climb":0.000,"eps":27.03}
{"class":"SKY","device":"/dev/ttyACM0","xdop":0.63,"ydop":0.90,"vdop":1.37,"tdop":0.82,"hdop":1.13,"gdop":1.84,"pdop":1.77,"satellites":[{"PRN":1,"el":1,"az":50,"ss":0,"used":false},{"PRN":2,"el":27,"az":242,"ss":22,"used":true},{"PRN":3,"el":25,"az":51,"ss":29,"used":true},{"PRN":6,"el":65,"az":255,"ss":44,"used":true},{"PRN":12,"el":7,"az":319,"ss":17,"used":false},{"PRN":17,"el":62,"az":35,"ss":37,"used":true},{"PRN":19,"el":62,"az":345,"ss":39,"used":true},{"PRN":22,"el":9,"az":40,"ss":9,"used":true},{"PRN":24,"el":17,"az":290,"ss":24,"used":true},{"PRN":28,"el":47,"az":147,"ss":31,"used":true},{"PRN":135,"el":20,"az":247,"ss":0,"used":false},{"PRN":138,"el":39,"az":223,"ss":0,"used":false}]}
{"class":"TPV","device":"/dev/ttyACM0","mode":3,"time":"2019-05-16T21:21:42.000Z","ept":0.005,"lat":35.926665333,"lon":-78.954020833,"alt":96.000,"epx":9.392,"epy":13.513,"epv":31.510,"track":32.9200,"speed":8.804,"climb":0.000,"eps":27.03}
{"class":"SKY","device":"/dev/ttyACM0","xdop":0.63,"ydop":0.90,"vdop":1.69,"tdop":0.82,"hdop":1.19,"gdop":1.84,"pdop":2.07,"satellites":[{"PRN":1,"el":1,"az":50,"ss":0,"used":false},{"PRN":2,"el":27,"az":242,"ss":34,"used":true},{"PRN":3,"el":25,"az":51,"ss":37,"used":true},{"PRN":6,"el":65,"az":255,"ss":45,"used":true},{"PRN":12,"el":7,"az":319,"ss":15,"used":false},{"PRN":17,"el":62,"az":35,"ss":38,"used":true},{"PRN":19,"el":62,"az":345,"ss":39,"used":true},{"PRN":22,"el":9,"az":40,"ss":0,"used":false},{"PRN":24,"el":17,"az":290,"ss":22,"used":true},{"PRN":28,"el":47,"az":147,"ss":31,"used":true},{"PRN":135,"el":20,"az":247,"ss":0,"used":false},{"PRN":138,"el":39,"az":223,"ss":0,"used":false}]}
{"class":"TPV","device":"/dev/ttyACM0","mode":3,"time":"2019-05-16T21:21:43.000Z","ept":0.005,"lat":35.926729667,"lon":-78.953970333,"alt":93.700,"epx":9.392,"epy":13.513,"epv":31.510,"track":31.8600,"speed":7.910,"climb":0.000,"eps":27.03}
{"class":"SKY","device":"/dev/ttyACM0","xdop":0.63,"ydop":0.90,"vdop":1.69,"tdop":0.82,"hdop":1.19,"gdop":1.84,"pdop":2.07,"satellites":[{"PRN":1,"el":1,"az":50,"ss":0,"used":false},{"PRN":2,"el":27,"az":242,"ss":28,"used":true},{"PRN":3,"el":25,"az":51,"ss":34,"used":true},{"PRN":6,"el":65,"az":255,"ss":44,"used":true},{"PRN":12,"el":7,"az":319,"ss":0,"used":false},{"PRN":17,"el":61,"az":36,"ss":37,"used":true},{"PRN":19,"el":62,"az":345,"ss":37,"used":true},{"PRN":22,"el":9,"az":40,"ss":0,"used":false},{"PRN":24,"el":17,"az":290,"ss":20,"used":true},{"PRN":28,"el":47,"az":147,"ss":30,"used":true},{"PRN":135,"el":20,"az":247,"ss":0,"used":false},{"PRN":138,"el":39,"az":223,"ss":0,"used":false}]}
{"class":"TPV","device":"/dev/ttyACM0","mode":3,"time":"2019-05-16T21:21:44.000Z","ept":0.005,"lat":35.926778333,"lon":-78.953920000,"alt":93.400,"epx":9.392,"epy":13.513,"epv":38.870,"track":38.6900,"speed":6.658,"climb":0.000,"eps":27.03}
{"class":"SKY","device":"/dev/ttyACM0","xdop":0.63,"ydop":0.90,"vdop":1.69,"tdop":0.82,"hdop":1.19,"gdop":1.84,"pdop":2.07,"satellites":[{"PRN":1,"el":1,"az":50,"ss":0,"used":false},{"PRN":2,"el":27,"az":242,"ss":21,"used":true},{"PRN":3,"el":25,"az":51,"ss":32,"used":true},{"PRN":6,"el":65,"az":255,"ss":40,"used":true},{"PRN":12,"el":7,"az":319,"ss":0,"used":false},{"PRN":17,"el":61,"az":36,"ss":40,"used":true},{"PRN":19,"el":62,"az":345,"ss":28,"used":true},{"PRN":22,"el":9,"az":40,"ss":14,"used":false},{"PRN":24,"el":17,"az":290,"ss":17,"used":true},{"PRN":28,"el":47,"az":147,"ss":37,"used":true},{"PRN":135,"el":20,"az":247,"ss":0,"used":false},{"PRN":138,"el":39,"az":223,"ss":0,"used":false}]}
{"class":"TPV","device":"/dev/ttyACM0","mode":3,"time":"2019-05-16T21:21:45.000Z","ept":0.005,"lat":35.926808833,"lon":-78.953862667,"alt":92.600,"epx":9.392,"epy":13.513,"epv":38.870,"track":58.4900,"speed":6.114,"climb":0.000,"eps":27.03}
{"class":"SKY","device":"/dev/ttyACM0","xdop":0.63,"ydop":0.90,"vdop":1.69,"tdop":0.82,"hdop":1.19,"gdop":1.84,"pdop":2.07,"satellites":[{"PRN":1,"el":1,"az":50,"ss":0,"used":false},{"PRN":2,"el":27,"az":242,"ss":22,"used":true},{"PRN":3,"el":25,"az":51,"ss":32,"used":true},{"PRN":6,"el":65,"az":255,"ss":36,"used":true},{"PRN":12,"el":7,"az":319,"ss":0,"used":false},{"PRN":17,"el":61,"az":36,"ss":39,"used":true},{"PRN":19,"el":62,"az":345,"ss":38,"used":true},{"PRN":22,"el":9,"az":40,"ss":12,"used":false},{"PRN":24,"el":17,"az":290,"ss":16,"used":true},{"PRN":28,"el":47,"az":147,"ss":26,"used":true},{"PRN":135,"el":20,"az":247,"ss":0,"used":false},{"PRN":138,"el":39,"az":223,"ss":0,"used":false}]}
{"class":"TPV","device":"/dev/ttyACM0","mode":3,"time":"2019-05-16T21:21:46.000Z","ept":0.005,"lat":35.926824500,"lon":-78.953792833,"alt":91.700,"epx":9.392,"epy":13.513,"epv":38.870,"track":71.6700,"speed":6.689,"climb":0.000,"eps":27.03}
{"class":"SKY","device":"/dev/ttyACM0","xdop":0.63,"ydop":0.90,"vdop":2.07,"tdop":0.82,"hdop":1.40,"gdop":1.84,"pdop":2.50,"satellites":[{"PRN":1,"el":1,"az":50,"ss":0,"used":false},{"PRN":2,"el":27,"az":242,"ss":24,"used":true},{"PRN":3,"el":25,"az":51,"ss":30,"used":true},{"PRN":6,"el":65,"az":255,"ss":36,"used":true},{"PRN":12,"el":7,"az":319,"ss":0,"used":false},{"PRN":17,"el":61,"az":36,"ss":37,"used":true},{"PRN":19,"el":62,"az":345,"ss":35,"used":true},{"PRN":22,"el":9,"az":40,"ss":10,"used":false},{"PRN":24,"el":17,"az":290,"ss":0,"used":false},{"PRN":28,"el":47,"az":147,"ss":34,"used":true},{"PRN":135,"el":20,"az":247,"ss":0,"used":false},{"PRN":138,"el":39,"az":223,"ss":0,"used":false}]}
{"class":"TPV","device":"/dev/ttyACM0","mode":3,"time":"2019-05-16T21:21:47.000Z","ept":0.005,"lat":35.926829500,"lon":-78.953709500,"alt":91.300,"epx":9.392,"epy":13.513,"epv":38.870,"track":85.8700,"speed":7.827,"climb":0.000,"eps":27.03}
{"class":"SKY","device":"/dev/ttyACM0","xdop":0.63,"ydop":0.90,"vdop":2.07,"tdop":0.82,"hdop":1.40,"gdop":1.84,"pdop":2.50,"satellites":[{"PRN":1,"el":1,"az":50,"ss":0,"used":false},{"PRN":2,"el":27,"az":242,"ss":24,"used":true},{"PRN":3,"el":25,"az":51,"ss":24,"used":true},{"PRN":6,"el":65,"az":255,"ss":38,"used":true},{"PRN":12,"el":7,"az":319,"ss":0,"used":false},{"PRN":17,"el":61,"az":36,"ss":30,"used":true},{"PRN":19,"el":62,"az":345,"ss":33,"used":true},{"PRN":22,"el":9,"az":40,"ss":11,"used":false},{"PRN":24,"el":17,"az":290,"ss":0,"used":false},{"PRN":28,"el":47,"az":147,"ss":31,"used":true},{"PRN":135,"el":20,"az":247,"ss":0,"used":false},{"PRN":138,"el":39,"az":223,"ss":0,"used":false}]}
{"class":"TPV","device":"/dev/ttyACM0","mode":3,"time":"2019-05-16T21:21:48.000Z","ept":0.005,"lat":35.926830333,"lon":-78.953617167,"alt":90.900,"epx":9.392,"epy":13.513,"epv":47.610,"track":89.4600,"speed":8.495,"climb":0.000,"eps":27.03}
{"class":"SKY","device":"/dev/ttyACM0","xdop":0.63,"ydop":0.90,"vdop":2.07,"tdop":0.82,"hdop":1.40,"gdop":1.84,"pdop":2.50,"satellites":[{"PRN":1,"el":1,"az":50,"ss":0,"used":false},{"PRN":2,"el":27,"az":242,"ss":30,"used":true},{"PRN":3,"el":25,"az":51,"ss":25,"used":true},{"PRN":6,"el":65,"az":255,"ss":39,"used":true},{"PRN":12,"el":7,"az":319,"ss":0,"used":false},{"PRN":17,"el":61,"az":36,"ss":38,"used":true},{"PRN":19,"el":62,"az":345,"ss":39,"used":true},{"PRN":22,"el":9,"az":40,"ss":12,"used":false},{"PRN":24,"el":17,"az":290,"ss":0,"used":false},{"PRN":28,"el":47,"az":147,"ss":37,"used":true},{"PRN":135,"el":20,"az":247,"ss":0,"used":false},{"PRN":138,"el":39,"az":223,"ss":0,"used":false}]}
{"class":"TPV","device":"/dev/ttyACM0","mode":3,"time":"2019-05-16T21:21:49.000Z","ept":0.005,"lat":35.926835667,"lon":-78.953517000,"alt":90.600,"epx":9.392,"epy":13.513,"epv":47.610,"track":87.0100,"speed":9.199,"climb":0.000,"eps":27.03}
{"class":"SKY","device":"/dev/ttyACM0","xdop":0.63,"ydop":0.90,"vdop":2.07,"tdop":0.82,"hdop":1.40,"gdop":1.84,"pdop":2.50,"satellites":[{"PRN":1,"el":1,"az":50,"ss":0,"used":false},{"PRN":2,"el":27,"az":242,"ss":29,"used":true},{"PRN":3,"el":25,"az":51,"ss":31,"used":true},{"PRN":6,"el":65,"az":255,"ss":39,"used":true},{"PRN":12,"el":7,"az":319,"ss":0,"used":false},{"PRN":17,"el":61,"az":36,"ss":38,"used":true},{"PRN":19,"el":62,"az":345,"ss":33,"used":true},{"PRN":22,"el":9,"az":40,"ss":0,"used":false},{"PRN":24,"el":17,"az":290,"ss":0,"used":false},{"PRN":28,"el":47,"az":147,"ss":34,"used":true},{"PRN":135,"el":20,"az":247,"ss":0,"used":false},{"PRN":138,"el":39,"az":223,"ss":0,"used":false}]}
{"class":"TPV","device":"/dev/ttyACM0","mode":3,"time":"2019-05-16T21:21:50.000Z","ept":0.005,"lat":35.926845833,"lon":-78.953407500,"alt":90.700,"epx":9.392,"epy":13.513,"epv":47.610,"track":82.6400,"speed":10.090,"climb":0.000,"eps":27.03}
{"class":"SKY","device":"/dev/ttyACM0","xdop":0.63,"ydop":0.90,"vdop":2.07,"tdop":0.82,"hdop":1.40,"gdop":1.84,"pdop":2.50,"satellites":[{"PRN":1,"el":1,"az":50,"ss":0,"used":false},{"PRN":2,"el":27,"az":242,"ss":29,"used":true},{"PRN":3,"el":25,"az":51,"ss":25,"used":true},{"PRN":6,"el":65,"az":255,"ss":38,"used":true},{"PRN":12,"el":7,"az":319,"ss":0,"used":false},{"PRN":17,"el":61,"az":36,"ss":41,"used":true},{"PRN":19,"el":62,"az":345,"ss":33,"used":true},{"PRN":22,"el":9,"az":40,"ss":0,"used":false},{"PRN":24,"el":17,"az":290,"ss":23,"used":false},{"PRN":28,"el":47,"az":147,"ss":34,"used":true},{"PRN":135,"el":20,"az":247,"ss":0,"used":false},{"PRN":138,"el":39,"az":223,"ss":0,"used":false}]}
{"class":"TPV","device":"/dev/ttyACM0","mode":3,"time":"2019-05-16T21:21:51.000Z","ept":0.005,"lat":35.926867667,"lon":-78.953281000,"alt":90.400,"epx":9.392,"epy":13.513,"epv":47.610,"track":76.6700,"speed":11.873,"climb":0.000,"eps":27.03}
{"class":"SKY","device":"/dev/ttyACM0","xdop":0.63,"ydop":0.90,"vdop":2.07,"tdop":0.82,"hdop":1.40,"gdop":1.84,"pdop":2.50,"satellites":[{"PRN":1,"el":1,"az":50,"ss":0,"used":false},{"PRN":2,"el":27,"az":242,"ss":19,"used":true},{"PRN":3,"el":25,"az":51,"ss":32,"used":true},{"PRN":6,"el":65,"az":255,"ss":38,"used":true},{"PRN":12,"el":7,"az":319,"ss":0,"used":false},{"PRN":17,"el":61,"az":36,"ss":41,"used":true},{"PRN":19,"el":62,"az":345,"ss":33,"used":true},{"PRN":22,"el":9,"az":40,"ss":4,"used":false},{"PRN":24,"el":17,"az":290,"ss":21,"used":false},{"PRN":28,"el":47,"az":147,"ss":35,"used":true},{"PRN":135,"el":20,"az":247,"ss":0,"used":false},{"PRN":138,"el":39,"az":223,"ss":0,"used":false}]}
{"class":"TPV","device":"/dev/ttyACM0","mode":3,"time":"2019-05-16T21:21:52.000Z","ept":0.005,"lat":35.926906667,"lon":-78.953143833,"alt":89.700,"epx":9.392,"epy":13.513,"epv":47.610,"track":69.6500,"speed":13.196,"climb":0.000,"eps":27.03}
{"class":"SKY","device":"/dev/ttyACM0","xdop":0.63,"ydop":0.90,"vdop":2.07,"tdop":0.82,"hdop":1.40,"gdop":1.84,"pdop":2.50,"satellites":[{"PRN":1,"el":1,"az":50,"ss":0,"used":false},{"PRN":2,"el":27,"az":242,"ss":20,"used":true},{"PRN":3,"el":25,"az":51,"ss":33,"used":true},{"PRN":6,"el":65,"az":255,"ss":41,"used":true},{"PRN":12,"el":7,"az":319,"ss":20,"used":false},{"PRN":17,"el":61,"az":36,"ss":41,"used":true},{"PRN":19,"el":62,"az":345,"ss":38,"used":true},{"PRN":22,"el":9,"az":40,"ss":7,"used":false},{"PRN":24,"el":17,"az":290,"ss":17,"used":false},{"PRN":28,"el":47,"az":147,"ss":34,"used":true},{"PRN":135,"el":20,"az":247,"ss":0,"used":false},{"PRN":138,"el":39,"az":223,"ss":0,"used":false}]}
{"class":"TPV","device":"/dev/ttyACM0","mode":3,"time":"2019-05-16T21:21:53.000Z","ept":0.005,"lat":35.926951333,"lon":-78.953001333,"alt":88.700,"epx":9.392,"epy":13.513,"epv":47.610,"track":68.2300,"speed":14.204,"climb":0.000,"eps":27.03}
{"class":"SKY","device":"/dev/ttyACM0","xdop":0.63,"ydop":0.90,"vdop":2.07,"tdop":0.82,"hdop":1.40,"gdop":1.84,"pdop":2.50,"satellites":[{"PRN":1,"el":1,"az":50,"ss":0,"used":false},{"PRN":2,"el":27,"az":242,"ss":20,"used":true},{"PRN":3,"el":25,"az":51,"ss":34,"used":true},{"PRN":6,"el":65,"az":255,"ss":42,"used":true},{"PRN":12,"el":7,"az":319,"ss":20,"used":false},{"PRN":17,"el":61,"az":36,"ss":38,"used":true},{"PRN":19,"el":62,"az":345,"ss":37,"used":true},{"PRN":22,"el":9,"az":40,"ss":10,"used":false},{"PRN":24,"el":17,"az":290,"ss":17,"used":false},{"PRN":28,"el":47,"az":147,"ss":34,"used":true},{"PRN":135,"el":20,"az":247,"ss":0,"used":false},{"PRN":138,"el":39,"az":223,"ss":39,"used":false}]}
{"class":"TPV","device":"/dev/ttyACM0","mode":3,"time":"2019-05-16T21:21:54.000Z","ept":0.005,"lat":35.927002333,"lon":-78.952850000,"alt":87.900,"epx":9.392,"epy":13.513,"epv":47.610,"track":68.1400,"speed":14.908,"climb":0.000,"eps":27.03}
{"class":"SKY","device":"/dev/ttyACM0","xdop":0.63,"ydop":0.90,"vdop":1.69,"tdop":0.82,"hdop":1.19,"gdop":1.84,"pdop":2.06,"satellites":[{"PRN":1,"el":1,"az":50,"ss":0,"used":false},{"PRN":2,"el":27,"az":242,"ss":19,"used":true},{"PRN":3,"el":25,"az":51,"ss":31,"used":true},{"PRN":6,"el":65,"az":255,"ss":42,"used":true},{"PRN":12,"el":7,"az":319,"ss":18,"used":false},{"PRN":17,"el":61,"az":36,"ss":41,"used":true},{"PRN":19,"el":62,"az":345,"ss":38,"used":true},{"PRN":22,"el":9,"az":40,"ss":9,"used":false},{"PRN":24,"el":17,"az":290,"ss":17,"used":true},{"PRN":28,"el":47,"az":147,"ss":34,"used":true},{"PRN":135,"el":20,"az":247,"ss":0,"used":false},{"PRN":138,"el":39,"az":223,"ss":38,"used":false}]}
{"class":"TPV","device":"/dev/ttyACM0","mode":3,"time":"2019-05-16T21:21:55.000Z","ept":0.005,"lat":35.927053833,"lon":-78.952690333,"alt":87.200,"epx":9.392,"epy":13.513,"epv":47.610,"track":69.2200,"speed":15.156,"climb":0.000,"eps":27.03}
{"class":"SKY","device":"/dev/ttyACM0","xdop":0.63,"ydop":0.90,"vdop":1.69,"tdop":0.82,"hdop":1.19,"gdop":1.84,"pdop":2.06,"satellites":[{"PRN":1,"el":1,"az":50,"ss":0,"used":false},{"PRN":2,"el":27,"az":242,"ss":22,"used":true},{"PRN":3,"el":25,"az":51,"ss":34,"used":true},{"PRN":6,"el":65,"az":255,"ss":40,"used":true},{"PRN":12,"el":7,"az":319,"ss":17,"used":false},{"PRN":17,"el":61,"az":36,"ss":39,"used":true},{"PRN":19,"el":62,"az":345,"ss":38,"used":true},{"PRN":22,"el":9,"az":40,"ss":9,"used":false},{"PRN":24,"el":17,"az":290,"ss":16,"used":true},{"PRN":28,"el":47,"az":147,"ss":39,"used":true},{"PRN":135,"el":20,"az":247,"ss":0,"used":false},{"PRN":138,"el":39,"az":223,"ss":38,"used":false}]}
{"class":"TPV","device":"/dev/ttyACM0","mode":3,"time":"2019-05-16T21:21:56.000Z","ept":0.005,"lat":35.927103833,"lon":-78.952530167,"alt":86.100,"epx":9.392,"epy":13.513,"epv":38.870,"track":70.1200,"speed":15.585,"climb":0.000,"eps":27.03}
{"class":"SKY","device":"/dev/ttyACM0","xdop":0.63,"ydop":0.90,"vdop":2.07,"tdop":0.82,"hdop":1.40,"gdop":1.84,"pdop":2.50,"satellites":[{"PRN":1,"el":1,"az":50,"ss":0,"used":false},{"PRN":2,"el":27,"az":242,"ss":26,"used":true},{"PRN":3,"el":25,"az":51,"ss":34,"used":true},{"PRN":6,"el":65,"az":255,"ss":39,"used":true},{"PRN":12,"el":7,"az":319,"ss":16,"used":false},{"PRN":17,"el":61,"az":36,"ss":40,"used":true},{"PRN":19,"el":62,"az":345,"ss":37,"used":true},{"PRN":22,"el":9,"az":40,"ss":8,"used":false},{"PRN":24,"el":17,"az":290,"ss":0,"used":false},{"PRN":28,"el":47,"az":147,"ss":40,"used":true},{"PRN":135,"el":20,"az":247,"ss":0,"used":false},{"PRN":138,"el":39,"az":223,"ss":37,"used":false}]}
{"class":"TPV","device":"/dev/ttyACM0","mode":3,"time":"2019-05-16T21:21:57.000Z","ept":0.005,"lat":35.927152667,"lon":-78.952362333,"alt":86.200,"epx":9.392,"epy":13.513,"epv":38.870,"track":71.1600,"speed":15.986,"climb":0.000,"eps":27.03}
{"class":"SKY","device":"/dev/ttyACM0","xdop":0.63,"ydop":0.90,"vdop":1.52,"tdop":0.82,"hdop":1.34,"gdop":1.84,"pdop":2.02,"satellites":[{"PRN":1,"el":1,"az":50,"ss":0,"used":false},{"PRN":2,"el":27,"az":242,"ss":29,"used":true},{"PRN":3,"el":25,"az":51,"ss":34,"used":true},{"PRN":6,"el":65,"az":255,"ss":36,"used":true},{"PRN":12,"el":7,"az":319,"ss":15,"used":false},{"PRN":17,"el":61,"az":36,"ss":40,"used":true},{"PRN":19,"el":62,"az":345,"ss":37,"used":true},{"PRN":22,"el":9,"az":40,"ss":10,"used":true},{"PRN":24,"el":17,"az":290,"ss":0,"used":false},{"PRN":28,"el":47,"az":147,"ss":40,"used":true},{"PRN":135,"el":20,"az":247,"ss":0,"used":false},{"PRN":138,"el":39,"az":223,"ss":36,"used":false}]}
{"class":"TPV","device":"/dev/ttyACM0","mode":3,"time":"2019-05-16T21:21:58.000Z","ept":0.005,"lat":35.927200167,"lon":-78.952190500,"alt":86.200,"epx":9.392,"epy":13.513,"epv":47.610,"track":72.0500,"speed":16.329,"climb":0.000,"eps":27.03}
{"class":"SKY","device":"/dev/ttyACM0","xdop":0.63,"ydop":0.90,"vdop":1.52,"tdop":0.82,"hdop":1.34,"gdop":1.84,"pdop":2.02,"satellites":[{"PRN":1,"el":1,"az":50,"ss":0,"used":false},{"PRN":2,"el":27,"az":242,"ss":28,"used":true},{"PRN":3,"el":25,"az":51,"ss":33,"used":true},{"PRN":6,"el":65,"az":255,"ss":35,"used":true},{"PRN":12,"el":7,"az":319,"ss":16,"used":false},{"PRN":17,"el":61,"az":36,"ss":38,"used":true},{"PRN":19,"el":62,"az":345,"ss":36,"used":true},{"PRN":22,"el":9,"az":40,"ss":13,"used":true},{"PRN":24,"el":17,"az":290,"ss":0,"used":false},{"PRN":28,"el":47,"az":147,"ss":24,"used":true},{"PRN":135,"el":20,"az":247,"ss":0,"used":false},{"PRN":138,"el":39,"az":223,"ss":35,"used":false}]}
{"class":"TPV","device":"/dev/ttyACM0","mode":3,"time":"2019-05-16T21:21:59.000Z","ept":0.005,"lat":35.927246833,"lon":-78.952018167,"alt":86.000,"epx":9.392,"epy":13.513,"epv":34.960,"track":71.5100,"speed":16.354,"climb":0.000,"eps":27.03}
{"class":"SKY","device":"/dev/ttyACM0","xdop":0.63,"ydop":0.90,"vdop":1.52,"tdop":0.82,"hdop":1.34,"gdop":1.84,"pdop":2.02,"satellites":[{"PRN":1,"el":1,"az":50,"ss":0,"used":false},{"PRN":2,"el":27,"az":242,"ss":28,"used":true},{"PRN":3,"el":25,"az":51,"ss":34,"used":true},{"PRN":6,"el":65,"az":255,"ss":35,"used":true},{"PRN":12,"el":7,"az":319,"ss":15,"used":false},{"PRN":17,"el":61,"az":36,"ss":38,"used":true},{"PRN":19,"el":62,"az":345,"ss":37,"used":true},{"PRN":22,"el":9,"az":40,"ss":12,"used":true},{"PRN":24,"el":17,"az":290,"ss":0,"used":false},{"PRN":28,"el":47,"az":147,"ss":26,"used":true},{"PRN":135,"el":20,"az":247,"ss":0,"used":false},{"PRN":138,"el":39,"az":223,"ss":32,"used":false}]}
{"class":"TPV","device":"/dev/ttyACM0","mode":3,"time":"2019-05-16T21:22:00.000Z","ept":0.005,"lat":35.927293500,"lon":-78.951846167,"alt":85.800,"epx":9.392,"epy":13.513,"epv":34.960,"track":71.5300,"speed":16.331,"climb":0.000,"eps":27.03}
{"class":"SKY","device":"/dev/ttyACM0","xdop":0.63,"ydop":0.90,"vdop":1.52,"tdop":0.82,"hdop":1.34,"gdop":1.84,"pdop":2.02,"satellites":[{"PRN":1,"el":1,"az":50,"ss":0,"used":false},{"PRN":2,"el":27,"az":242,"ss":27,"used":true},{"PRN":3,"el":25,"az":51,"ss":34,"used":true},{"PRN":6,"el":65,"az":255,"ss":36,"used":true},{"PRN":12,"el":7,"az":319,"ss":14,"used":false},{"PRN":17,"el":61,"az":36,"ss":37,"used":true},{"PRN":19,"el":62,"az":345,"ss":36,"used":true},{"PRN":22,"el":9,"az":40,"ss":10,"used":true},{"PRN":24,"el":17,"az":290,"ss":20,"used":false},{"PRN":28,"el":47,"az":147,"ss":35,"used":true},{"PRN":135,"el":20,"az":247,"ss":0,"used":false},{"PRN":138,"el":39,"az":223,"ss":32,"used":false}]}
{"class":"TPV","device":"/dev/ttyACM0","mode":3,"time":"2019-05-16T21:22:01.000Z","ept":0.005,"lat":35.927338667,"lon":-78.951673667,"alt":85.800,"epx":9.392,"epy":13.513,"epv":34.960,"track":71.8200,"speed":16.307,"climb":0.000,"eps":27.03}
{"class":"SKY","device":"/dev/ttyACM0","xdop":0.63,"ydop":0.90,"vdop":2.07,"tdop":0.82,"hdop":1.40,"gdop":1.84,"pdop":2.50,"satellites":[{"PRN":1,"el":1,"az":50,"ss":0,"used":false},{"PRN":2,"el":27,"az":242,"ss":28,"used":true},{"PRN":3,"el":25,"az":51,"ss":34,"used":true},{"PRN":6,"el":65,"az":255,"ss":35,"used":true},{"PRN":12,"el":7,"az":319,"ss":12,"used":false},{"PRN":17,"el":61,"az":36,"ss":37,"used":true},{"PRN":19,"el":62,"az":345,"ss":36,"used":true},{"PRN":22,"el":9,"az":40,"ss":9,"used":false},{"PRN":24,"el":17,"az":290,"ss":19,"used":false},{"PRN":28,"el":47,"az":147,"ss":37,"used":true},{"PRN":135,"el":20,"az":247,"ss":0,"used":false},{"PRN":138,"el":39,"az":223,"ss":28,"used":false}]}
{"class":"TPV","device":"/dev/ttyACM0","mode":3,"time":"2019-05-16T21:22:02.000Z","ept":0.005,"lat":35.927384000,"lon":-78.951501667,"alt":85.500,"epx":9.392,"epy":13.513,"epv":34.960,"track":72.7300,"speed":16.354,"climb":0.000,"eps":27.03}
{"class":"SKY","device":"/dev/ttyACM0","xdop":0.63,"ydop":0.90,"vdop":1.52,"tdop":0.82,"hdop":1.34,"gdop":1.84,"pdop":2.02,"satellites":[{"PRN":1,"el":1,"az":50,"ss":0,"used":false},{"PRN":2,"el":27,"az":242,"ss":28,"used":true},{"PRN":3,"el":25,"az":51,"ss":35,"used":true},{"PRN":6,"el":65,"az":255,"ss":36,"used":true},{"PRN":12,"el":7,"az":319,"ss":0,"used":false},{"PRN":17,"el":61,"az":36,"ss":37,"used":true},{"PRN":19,"el":62,"az":345,"ss":37,"used":true},{"PRN":22,"el":9,"az":40,"ss":11,"used":true},{"PRN":24,"el":17,"az":290,"ss":20,"used":false},{"PRN":28,"el":47,"az":147,"ss":31,"used":true},{"PRN":135,"el":20,"az":247,"ss":0,"used":false},{"PRN":138,"el":39,"az":223,"ss":36,"used":false}]}
{"class":"TPV","device":"/dev/ttyACM0","mode":3,"time":"2019-05-16T21:22:03.000Z","ept":0.005,"lat":35.927428167,"lon":-78.951328167,"alt":85.500,"epx":9.392,"epy":13.513,"epv":47.610,"track":72.7800,"speed":16.417,"climb":0.000,"eps":27.03}
{"class":"SKY","device":"/dev/ttyACM0","xdop":0.63,"ydop":0.90,"vdop":1.37,"tdop":0.82,"hdop":1.13,"gdop":1.84,"pdop":1.77,"satellites":[{"PRN":1,"el":1,"az":50,"ss":0,"used":false},{"PRN":2,"el":27,"az":242,"ss":29,"used":true},{"PRN":3,"el":25,"az":51,"ss":36,"used":true},{"PRN":6,"el":65,"az":255,"ss":37,"used":true},{"PRN":12,"el":7,"az":319,"ss":0,"used":false},{"PRN":17,"el":61,"az":36,"ss":37,"used":true},{"PRN":19,"el":62,"az":345,"ss":37,"used":true},{"PRN":22,"el":9,"az":40,"ss":14,"used":true},{"PRN":24,"el":17,"az":290,"ss":30,"used":true},{"PRN":28,"el":47,"az":147,"ss":35,"used":true},{"PRN":135,"el":20,"az":247,"ss":0,"used":false},{"PRN":138,"el":39,"az":223,"ss":33,"used":false}]}
{"class":"TPV","device":"/dev/ttyACM0","mode":3,"time":"2019-05-16T21:22:04.000Z","ept":0.005,"lat":35.927472333,"lon":-78.951154500,"alt":85.000,"epx":9.392,"epy":13.513,"epv":34.960,"track":72.8300,"speed":16.520,"climb":0.000,"eps":27.03}
{"class":"SKY","device":"/dev/ttyACM0","xdop":0.63,"ydop":0.90,"vdop":1.37,"tdop":0.82,"hdop":1.13,"gdop":1.84,"pdop":1.77,"satellites":[{"PRN":1,"el":1,"az":50,"ss":0,"used":false},{"PRN":2,"el":27,"az":242,"ss":29,"used":true},{"PRN":3,"el":25,"az":51,"ss":33,"used":true},{"PRN":6,"el":65,"az":255,"ss":36,"used":true},{"PRN":12,"el":7,"az":319,"ss":0,"used":false},{"PRN":17,"el":61,"az":36,"ss":37,"used":true},{"PRN":19,"el":62,"az":345,"ss":37,"used":true},{"PRN":22,"el":9,"az":40,"ss":14,"used":true},{"PRN":24,"el":17,"az":290,"ss":30,"used":true},{"PRN":28,"el":47,"az":147,"ss":37,"used":true},{"PRN":135,"el":20,"az":247,"ss":0,"used":false},{"PRN":138,"el":39,"az":223,"ss":37,"used":false}]}
{"class":"TPV","device":"/dev/ttyACM0","mode":3,"time":"2019-05-16T21:22:05.000Z","ept":0.005,"lat":35.927514833,"lon":-78.950977500,"alt":85.000,"epx":9.392,"epy":13.513,"epv":31.510,"track":73.0500,"speed":16.664,"climb":0.000,"eps":27.03}
{"class":"SKY","device":"/dev/ttyACM0","xdop":0.63,"ydop":0.90,"vdop":1.37,"tdop":0.82,"hdop":1.13,"gdop":1.84,"pdop":1.77,"satellites":[{"PRN":1,"el":1,"az":50,"ss":0,"used":false},{"PRN":2,"el":27,"az":242,"ss":28,"used":true},{"PRN":3,"el":25,"az":51,"ss":36,"used":true},{"PRN":6,"el":65,"az":255,"ss":36,"used":true},{"PRN":12,"el":7,"az":319,"ss":0,"used":false},{"PRN":17,"el":61,"az":36,"ss":37,"used":true},{"PRN":19,"el":62,"az":345,"ss":37,"used":true},{"PRN":22,"el":9,"az":40,"ss":14,"used":true},{"PRN":24,"el":17,"az":290,"ss":19,"used":true},{"PRN":28,"el":47,"az":147,"ss":32,"used":true},{"PRN":135,"el":20,"az":247,"ss":0,"used":false},{"PRN":138,"el":39,"az":223,"ss":36,"used":false}]}
{"class":"TPV","device":"/dev/ttyACM0","mode":3,"time":"2019-05-16T21:22:06.000Z","ept":0.005,"lat":35.927559333,"lon":-78.950800500,"alt":84.800,"epx":9.392,"epy":13.513,"epv":31.510,"track":72.9600,"speed":16.755,"climb":0.000,"eps":27.03}
{"class":"SKY","device":"/dev/ttyACM0","xdop":0.63,"ydop":0.90,"vdop":1.37,"tdop":0.82,"hdop":1.13,"gdop":1.84,"pdop":1.77,"satellites":[{"PRN":1,"el":1,"az":50,"ss":0,"used":false},{"PRN":2,"el":27,"az":242,"ss":28,"used":true},{"PRN":3,"el":25,"az":51,"ss":34,"used":true},{"PRN":6,"el":65,"az":255,"ss":37,"used":true},{"PRN":12,"el":7,"az":319,"ss":0,"used":false},{"PRN":17,"el":61,"az":36,"ss":38,"used":true},{"PRN":19,"el":62,"az":345,"ss":37,"used":true},{"PRN":22,"el":9,"az":40,"ss":12,"used":true},{"PRN":24,"el":17,"az":290,"ss":21,"used":true},{"PRN":28,"el":47,"az":147,"ss":37,"used":true},{"PRN":135,"el":20,"az":247,"ss":0,"used":false},{"PRN":138,"el":39,"az":223,"ss":34,"used":false}]}
{"class":"TPV","device":"/dev/ttyACM0","mode":3,"time":"2019-05-16T21:22:07.000Z","ept":0.005,"lat":35.927604167,"lon":-78.950622333,"alt":85.100,"epx":9.392,"epy":13.513,"epv":31.510,"track":72.8100,"speed":16.854,"climb":0.000,"eps":27.03}
{"class":"SKY","device":"/dev/ttyACM0","xdop":0.63,"ydop":0.90,"vdop":1.69,"tdop":0.82,"hdop":1.19,"gdop":1.84,"pdop":2.06,"satellites":[{"PRN":1,"el":1,"az":50,"ss":0,"used":false},{"PRN":2,"el":27,"az":242,"ss":29,"used":true},{"PRN":3,"el":25,"az":51,"ss":25,"used":true},{"PRN":6,"el":65,"az":255,"ss":37,"used":true},{"PRN":12,"el":7,"az":319,"ss":0,"used":false},{"PRN":17,"el":61,"az":36,"ss":38,"used":true},{"PRN":19,"el":62,"az":345,"ss":37,"used":true},{"PRN":22,"el":9,"az":40,"ss":9,"used":false},{"PRN":24,"el":17,"az":290,"ss":21,"used":true},{"PRN":28,"el":47,"az":147,"ss":38,"used":true},{"PRN":135,"el":20,"az":247,"ss":0,"used":false},{"PRN":138,"el":39,"az":223,"ss":35,"used":false}]}
{"class":"TPV","device":"/dev/ttyACM0","mode":3,"time":"2019-05-16T21:22:08.000Z","ept":0.005,"lat":35.927650000,"lon":-78.950445000,"alt":84.900,"epx":9.392,"epy":13.513,"epv":31.510,"track":72.7400,"speed":16.886,"climb":0.000,"eps":27.03}
{"class":"SKY","device":"/dev/ttyACM0","xdop":0.63,"ydop":0.90,"vdop":1.69,"tdop":0.82,"hdop":1.19,"gdop":1.84,"pdop":2.06,"satellites":[{"PRN":1,"el":1,"az":50,"ss":0,"used":false},{"PRN":2,"el":27,"az":242,"ss":29,"used":true},{"PRN":3,"el":25,"az":51,"ss":35,"used":true},{"PRN":6,"el":65,"az":255,"ss":37,"used":true},{"PRN":12,"el":7,"az":319,"ss":0,"used":false},{"PRN":17,"el":61,"az":36,"ss":37,"used":true},{"PRN":19,"el":62,"az":345,"ss":37,"used":true},{"PRN":22,"el":9,"az":40,"ss":8,"used":false},{"PRN":24,"el":17,"az":290,"ss":19,"used":true},{"PRN":28,"el":47,"az":147,"ss":34,"used":true},{"PRN":135,"el":20,"az":247,"ss":0,"used":false},{"PRN":138,"el":39,"az":223,"ss":36,"used":false}]}
{"class":"TPV","device":"/dev/ttyACM0","mode":3,"time":"2019-05-16T21:22:09.000Z","ept":0.005,"lat":35.927693333,"lon":-78.950265000,"alt":84.600,"epx":9.392,"epy":13.513,"epv":38.870,"track":73.5000,"speed":16.997,"climb":0.000,"eps":27.03}
{"class":"SKY","device":"/dev/ttyACM0","xdop":0.63,"ydop":0.90,"vdop":1.69,"tdop":0.82,"hdop":1.19,"gdop":1.84,"pdop":2.06,"satellites":[{"PRN":1,"el":1,"az":50,"ss":0,"used":false},{"PRN":2,"el":27,"az":242,"ss":29,"used":true},{"PRN":3,"el":25,"az":51,"ss":32,"used":true},{"PRN":6,"el":65,"az":255,"ss":37,"used":true},{"PRN":12,"el":7,"az":319,"ss":0,"used":false},{"PRN":17,"el":61,"az":36,"ss":37,"used":true},{"PRN":19,"el":62,"az":345,"ss":37,"used":true},{"PRN":22,"el":9,"az":40,"ss":0,"used":false},{"PRN":24,"el":17,"az":290,"ss":17,"used":true},{"PRN":28,"el":47,"az":147,"ss":28,"used":true},{"PRN":135,"el":20,"az":247,"ss":0,"used":false},{"PRN":138,"el":39,"az":223,"ss":33,"used":false}]}
{"class":"TPV","device":"/dev/ttyACM0","mode":3,"time":"2019-05-16T21:22:10.000Z","ept":0.005,"lat":35.927738667,"lon":-78.950086333,"alt":84.400,"epx":9.392,"epy":13.513,"epv":38.870,"track":72.6900,"speed":16.974,"climb":0.000,"eps":27.03}
{"class":"SKY","device":"/dev/ttyACM0","xdop":0.63,"ydop":0.90,"vdop":1.69,"tdop":0.82,"hdop":1.19,"gdop":1.84,"pdop":2.06,"satellites":[{"PRN":1,"el":1,"az":50,"ss":0,"used":false},{"PRN":2,"el":27,"az":242,"ss":28,"used":true},{"PRN":3,"el":25,"az":51,"ss":26,"used":true},{"PRN":6,"el":65,"az":255,"ss":37,"used":true},{"PRN":12,"el":7,"az":319,"ss":0,"used":false},{"PRN":17,"el":61,"az":36,"ss":37,"used":true},{"PRN":19,"el":62,"az":345,"ss":34,"used":true},{"PRN":22,"el":9,"az":40,"ss":0,"used":false},{"PRN":24,"el":17,"az":290,"ss":14,"used":true},{"PRN":28,"el":47,"az":147,"ss":33,"used":true},{"PRN":135,"el":20,"az":247,"ss":0,"used":false},{"PRN":138,"el":39,"az":223,"ss":36,"used":false}]}
{"class":"TPV","device":"/dev/ttyACM0","mode":3,"time":"2019-05-16T21:22:11.000Z","ept":0.005,"lat":35.927785333,"lon":-78.949909167,"alt":84.200,"epx":9.392,"epy":13.513,"epv":38.870,"track":72.4400,"speed":16.896,"climb":0.000,"eps":27.03}
{"class":"SKY","device":"/dev/ttyACM0","xdop":0.63,"ydop":0.90,"vdop":1.69,"tdop":0.82,"hdop":1.19,"gdop":1.84,"pdop":2.06,"satellites":[{"PRN":1,"el":1,"az":50,"ss":0,"used":false},{"PRN":2,"el":27,"az":242,"ss":28,"used":true},{"PRN":3,"el":25,"az":51,"ss":28,"used":true},{"PRN":6,"el":65,"az":255,"ss":36,"used":true},{"PRN":12,"el":7,"az":319,"ss":0,"used":false},{"PRN":17,"el":61,"az":36,"ss":37,"used":true},{"PRN":19,"el":62,"az":345,"ss":37,"used":true},{"PRN":22,"el":9,"az":40,"ss":0,"used":false},{"PRN":24,"el":17,"az":290,"ss":15,"used":true},{"PRN":28,"el":47,"az":147,"ss":27,"used":true},{"PRN":135,"el":20,"az":247,"ss":0,"used":false},{"PRN":138,"el":39,"az":223,"ss":32,"used":false}]}
{"class":"TPV","device":"/dev/ttyACM0","mode":3,"time":"2019-05-16T21:22:12.000Z","ept":0.005,"lat":35.927833167,"lon":-78.949734000,"alt":84.000,"epx":9.392,"epy":13.513,"epv":38.870,"track":71.6500,"speed":16.750,"climb":0.000,"eps":27.03}
{"class":"SKY","device":"/dev/ttyACM0","xdop":0.63,"ydop":0.90,"vdop":1.69,"tdop":0.82,"hdop":1.19,"gdop":1.84,"pdop":2.06,"satellites":[{"PRN":1,"el":1,"az":50,"ss":0,"used":false},{"PRN":2,"el":27,"az":242,"ss":28,"used":true},{"PRN":3,"el":25,"az":51,"ss":29,"used":true},{"PRN":6,"el":65,"az":255,"ss":36,"used":true},{"PRN":12,"el":7,"az":319,"ss":0,"used":false},{"PRN":17,"el":61,"az":36,"ss":38,"used":true},{"PRN":19,"el":62,"az":345,"ss":37,"used":true},{"PRN":22,"el":9,"az":40,"ss":0,"used":false},{"PRN":24,"el":17,"az":290,"ss":17,"used":true},{"PRN":28,"el":47,"az":147,"ss":25,"used":true},{"PRN":135,"el":20,"az":247,"ss":0,"used":false},{"PRN":138,"el":39,"az":223,"ss":0,"used":false}]}
{"class":"TPV","device":"/dev/ttyACM0","mode":3,"time":"2019-05-16T21:22:13.000Z","ept":0.005,"lat":35.927885500,"lon":-78.949562167,"alt":83.600,"epx":9.392,"epy":13.513,"epv":38.870,"track":69.5100,"speed":16.649,"climb":0.000,"eps":27.03}
{"class":"SKY","device":"/dev/ttyACM0","xdop":0.63,"ydop":0.90,"vdop":1.69,"tdop":0.82,"hdop":1.19,"gdop":1.84,"pdop":2.06,"satellites":[{"PRN":1,"el":1,"az":50,"ss":0,"used":false},{"PRN":2,"el":27,"az":243,"ss":27,"used":true},{"PRN":3,"el":25,"az":51,"ss":36,"used":true},{"PRN":6,"el":65,"az":255,"ss":36,"used":true},{"PRN":12,"el":7,"az":319,"ss":0,"used":false},{"PRN":17,"el":61,"az":36,"ss":39,"used":true},{"PRN":19,"el":62,"az":345,"ss":30,"used":true},{"PRN":22,"el":9,"az":40,"ss":0,"used":false},{"PRN":24,"el":17,"az":290,"ss":17,"used":true},{"PRN":28,"el":47,"az":147,"ss":27,"used":true},{"PRN":135,"el":20,"az":247,"ss":0,"used":false},{"PRN":138,"el":39,"az":223,"ss":0,"used":false}]}
{"class":"TPV","device":"/dev/ttyACM0","mode":3,"time":"2019-05-16T21:22:14.000Z","ept":0.005,"lat":35.927933000,"lon":-78.949383167,"alt":83.400,"epx":9.392,"epy":13.513,"epv":38.870,"track":71.7700,"speed":17.064,"climb":0.000,"eps":27.03}
{"class":"SKY","device":"/dev/ttyACM0","xdop":0.63,"ydop":0.90,"vdop":1.69,"tdop":0.82,"hdop":1.19,"gdop":1.84,"pdop":2.06,"satellites":[{"PRN":1,"el":1,"az":50,"ss":0,"used":false},{"PRN":2,"el":27,"az":243,"ss":25,"used":true},{"PRN":3,"el":25,"az":51,"ss":28,"used":true},{"PRN":6,"el":65,"az":255,"ss":37,"used":true},{"PRN":12,"el":7,"az":319,"ss":0,"used":false},{"PRN":17,"el":61,"az":36,"ss":37,"used":true},{"PRN":19,"el":62,"az":345,"ss":37,"used":true},{"PRN":22,"el":9,"az":40,"ss":0,"used":false},{"PRN":24,"el":17,"az":290,"ss":17,"used":true},{"PRN":28,"el":47,"az":147,"ss":28,"used":true},{"PRN":135,"el":20,"az":247,"ss":0,"used":false},{"PRN":138,"el":39,"az":223,"ss":0,"used":false}]}
{"class":"TPV","device":"/dev/ttyACM0","mode":3,"time":"2019-05-16T21:22:15.000Z","ept":0.005,"lat":35.927979500,"lon":-78.949203000,"alt":83.100,"epx":9.392,"epy":13.513,"epv":38.870,"track":72.0300,"speed":17.083,"climb":0.000,"eps":27.03}
{"class":"SKY","device":"/dev/ttyACM0","xdop":0.63,"ydop":0.90,"vdop":1.69,"tdop":0.82,"hdop":1.19,"gdop":1.84,"pdop":2.06,"satellites":[{"PRN":1,"el":1,"az":50,"ss":0,"used":false},{"PRN":2,"el":27,"az":243,"ss":27,"used":true},{"PRN":3,"el":25,"az":51,"ss":30,"used":true},{"PRN":6,"el":65,"az":255,"ss":37,"used":true},{"PRN":12,"el":7,"az":319,"ss":0,"used":false},{"PRN":17,"el":61,"az":36,"ss":38,"used":true},{"PRN":19,"el":62,"az":345,"ss":37,"used":true},{"PRN":22,"el":9,"az":40,"ss":0,"used":false},{"PRN":24,"el":17,"az":290,"ss":18,"used":true},{"PRN":28,"el":47,"az":147,"ss":27,"used":true},{"PRN":135,"el":20,"az":247,"ss":0,"used":false},{"PRN":138,"el":39,"az":223,"ss":0,"used":false}]}
{"class":"TPV","device":"/dev/ttyACM0","mode":3,"time":"2019-05-16T21:22:16.000Z","ept":0.005,"lat":35.928025333,"lon":-78.949020000,"alt":83.000,"epx":9.392,"epy":13.513,"epv":38.870,"track":73.0700,"speed":17.410,"climb":0.000,"eps":27.03}
{"class":"SKY","device":"/dev/ttyACM0","xdop":0.63,"ydop":0.90,"vdop":1.69,"tdop":0.82,"hdop":1.19,"gdop":1.84,"pdop":2.06,"satellites":[{"PRN":1,"el":1,"az":50,"ss":0,"used":false},{"PRN":2,"el":27,"az":243,"ss":27,"used":true},{"PRN":3,"el":25,"az":51,"ss":33,"used":true},{"PRN":6,"el":65,"az":256,"ss":36,"used":true},{"PRN":12,"el":7,"az":319,"ss":0,"used":false},{"PRN":17,"el":61,"az":36,"ss":38,"used":true},{"PRN":19,"el":62,"az":345,"ss":36,"used":true},{"PRN":22,"el":9,"az":40,"ss":0,"used":false},{"PRN":24,"el":17,"az":290,"ss":20,"used":true},{"PRN":28,"el":47,"az":147,"ss":33,"used":true},{"PRN":135,"el":20,"az":247,"ss":0,"used":false},{"PRN":138,"el":39,"az":223,"ss":0,"used":false}]}
{"class":"TPV","device":"/dev/ttyACM0","mode":3,"time":"2019-05-16T21:22:17.000Z","ept":0.005,"lat":35.928078667,"lon":-78.948843500,"alt":82.300,"epx":9.392,"epy":13.513,"epv":38.870,"track":69.8200,"speed":17.100,"climb":0.000,"eps":27.03}
{"class":"SKY","device":"/dev/ttyACM0","xdop":0.63,"ydop":0.90,"vdop":1.69,"tdop":0.82,"hdop":1.19,"gdop":1.84,"pdop":2.06,"satellites":[{"PRN":1,"el":1,"az":50,"ss":0,"used":false},{"PRN":2,"el":27,"az":243,"ss":27,"used":true},{"PRN":3,"el":25,"az":51,"ss":36,"used":true},{"PRN":6,"el":65,"az":256,"ss":36,"used":true},{"PRN":12,"el":7,"az":319,"ss":0,"used":false},{"PRN":17,"el":61,"az":36,"ss":36,"used":true},{"PRN":19,"el":62,"az":345,"ss":32,"used":true},{"PRN":22,"el":9,"az":40,"ss":0,"used":false},{"PRN":24,"el":17,"az":290,"ss":18,"used":true},{"PRN":28,"el":47,"az":147,"ss":28,"used":true},{"PRN":135,"el":20,"az":247,"ss":0,"used":false},{"PRN":138,"el":39,"az":223,"ss":0,"used":false}]}
{"class":"TPV","device":"/dev/ttyACM0","mode":3,"time":"2019-05-16T21:22:18.000Z","ept":0.005,"lat":35.928129833,"lon":-78.948663500,"alt":82.100,"epx":9.392,"epy":13.513,"epv":38.870,"track":70.2300,"speed":17.212,"climb":0.000,"eps":27.03}
{"class":"SKY","device":"/dev/ttyACM0","xdop":0.63,"ydop":0.90,"vdop":1.69,"tdop":0.82,"hdop":1.19,"gdop":1.84,"pdop":2.06,"satellites":[{"PRN":1,"el":1,"az":50,"ss":0,"used":false},{"PRN":2,"el":27,"az":243,"ss":27,"used":true},{"PRN":3,"el":25,"az":51,"ss":36,"used":true},{"PRN":6,"el":65,"az":256,"ss":37,"used":true},{"PRN":12,"el":7,"az":319,"ss":0,"used":false},{"PRN":17,"el":61,"az":36,"ss":38,"used":true},{"PRN":19,"el":62,"az":345,"ss":37,"used":true},{"PRN":22,"el":9,"az":40,"ss":0,"used":false},{"PRN":24,"el":17,"az":290,"ss":18,"used":true},{"PRN":28,"el":47,"az":147,"ss":32,"used":true},{"PRN":135,"el":20,"az":247,"ss":0,"used":false},{"PRN":138,"el":39,"az":223,"ss":0,"used":false}]}
{"class":"TPV","device":"/dev/ttyACM0","mode":3,"time":"2019-05-16T21:22:19.000Z","ept":0.005,"lat":35.928178167,"lon":-78.948482667,"alt":81.900,"epx":9.392,"epy":13.513,"epv":38.870,"track":71.8700,"speed":17.192,"climb":0.000,"eps":27.03}
{"class":"SKY","device":"/dev/ttyACM0","xdop":0.63,"ydop":0.90,"vdop":1.69,"tdop":0.82,"hdop":1.19,"gdop":1.84,"pdop":2.06,"satellites":[{"PRN":1,"el":1,"az":50,"ss":0,"used":false},{"PRN":2,"el":27,"az":243,"ss":28,"used":true},{"PRN":3,"el":25,"az":51,"ss":33,"used":true},{"PRN":6,"el":65,"az":256,"ss":38,"used":true},{"PRN":12,"el":7,"az":319,"ss":0,"used":false},{"PRN":17,"el":61,"az":36,"ss":39,"used":true},{"PRN":19,"el":62,"az":345,"ss":37,"used":true},{"PRN":22,"el":9,"az":40,"ss":0,"used":false},{"PRN":24,"el":17,"az":290,"ss":16,"used":true},{"PRN":28,"el":47,"az":147,"ss":35,"used":true},{"PRN":135,"el":20,"az":247,"ss":0,"used":false},{"PRN":138,"el":39,"az":223,"ss":0,"used":false}]}
{"class":"TPV","device":"/dev/ttyACM0","mode":3,"time":"2019-05-16T21:22:20.000Z","ept":0.005,"lat":35.928222833,"lon":-78.948303167,"alt":81.400,"epx":9.392,"epy":13.513,"epv":38.870,"track":72.0800,"speed":17.131,"climb":0.000,"eps":27.03}
{"class":"SKY","device":"/dev/ttyACM0","xdop":0.63,"ydop":0.90,"vdop":1.69,"tdop":0.82,"hdop":1.19,"gdop":1.84,"pdop":2.06,"satellites":[{"PRN":1,"el":1,"az":50,"ss":0,"used":false},{"PRN":2,"el":27,"az":243,"ss":28,"used":true},{"PRN":3,"el":25,"az":51,"ss":34,"used":true},{"PRN":6,"el":65,"az":256,"ss":39,"used":true},{"PRN":12,"el":7,"az":319,"ss":0,"used":false},{"PRN":17,"el":61,"az":36,"ss":40,"used":true},{"PRN":19,"el":62,"az":345,"ss":35,"used":true},{"PRN":22,"el":9,"az":40,"ss":0,"used":false},{"PRN":24,"el":17,"az":290,"ss":13,"used":true},{"PRN":28,"el":47,"az":147,"ss":31,"used":true},{"PRN":135,"el":20,"az":247,"ss":0,"used":false},{"PRN":138,"el":39,"az":223,"ss":0,"used":false}]}
{"class":"TPV","device":"/dev/ttyACM0","mode":3,"time":"2019-05-16T21:22:21.000Z","ept":0.005,"lat":35.928269667,"lon":-78.948125167,"alt":80.800,"epx":9.392,"epy":13.513,"epv":38.870,"track":72.1100,"speed":17.044,"climb":0.000,"eps":27.03}
{"class":"SKY","device":"/dev/ttyACM0","xdop":0.63,"ydop":0.90,"vdop":1.69,"tdop":0.82,"hdop":1.19,"gdop":1.84,"pdop":2.06,"satellites":[{"PRN":1,"el":1,"az":50,"ss":0,"used":false},{"PRN":2,"el":27,"az":243,"ss":28,"used":true},{"PRN":3,"el":25,"az":51,"ss":37,"used":true},{"PRN":6,"el":65,"az":256,"ss":39,"used":true},{"PRN":12,"el":7,"az":319,"ss":0,"used":false},{"PRN":17,"el":61,"az":36,"ss":39,"used":true},{"PRN":19,"el":62,"az":345,"ss":36,"used":true},{"PRN":22,"el":9,"az":40,"ss":0,"used":false},{"PRN":24,"el":17,"az":290,"ss":12,"used":true},{"PRN":28,"el":47,"az":147,"ss":31,"used":true},{"PRN":135,"el":20,"az":247,"ss":0,"used":false},{"PRN":138,"el":39,"az":223,"ss":0,"used":false}]}
{"class":"TPV","device":"/dev/ttyACM0","mode":3,"time":"2019-05-16T21:22:22.000Z","ept":0.005,"lat":35.928318000,"lon":-78.947947667,"alt":80.100,"epx":9.392,"epy":13.513,"epv":38.870,"track":71.6300,"speed":16.915,"climb":0.000,"eps":27.03}
{"class":"SKY","device":"/dev/ttyACM0","xdop":0.63,"ydop":0.90,"vdop":2.07,"tdop":0.82,"hdop":1.40,"gdop":1.84,"pdop":2.50,"satellites":[{"PRN":1,"el":1,"az":50,"ss":0,"used":false},{"PRN":2,"el":27,"az":243,"ss":28,"used":true},{"PRN":3,"el":25,"az":51,"ss":36,"used":true},{"PRN":6,"el":65,"az":256,"ss":39,"used":true},{"PRN":12,"el":7,"az":319,"ss":0,"used":false},{"PRN":17,"el":61,"az":36,"ss":39,"used":true},{"PRN":19,"el":62,"az":345,"ss":36,"used":true},{"PRN":22,"el":9,"az":40,"ss":0,"used":false},{"PRN":24,"el":17,"az":290,"ss":10,"used":false},{"PRN":28,"el":47,"az":147,"ss":30,"used":true},{"PRN":135,"el":20,"az":247,"ss":0,"used":false},{"PRN":138,"el":39,"az":223,"ss":0,"used":false}]}
{"class":"TPV","device":"/dev/ttyACM0","mode":3,"time":"2019-05-16T21:22:23.000Z","ept":0.005,"lat":35.928365000,"lon":-78.947768667,"alt":79.900,"epx":9.392,"epy":13.513,"epv":38.870,"track":72.4900,"speed":16.985,"climb":0.000,"eps":27.03}
{"class":"SKY","device":"/dev/ttyACM0","xdop":0.63,"ydop":0.90,"vdop":2.07,"tdop":0.82,"hdop":1.40,"gdop":1.84,"pdop":2.50,"satellites":[{"PRN":1,"el":1,"az":50,"ss":0,"used":false},{"PRN":2,"el":27,"az":243,"ss":28,"used":true},{"PRN":3,"el":25,"az":51,"ss":36,"used":true},{"PRN":6,"el":65,"az":256,"ss":39,"used":true},{"PRN":12,"el":7,"az":319,"ss":0,"used":false},{"PRN":17,"el":61,"az":36,"ss":39,"used":true},{"PRN":19,"el":62,"az":345,"ss":36,"used":true},{"PRN":22,"el":9,"az":40,"ss":0,"used":false},{"PRN":24,"el":17,"az":290,"ss":0,"used":false},{"PRN":28,"el":47,"az":147,"ss":33,"used":true},{"PRN":135,"el":20,"az":247,"ss":0,"used":false},{"PRN":138,"el":39,"az":223,"ss":0,"used":false}]}
{"class":"TPV","device":"/dev/ttyACM0","mode":3,"time":"2019-05-16T21:22:24.000Z","ept":0.005,"lat":35.928409333,"lon":-78.947588333,"alt":79.900,"epx":9.392,"epy":13.513,"epv":47.610,"track":72.6600,"speed":16.937,"climb":0.000,"eps":27.03}
{"class":"SKY","device":"/dev/ttyACM0","xdop":0.63,"ydop":0.90,"vdop":2.07,"tdop":0.82,"hdop":1.40,"gdop":1.84,"pdop":2.50,"satellites":[{"PRN":1,"el":1,"az":50,"ss":0,"used":false},{"PRN":2,"el":27,"az":243,"ss":27,"used":true},{"PRN":3,"el":25,"az":51,"ss":33,"used":true},{"PRN":6,"el":65,"az":256,"ss":39,"used":true},{"PRN":12,"el":7,"az":319,"ss":0,"used":false},{"PRN":17,"el":61,"az":36,"ss":37,"used":true},{"PRN":19,"el":62,"az":345,"ss":36,"used":true},{"PRN":22,"el":9,"az":40,"ss":0,"used":false},{"PRN":24,"el":17,"az":290,"ss":0,"used":false},{"PRN":28,"el":47,"az":147,"ss":29,"used":true},{"PRN":135,"el":20,"az":247,"ss":0,"used":false},{"PRN":138,"el":39,"az":223,"ss":32,"used":false}]}
{"class":"TPV","device":"/dev/ttyACM0","mode":3,"time":"2019-05-16T21:22:25.000Z","ept":0.005,"lat":35.928455333,"lon":-78.947411833,"alt":79.900,"epx":9.392,"epy":13.513,"epv":47.610,"track":72.4100,"speed":16.617,"climb":0.000,"eps":27.03}
{"class":"SKY","device":"/dev/ttyACM0","xdop":0.63,"ydop":0.90,"vdop":2.07,"tdop":0.82,"hdop":1.40,"gdop":1.84,"pdop":2.50,"satellites":[{"PRN":1,"el":1,"az":50,"ss":0,"used":false},{"PRN":2,"el":27,"az":243,"ss":26,"used":true},{"PRN":3,"el":25,"az":51,"ss":28,"used":true},{"PRN":6,"el":65,"az":256,"ss":37,"used":true},{"PRN":12,"el":7,"az":319,"ss":0,"used":false},{"PRN":17,"el":61,"az":36,"ss":37,"used":true},{"PRN":19,"el":62,"az":345,"ss":35,"used":true},{"PRN":22,"el":9,"az":40,"ss":0,"used":false},{"PRN":24,"el":17,"az":290,"ss":0,"used":false},{"PRN":28,"el":47,"az":147,"ss":28,"used":true},{"PRN":135,"el":20,"az":247,"ss":0,"used":false},{"PRN":138,"el":39,"az":223,"ss":35,"used":false}]}
{"class":"TPV","device":"/dev/ttyACM0","mode":3,"time":"2019-05-16T21:22:26.000Z","ept":0.005,"lat":35.928500833,"lon":-78.947238500,"alt":80.100,"epx":9.392,"epy":13.513,"epv":47.610,"track":71.7100,"speed":16.307,"climb":0.000,"eps":27.03}
{"class":"SKY","device":"/dev/ttyACM0","xdop":0.63,"ydop":0.90,"vdop":2.07,"tdop":0.82,"hdop":1.40,"gdop":1.84,"pdop":2.50,"satellites":[{"PRN":1,"el":1,"az":50,"ss":0,"used":false},{"PRN":2,"el":27,"az":243,"ss":25,"used":true},{"PRN":3,"el":25,"az":51,"ss":28,"used":true},{"PRN":6,"el":65,"az":256,"ss":36,"used":true},{"PRN":12,"el":7,"az":319,"ss":0,"used":false},{"PRN":17,"el":61,"az":36,"ss":34,"used":true},{"PRN":19,"el":62,"az":345,"ss":31,"used":true},{"PRN":22,"el":9,"az":40,"ss":0,"used":false},{"PRN":24,"el":17,"az":290,"ss":0,"used":false},{"PRN":28,"el":47,"az":147,"ss":27,"used":true},{"PRN":135,"el":20,"az":247,"ss":0,"used":false},{"PRN":138,"el":39,"az":223,"ss":32,"used":false}]}
{"class":"TPV","device":"/dev/ttyACM0","mode":3,"time":"2019-05-16T21:22:27.000Z","ept":0.005,"lat":35.928547667,"lon":-78.947065167,"alt":80.200,"epx":9.392,"epy":13.513,"epv":47.610,"track":71.3400,"speed":16.520,"climb":0.000,"eps":27.03}
{"class":"SKY","device":"/dev/ttyACM0","xdop":0.63,"ydop":0.90,"vdop":2.07,"tdop":0.82,"hdop":1.40,"gdop":1.84,"pdop":2.50,"satellites":[{"PRN":1,"el":1,"az":50,"ss":0,"used":false},{"PRN":2,"el":27,"az":243,"ss":24,"used":true},{"PRN":3,"el":25,"az":51,"ss":32,"used":true},{"PRN":6,"el":65,"az":256,"ss":38,"used":true},{"PRN":12,"el":7,"az":319,"ss":0,"used":false},{"PRN":17,"el":61,"az":36,"ss":39,"used":true},{"PRN":19,"el":62,"az":345,"ss":30,"used":true},{"PRN":22,"el":9,"az":40,"ss":0,"used":false},{"PRN":24,"el":17,"az":290,"ss":0,"used":false},{"PRN":28,"el":47,"az":147,"ss":33,"used":true},{"PRN":135,"el":20,"az":247,"ss":0,"used":false},{"PRN":138,"el":39,"az":223,"ss":33,"used":false}]}
{"class":"TPV","device":"/dev/ttyACM0","mode":3,"time":"2019-05-16T21:22:28.000Z","ept":0.005,"lat":35.928593167,"lon":-78.946886000,"alt":80.400,"epx":9.392,"epy":13.513,"epv":47.610,"track":72.2300,"speed":16.986,"climb":0.000,"eps":27.03}
