{"class":"VERSION","release":"3.16","rev":"3.16-4","proto_major":3,"proto_minor":11}
{"class":"DEVICES","devices":[{"class":"DEVICE","path":"/dev/ttyACM0","driver":"NMEA0183","activated":"2019-05-16T21:13:13.754Z","flags":1,"native":0,"bps":9600,"parity":"N","stopbits":1,"cycle":1.00}]}
{"class":"WATCH","enable":true,"json":true,"nmea":false,"raw":0,"scaled":false,"timing":false,"split24":false,"pps":false}
{"class":"SKY","device":"/dev/ttyACM0","xdop":0.63,"ydop":0.90,"vdop":1.40,"tdop":0.82,"hdop":1.12,"gdop":1.84,"pdop":1.79,"satellites":[{"PRN":1,"el":4,"az":49,"ss":0,"used":false},{"PRN":2,"el":24,"az":239,"ss":32,"used":true},{"PRN":3,"el":27,"az":55,"ss":26,"used":true},{"PRN":6,"el":62,"az":248,"ss":36,"used":true},{"PRN":12,"el":4,"az":319,"ss":0,"used":false},{"PRN":17,"el":62,"az":27,"ss":39,"used":true},{"PRN":19,"el":61,"az":337,"ss":32,"used":true},{"PRN":22,"el":12,"az":42,"ss":29,"used":true},{"PRN":24,"el":17,"az":294,"ss":21,"used":true},{"PRN":28,"el":51,"az":144,"ss":33,"used":true},{"PRN":133,"el":23,"az":244,"ss":31,"used":false},{"PRN":135,"el":20,"az":247,"ss":0,"used":false},{"PRN":138,"el":39,"az":223,"ss":0,"used":false}]}
{"class":"TPV","device":"/dev/ttyACM0","mode":3,"time":"2019-05-16T21:13:14.000Z","ept":0.005,"lat":35.923597500,"lon":-78.926816833,"alt":108.300,"epx":9.392,"epy":13.513,"epv":32.200,"track":211.1200,"speed":0.910,"climb":0.000,"eps":1.93}
{"class":"SKY","device":"/dev/ttyACM0","xdop":0.63,"ydop":0.90,"vdop":1.40,"tdop":0.82,"hdop":1.12,"gdop":1.84,"pdop":1.79,"satellites":[{"PRN":1,"el":4,"az":49,"ss":0,"used":false},{"PRN":2,"el":24,"az":239,"ss":32,"used":true},{"PRN":3,"el":27,"az":55,"ss":25,"used":true},{"PRN":6,"el":62,"az":248,"ss":37,"used":true},{"PRN":12,"el":4,"az":319,"ss":0,"used":false},{"PRN":17,"el":62,"az":27,"ss":40,"used":true},{"PRN":19,"el":61,"az":337,"ss":30,"used":true},{"PRN":22,"el":12,"az":42,"ss":29,"used":true},{"PRN":24,"el":17,"az":294,"ss":19,"used":true},{"PRN":28,"el":51,"az":144,"ss":35,"used":true},{"PRN":133,"el":23,"az":244,"ss":31,"used":false},{"PRN":135,"el":20,"az":247,"ss":0,"used":false},{"PRN":138,"el":39,"az":223,"ss":0,"used":false}]}
{"class":"TPV","device":"/dev/ttyACM0","mode":3,"time":"2019-05-16T21:13:15.000Z","ept":0.005,"lat":35.923581167,"lon":-78.926829833,"alt":108.400,"epx":9.392,"epy":13.513,"epv":32.200,"track":212.6500,"speed":2.701,"climb":0.000,"eps":27.03}
{"class":"SKY","device":"/dev/ttyACM0","xdop":0.63,"ydop":0.90,"vdop":1.40,"tdop":0.82,"hdop":1.12,"gdop":1.84,"pdop":1.79,"satellites":[{"PRN":1,"el":4,"az":49,"ss":0,"used":false},{"PRN":2,"el":24,"az":239,"ss":32,"used":true},{"PRN":3,"el":27,"az":55,"ss":25,"used":true},{"PRN":6,"el":62,"az":248,"ss":36,"used":true},{"PRN":12,"el":4,"az":319,"ss":0,"used":false},{"PRN":17,"el":62,"az":27,"ss":39,"used":true},{"PRN":19,"el":61,"az":337,"ss":30,"used":true},{"PRN":22,"el":12,"az":42,"ss":30,"used":true},{"PRN":24,"el":17,"az":294,"ss":30,"used":true},{"PRN":28,"el":51,"az":144,"ss":32,"used":true},{"PRN":133,"el":23,"az":244,"ss":31,"used":false},{"PRN":135,"el":20,"az":247,"ss":0,"used":false},{"PRN":138,"el":39,"az":223,"ss":0,"used":false}]}
{"class":"TPV","device":"/dev/ttyACM0","mode":3,"time":"2019-05-16T21:13:16.000Z","ept":0.005,"lat":35.923552667,"lon":-78.926852500,"alt":108.200,"epx":9.392,"epy":13.513,"epv":32.200,"track":212.7300,"speed":4.207,"climb":0.000,"eps":27.03}
{"class":"SKY","device":"/dev/ttyACM0","xdop":0.63,"ydop":0.90,"vdop":1.40,"tdop":0.82,"hdop":1.12,"gdop":1.84,"pdop":1.79,"satellites":[{"PRN":1,"el":4,"az":49,"ss":0,"used":false},{"PRN":2,"el":24,"az":239,"ss":33,"used":true},{"PRN":3,"el":27,"az":55,"ss":25,"used":true},{"PRN":6,"el":62,"az":248,"ss":35,"used":true},{"PRN":12,"el":4,"az":319,"ss":0,"used":false},{"PRN":17,"el":62,"az":27,"ss":39,"used":true},{"PRN":19,"el":61,"az":337,"ss":30,"used":true},{"PRN":22,"el":12,"az":42,"ss":31,"used":true},{"PRN":24,"el":17,"az":294,"ss":29,"used":true},{"PRN":28,"el":51,"az":144,"ss":32,"used":true},{"PRN":133,"el":23,"az":244,"ss":31,"used":false},{"PRN":135,"el":20,"az":247,"ss":0,"used":false},{"PRN":138,"el":39,"az":223,"ss":0,"used":false}]}
{"class":"TPV","device":"/dev/ttyACM0","mode":3,"time":"2019-05-16T21:13:17.000Z","ept":0.005,"lat":35.923513833,"lon":-78.926883000,"alt":108.000,"epx":9.392,"epy":13.513,"epv":32.200,"track":212.4000,"speed":5.508,"climb":0.000,"eps":27.03}
{"class":"SKY","device":"/dev/ttyACM0","xdop":0.63,"ydop":0.90,"vdop":1.40,"tdop":0.82,"hdop":1.12,"gdop":1.84,"pdop":1.79,"satellites":[{"PRN":1,"el":4,"az":49,"ss":0,"used":false},{"PRN":2,"el":24,"az":239,"ss":32,"used":true},{"PRN":3,"el":27,"az":55,"ss":24,"used":true},{"PRN":6,"el":62,"az":248,"ss":38,"used":true},{"PRN":12,"el":4,"az":319,"ss":0,"used":false},{"PRN":17,"el":62,"az":27,"ss":39,"used":true},{"PRN":19,"el":61,"az":337,"ss":30,"used":true},{"PRN":22,"el":12,"az":42,"ss":31,"used":true},{"PRN":24,"el":17,"az":294,"ss":30,"used":true},{"PRN":28,"el":51,"az":144,"ss":33,"used":true},{"PRN":133,"el":23,"az":244,"ss":30,"used":false},{"PRN":135,"el":20,"az":247,"ss":0,"used":false},{"PRN":138,"el":39,"az":223,"ss":0,"used":false}]}
{"class":"TPV","device":"/dev/ttyACM0","mode":3,"time":"2019-05-16T21:13:18.000Z","ept":0.005,"lat":35.923471000,"lon":-78.926917167,"alt":107.800,"epx":9.392,"epy":13.513,"epv":32.200,"track":212.5300,"speed":5.765,"climb":0.000,"eps":27.03}
{"class":"SKY","device":"/dev/ttyACM0","xdop":0.63,"ydop":0.90,"vdop":1.40,"tdop":0.82,"hdop":1.12,"gdop":1.84,"pdop":1.79,"satellites":[{"PRN":1,"el":4,"az":49,"ss":0,"used":false},{"PRN":2,"el":24,"az":239,"ss":32,"used":true},{"PRN":3,"el":27,"az":55,"ss":22,"used":true},{"PRN":6,"el":62,"az":248,"ss":36,"used":true},{"PRN":12,"el":4,"az":319,"ss":0,"used":false},{"PRN":17,"el":62,"az":27,"ss":39,"used":true},{"PRN":19,"el":61,"az":337,"ss":29,"used":true},{"PRN":22,"el":12,"az":42,"ss":31,"used":true},{"PRN":24,"el":17,"az":294,"ss":30,"used":true},{"PRN":28,"el":51,"az":144,"ss":33,"used":true},{"PRN":133,"el":23,"az":244,"ss":30,"used":false},{"PRN":135,"el":20,"az":247,"ss":0,"used":false},{"PRN":138,"el":39,"az":223,"ss":0,"used":false}]}
{"class":"TPV","device":"/dev/ttyACM0","mode":3,"time":"2019-05-16T21:13:19.000Z","ept":0.005,"lat":35.923418667,"lon":-78.926959667,"alt":107.700,"epx":9.392,"epy":13.513,"epv":32.200,"track":213.0700,"speed":7.418,"climb":0.000,"eps":27.03}
{"class":"SKY","device":"/dev/ttyACM0","xdop":0.63,"ydop":0.90,"vdop":1.40,"tdop":0.82,"hdop":1.12,"gdop":1.84,"pdop":1.79,"satellites":[{"PRN":1,"el":4,"az":49,"ss":0,"used":false},{"PRN":2,"el":24,"az":239,"ss":31,"used":true},{"PRN":3,"el":27,"az":55,"ss":20,"used":true},{"PRN":6,"el":62,"az":248,"ss":35,"used":true},{"PRN":12,"el":4,"az":319,"ss":0,"used":false},{"PRN":17,"el":62,"az":27,"ss":39,"used":true},{"PRN":19,"el":61,"az":337,"ss":29,"used":true},{"PRN":22,"el":12,"az":42,"ss":31,"used":true},{"PRN":24,"el":17,"az":294,"ss":31,"used":true},{"PRN":28,"el":51,"az":144,"ss":33,"used":true},{"PRN":133,"el":23,"az":244,"ss":29,"used":false},{"PRN":135,"el":20,"az":247,"ss":0,"used":false},{"PRN":138,"el":39,"az":223,"ss":0,"used":false}]}
{"class":"TPV","device":"/dev/ttyACM0","mode":3,"time":"2019-05-16T21:13:20.000Z","ept":0.005,"lat":35.923354000,"lon":-78.927011833,"alt":107.500,"epx":9.392,"epy":13.513,"epv":32.200,"track":212.8700,"speed":9.049,"climb":0.000,"eps":27.03}
{"class":"SKY","device":"/dev/ttyACM0","xdop":0.63,"ydop":0.90,"vdop":1.40,"tdop":0.82,"hdop":1.12,"gdop":1.84,"pdop":1.79,"satellites":[{"PRN":1,"el":4,"az":49,"ss":0,"used":false},{"PRN":2,"el":24,"az":239,"ss":31,"used":true},{"PRN":3,"el":27,"az":55,"ss":22,"used":true},{"PRN":6,"el":62,"az":248,"ss":36,"used":true},{"PRN":12,"el":4,"az":319,"ss":0,"used":false},{"PRN":17,"el":62,"az":27,"ss":38,"used":true},{"PRN":19,"el":61,"az":337,"ss":28,"used":true},{"PRN":22,"el":12,"az":42,"ss":31,"used":true},{"PRN":24,"el":17,"az":294,"ss":23,"used":true},{"PRN":28,"el":51,"az":144,"ss":33,"used":true},{"PRN":133,"el":23,"az":244,"ss":29,"used":false},{"PRN":135,"el":20,"az":247,"ss":0,"used":false},{"PRN":138,"el":39,"az":223,"ss":0,"used":false}]}
{"class":"TPV","device":"/dev/ttyACM0","mode":3,"time":"2019-05-16T21:13:21.000Z","ept":0.005,"lat":35.923277667,"lon":-78.927072500,"alt":107.400,"epx":9.392,"epy":13.513,"epv":32.200,"track":212.6500,"speed":10.493,"climb":0.000,"eps":27.03}
{"class":"SKY","device":"/dev/ttyACM0","xdop":0.63,"ydop":0.90,"vdop":1.39,"tdop":0.82,"hdop":1.12,"gdop":1.84,"pdop":1.79,"satellites":[{"PRN":1,"el":4,"az":49,"ss":0,"used":false},{"PRN":2,"el":24,"az":239,"ss":34,"used":true},{"PRN":3,"el":27,"az":55,"ss":23,"used":true},{"PRN":6,"el":62,"az":248,"ss":38,"used":true},{"PRN":12,"el":4,"az":319,"ss":0,"used":false},{"PRN":17,"el":62,"az":27,"ss":40,"used":true},{"PRN":19,"el":61,"az":337,"ss":28,"used":true},{"PRN":22,"el":12,"az":42,"ss":31,"used":true},{"PRN":24,"el":17,"az":294,"ss":29,"used":true},{"PRN":28,"el":51,"az":144,"ss":34,"used":true},{"PRN":133,"el":23,"az":244,"ss":30,"used":false},{"PRN":135,"el":20,"az":247,"ss":0,"used":false},{"PRN":138,"el":39,"az":223,"ss":0,"used":false}]}
{"class":"TPV","device":"/dev/ttyACM0","mode":3,"time":"2019-05-16T21:13:22.000Z","ept":0.005,"lat":35.923194667,"lon":-78.927137167,"alt":107.300,"epx":9.392,"epy":13.513,"epv":32.200,"track":212.4500,"speed":11.119,"climb":0.000,"eps":27.03}
{"class":"SKY","device":"/dev/ttyACM0","xdop":0.63,"ydop":0.90,"vdop":1.39,"tdop":0.82,"hdop":1.12,"gdop":1.84,"pdop":1.79,"satellites":[{"PRN":1,"el":4,"az":49,"ss":0,"used":false},{"PRN":2,"el":24,"az":239,"ss":31,"used":true},{"PRN":3,"el":27,"az":55,"ss":23,"used":true},{"PRN":6,"el":62,"az":248,"ss":37,"used":true},{"PRN":12,"el":4,"az":319,"ss":0,"used":false},{"PRN":17,"el":62,"az":27,"ss":38,"used":true},{"PRN":19,"el":61,"az":337,"ss":27,"used":true},{"PRN":22,"el":12,"az":42,"ss":31,"used":true},{"PRN":24,"el":17,"az":294,"ss":27,"used":true},{"PRN":28,"el":51,"az":144,"ss":32,"used":true},{"PRN":133,"el":23,"az":244,"ss":30,"used":false},{"PRN":135,"el":20,"az":247,"ss":0,"used":false},{"PRN":138,"el":39,"az":223,"ss":0,"used":false}]}
{"class":"TPV","device":"/dev/ttyACM0","mode":3,"time":"2019-05-16T21:13:23.000Z","ept":0.005,"lat":35.923107500,"lon":-78.927204500,"alt":107.100,"epx":9.392,"epy":13.513,"epv":31.970,"track":212.0900,"speed":11.599,"climb":0.000,"eps":27.03}
{"class":"SKY","device":"/dev/ttyACM0","xdop":0.63,"ydop":0.90,"vdop":1.39,"tdop":0.82,"hdop":1.12,"gdop":1.84,"pdop":1.79,"satellites":[{"PRN":1,"el":4,"az":49,"ss":0,"used":false},{"PRN":2,"el":24,"az":239,"ss":32,"used":true},{"PRN":3,"el":27,"az":55,"ss":23,"used":true},{"PRN":6,"el":62,"az":248,"ss":36,"used":true},{"PRN":12,"el":4,"az":319,"ss":0,"used":false},{"PRN":17,"el":62,"az":27,"ss":38,"used":true},{"PRN":19,"el":61,"az":337,"ss":28,"used":true},{"PRN":22,"el":12,"az":42,"ss":30,"used":true},{"PRN":24,"el":17,"az":294,"ss":24,"used":true},{"PRN":28,"el":51,"az":144,"ss":31,"used":true},{"PRN":133,"el":23,"az":244,"ss":30,"used":false},{"PRN":135,"el":20,"az":247,"ss":0,"used":false},{"PRN":138,"el":39,"az":223,"ss":0,"used":false}]}
{"class":"TPV","device":"/dev/ttyACM0","mode":3,"time":"2019-05-16T21:13:24.000Z","ept":0.005,"lat":35.923012333,"lon":-78.927275167,"alt":107.000,"epx":9.392,"epy":13.513,"epv":31.970,"track":210.8700,"speed":12.637,"climb":0.000,"eps":27.03}
{"class":"SKY","device":"/dev/ttyACM0","xdop":0.63,"ydop":0.90,"vdop":1.39,"tdop":0.82,"hdop":1.12,"gdop":1.84,"pdop":1.79,"satellites":[{"PRN":1,"el":4,"az":49,"ss":0,"used":false},{"PRN":2,"el":24,"az":239,"ss":32,"used":true},{"PRN":3,"el":27,"az":55,"ss":26,"used":true},{"PRN":6,"el":62,"az":248,"ss":36,"used":true},{"PRN":12,"el":4,"az":319,"ss":0,"used":false},{"PRN":17,"el":62,"az":27,"ss":37,"used":true},{"PRN":19,"el":61,"az":337,"ss":28,"used":true},{"PRN":22,"el":12,"az":42,"ss":30,"used":true},{"PRN":24,"el":17,"az":294,"ss":23,"used":true},{"PRN":28,"el":51,"az":144,"ss":31,"used":true},{"PRN":133,"el":23,"az":244,"ss":30,"used":false},{"PRN":135,"el":20,"az":247,"ss":0,"used":false},{"PRN":138,"el":39,"az":223,"ss":0,"used":false}]}
{"class":"TPV","device":"/dev/ttyACM0","mode":3,"time":"2019-05-16T21:13:25.000Z","ept":0.005,"lat":35.922910667,"lon":-78.927350667,"alt":106.800,"epx":9.392,"epy":13.513,"epv":31.970,"track":210.7900,"speed":13.432,"climb":0.000,"eps":27.03}
{"class":"SKY","device":"/dev/ttyACM0","xdop":0.63,"ydop":0.90,"vdop":1.39,"tdop":0.82,"hdop":1.12,"gdop":1.84,"pdop":1.79,"satellites":[{"PRN":1,"el":4,"az":49,"ss":0,"used":false},{"PRN":2,"el":24,"az":240,"ss":32,"used":true},{"PRN":3,"el":27,"az":55,"ss":27,"used":true},{"PRN":6,"el":62,"az":248,"ss":36,"used":true},{"PRN":12,"el":4,"az":319,"ss":0,"used":false},{"PRN":17,"el":62,"az":27,"ss":37,"used":true},{"PRN":19,"el":61,"az":337,"ss":28,"used":true},{"PRN":22,"el":12,"az":42,"ss":30,"used":true},{"PRN":24,"el":17,"az":294,"ss":23,"used":true},{"PRN":28,"el":51,"az":144,"ss":31,"used":true},{"PRN":133,"el":23,"az":244,"ss":29,"used":false},{"PRN":135,"el":20,"az":247,"ss":0,"used":false},{"PRN":138,"el":39,"az":223,"ss":0,"used":false}]}
{"class":"TPV","device":"/dev/ttyACM0","mode":3,"time":"2019-05-16T21:13:26.000Z","ept":0.005,"lat":35.922803000,"lon":-78.927429833,"alt":106.700,"epx":9.392,"epy":13.513,"epv":31.970,"track":210.6600,"speed":14.136,"climb":0.000,"eps":27.03}
{"class":"SKY","device":"/dev/ttyACM0","xdop":0.63,"ydop":0.90,"vdop":1.39,"tdop":0.82,"hdop":1.12,"gdop":1.84,"pdop":1.79,"satellites":[{"PRN":1,"el":4,"az":49,"ss":0,"used":false},{"PRN":2,"el":24,"az":240,"ss":32,"used":true},{"PRN":3,"el":27,"az":55,"ss":30,"used":true},{"PRN":6,"el":62,"az":248,"ss":36,"used":true},{"PRN":12,"el":4,"az":319,"ss":0,"used":false},{"PRN":17,"el":62,"az":27,"ss":37,"used":true},{"PRN":19,"el":61,"az":337,"ss":28,"used":true},{"PRN":22,"el":12,"az":42,"ss":30,"used":true},{"PRN":24,"el":17,"az":294,"ss":21,"used":true},{"PRN":28,"el":51,"az":144,"ss":30,"used":true},{"PRN":133,"el":23,"az":244,"ss":29,"used":false},{"PRN":135,"el":20,"az":247,"ss":0,"used":false},{"PRN":138,"el":39,"az":223,"ss":0,"used":false}]}
{"class":"TPV","device":"/dev/ttyACM0","mode":3,"time":"2019-05-16T21:13:27.000Z","ept":0.005,"lat":35.922690333,"lon":-78.927510833,"alt":106.800,"epx":9.392,"epy":13.513,"epv":31.970,"track":210.0200,"speed":14.669,"climb":0.000,"eps":27.03}
{"class":"SKY","device":"/dev/ttyACM0","xdop":0.63,"ydop":0.90,"vdop":1.39,"tdop":0.82,"hdop":1.12,"gdop":1.84,"pdop":1.79,"satellites":[{"PRN":1,"el":4,"az":49,"ss":0,"used":false},{"PRN":2,"el":24,"az":240,"ss":31,"used":true},{"PRN":3,"el":27,"az":55,"ss":31,"used":true},{"PRN":6,"el":62,"az":248,"ss":36,"used":true},{"PRN":12,"el":4,"az":319,"ss":0,"used":false},{"PRN":17,"el":62,"az":27,"ss":37,"used":true},{"PRN":19,"el":61,"az":337,"ss":26,"used":true},{"PRN":22,"el":12,"az":42,"ss":30,"used":true},{"PRN":24,"el":17,"az":294,"ss":23,"used":true},{"PRN":28,"el":51,"az":144,"ss":31,"used":true},{"PRN":133,"el":23,"az":244,"ss":29,"used":false},{"PRN":135,"el":20,"az":247,"ss":0,"used":false},{"PRN":138,"el":39,"az":223,"ss":0,"used":false}]}
{"class":"TPV","device":"/dev/ttyACM0","mode":3,"time":"2019-05-16T21:13:28.000Z","ept":0.005,"lat":35.922573833,"lon":-78.927594500,"alt":107.000,"epx":9.392,"epy":13.513,"epv":31.970,"track":210.0500,"speed":15.147,"climb":0.000,"eps":27.03}
{"class":"SKY","device":"/dev/ttyACM0","xdop":0.63,"ydop":0.90,"vdop":1.39,"tdop":0.82,"hdop":1.12,"gdop":1.84,"pdop":1.79,"satellites":[{"PRN":1,"el":4,"az":49,"ss":0,"used":false},{"PRN":2,"el":24,"az":240,"ss":25,"used":true},{"PRN":3,"el":27,"az":55,"ss":30,"used":true},{"PRN":6,"el":62,"az":248,"ss":36,"used":true},{"PRN":12,"el":4,"az":319,"ss":0,"used":false},{"PRN":17,"el":62,"az":27,"ss":37,"used":true},{"PRN":19,"el":61,"az":337,"ss":25,"used":true},{"PRN":22,"el":12,"az":42,"ss":30,"used":true},{"PRN":24,"el":17,"az":294,"ss":21,"used":true},{"PRN":28,"el":51,"az":144,"ss":33,"used":true},{"PRN":133,"el":23,"az":244,"ss":27,"used":false},{"PRN":135,"el":20,"az":247,"ss":0,"used":false},{"PRN":138,"el":39,"az":223,"ss":0,"used":false}]}
{"class":"TPV","device":"/dev/ttyACM0","mode":3,"time":"2019-05-16T21:13:29.000Z","ept":0.005,"lat":35.922454667,"lon":-78.927681500,"alt":107.200,"epx":9.392,"epy":13.513,"epv":31.970,"track":210.3300,"speed":15.557,"climb":0.000,"eps":27.03}
{"class":"SKY","device":"/dev/ttyACM0","xdop":0.63,"ydop":0.90,"vdop":1.39,"tdop":0.82,"hdop":1.12,"gdop":1.84,"pdop":1.79,"satellites":[{"PRN":1,"el":4,"az":49,"ss":0,"used":false},{"PRN":2,"el":24,"az":240,"ss":26,"used":true},{"PRN":3,"el":27,"az":55,"ss":30,"used":true},{"PRN":6,"el":62,"az":248,"ss":37,"used":true},{"PRN":12,"el":4,"az":319,"ss":0,"used":false},{"PRN":17,"el":62,"az":27,"ss":39,"used":true},{"PRN":19,"el":61,"az":337,"ss":28,"used":true},{"PRN":22,"el":12,"az":42,"ss":31,"used":true},{"PRN":24,"el":17,"az":294,"ss":29,"used":true},{"PRN":28,"el":51,"az":144,"ss":35,"used":true},{"PRN":133,"el":23,"az":244,"ss":27,"used":false},{"PRN":135,"el":20,"az":247,"ss":0,"used":false},{"PRN":138,"el":39,"az":223,"ss":0,"used":false}]}
{"class":"TPV","device":"/dev/ttyACM0","mode":3,"time":"2019-05-16T21:13:30.000Z","ept":0.005,"lat":35.922335667,"lon":-78.927770000,"alt":107.300,"epx":9.392,"epy":13.513,"epv":31.970,"track":210.7400,"speed":15.479,"climb":0.000,"eps":27.03}
{"class":"SKY","device":"/dev/ttyACM0","xdop":0.63,"ydop":0.90,"vdop":1.39,"tdop":0.82,"hdop":1.12,"gdop":1.84,"pdop":1.79,"satellites":[{"PRN":1,"el":4,"az":49,"ss":0,"used":false},{"PRN":2,"el":24,"az":240,"ss":32,"used":true},{"PRN":3,"el":27,"az":55,"ss":35,"used":true},{"PRN":6,"el":62,"az":248,"ss":36,"used":true},{"PRN":12,"el":4,"az":319,"ss":0,"used":false},{"PRN":17,"el":62,"az":27,"ss":38,"used":true},{"PRN":19,"el":61,"az":337,"ss":26,"used":true},{"PRN":22,"el":12,"az":42,"ss":31,"used":true},{"PRN":24,"el":17,"az":294,"ss":29,"used":true},{"PRN":28,"el":51,"az":144,"ss":34,"used":true},{"PRN":133,"el":23,"az":244,"ss":29,"used":false},{"PRN":135,"el":20,"az":247,"ss":0,"used":false},{"PRN":138,"el":39,"az":223,"ss":0,"used":false}]}
{"class":"TPV","device":"/dev/ttyACM0","mode":3,"time":"2019-05-16T21:13:31.000Z","ept":0.005,"lat":35.922214000,"lon":-78.927858667,"alt":107.400,"epx":9.392,"epy":13.513,"epv":31.970,"track":210.1500,"speed":15.814,"climb":0.000,"eps":27.03}
{"class":"SKY","device":"/dev/ttyACM0","xdop":0.63,"ydop":0.90,"vdop":1.39,"tdop":0.82,"hdop":1.12,"gdop":1.84,"pdop":1.79,"satellites":[{"PRN":1,"el":4,"az":49,"ss":0,"used":false},{"PRN":2,"el":24,"az":240,"ss":30,"used":true},{"PRN":3,"el":27,"az":55,"ss":31,"used":true},{"PRN":6,"el":62,"az":248,"ss":36,"used":true},{"PRN":12,"el":4,"az":319,"ss":0,"used":false},{"PRN":17,"el":62,"az":27,"ss":39,"used":true},{"PRN":19,"el":61,"az":337,"ss":25,"used":true},{"PRN":22,"el":12,"az":42,"ss":31,"used":true},{"PRN":24,"el":17,"az":294,"ss":28,"used":true},{"PRN":28,"el":51,"az":144,"ss":33,"used":true},{"PRN":133,"el":23,"az":244,"ss":27,"used":false},{"PRN":135,"el":20,"az":247,"ss":0,"used":false},{"PRN":138,"el":39,"az":223,"ss":0,"used":false}]}
{"class":"TPV","device":"/dev/ttyACM0","mode":3,"time":"2019-05-16T21:13:32.000Z","ept":0.005,"lat":35.922090167,"lon":-78.927950167,"alt":107.500,"epx":9.392,"epy":13.513,"epv":31.970,"track":210.2200,"speed":16.204,"climb":0.000,"eps":27.03}
{"class":"SKY","device":"/dev/ttyACM0","xdop":0.63,"ydop":0.90,"vdop":1.39,"tdop":0.82,"hdop":1.12,"gdop":1.84,"pdop":1.79,"satellites":[{"PRN":1,"el":4,"az":49,"ss":0,"used":false},{"PRN":2,"el":24,"az":240,"ss":30,"used":true},{"PRN":3,"el":27,"az":55,"ss":32,"used":true},{"PRN":6,"el":62,"az":248,"ss":36,"used":true},{"PRN":12,"el":4,"az":319,"ss":0,"used":false},{"PRN":17,"el":62,"az":27,"ss":40,"used":true},{"PRN":19,"el":61,"az":337,"ss":26,"used":true},{"PRN":22,"el":12,"az":42,"ss":31,"used":true},{"PRN":24,"el":17,"az":294,"ss":17,"used":true},{"PRN":28,"el":51,"az":144,"ss":34,"used":true},{"PRN":133,"el":23,"az":244,"ss":28,"used":false},{"PRN":135,"el":20,"az":247,"ss":0,"used":false},{"PRN":138,"el":39,"az":223,"ss":0,"used":false}]}
{"class":"TPV","device":"/dev/ttyACM0","mode":3,"time":"2019-05-16T21:13:33.000Z","ept":0.005,"lat":35.921962833,"lon":-78.928042500,"alt":107.500,"epx":9.392,"epy":13.513,"epv":31.970,"track":210.0900,"speed":16.520,"climb":0.000,"eps":27.03}
{"class":"SKY","device":"/dev/ttyACM0","xdop":0.63,"ydop":0.90,"vdop":1.39,"tdop":0.82,"hdop":1.12,"gdop":1.84,"pdop":1.79,"satellites":[{"PRN":1,"el":4,"az":49,"ss":0,"used":false},{"PRN":2,"el":24,"az":240,"ss":28,"used":true},{"PRN":3,"el":27,"az":55,"ss":32,"used":true},{"PRN":6,"el":62,"az":248,"ss":36,"used":true},{"PRN":12,"el":4,"az":319,"ss":0,"used":false},{"PRN":17,"el":62,"az":27,"ss":40,"used":true},{"PRN":19,"el":61,"az":337,"ss":29,"used":true},{"PRN":22,"el":12,"az":42,"ss":31,"used":true},{"PRN":24,"el":17,"az":294,"ss":29,"used":true},{"PRN":28,"el":51,"az":144,"ss":34,"used":true},{"PRN":133,"el":23,"az":244,"ss":0,"used":false},{"PRN":135,"el":20,"az":247,"ss":0,"used":false},{"PRN":138,"el":39,"az":223,"ss":0,"used":false}]}
{"class":"TPV","device":"/dev/ttyACM0","mode":3,"time":"2019-05-16T21:13:34.000Z","ept":0.005,"lat":35.921833167,"lon":-78.928137167,"alt":107.400,"epx":9.392,"epy":13.513,"epv":31.970,"track":209.9800,"speed":16.802,"climb":0.000,"eps":27.03}
{"class":"SKY","device":"/dev/ttyACM0","xdop":0.63,"ydop":0.90,"vdop":1.39,"tdop":0.82,"hdop":1.12,"gdop":1.84,"pdop":1.79,"satellites":[{"PRN":1,"el":4,"az":49,"ss":0,"used":false},{"PRN":2,"el":24,"az":240,"ss":32,"used":true},{"PRN":3,"el":27,"az":55,"ss":32,"used":true},{"PRN":6,"el":62,"az":248,"ss":37,"used":true},{"PRN":12,"el":4,"az":319,"ss":0,"used":false},{"PRN":17,"el":62,"az":27,"ss":39,"used":true},{"PRN":19,"el":61,"az":337,"ss":29,"used":true},{"PRN":22,"el":12,"az":42,"ss":32,"used":true},{"PRN":24,"el":17,"az":294,"ss":29,"used":true},{"PRN":28,"el":51,"az":144,"ss":34,"used":true},{"PRN":133,"el":23,"az":244,"ss":0,"used":false},{"PRN":135,"el":20,"az":247,"ss":0,"used":false},{"PRN":138,"el":39,"az":223,"ss":0,"used":false}]}
{"class":"TPV","device":"/dev/ttyACM0","mode":3,"time":"2019-05-16T21:13:35.000Z","ept":0.005,"lat":35.921701500,"lon":-78.928232833,"alt":107.300,"epx":9.392,"epy":13.513,"epv":31.970,"track":210.1700,"speed":16.987,"climb":0.000,"eps":27.03}
{"class":"SKY","device":"/dev/ttyACM0","xdop":0.63,"ydop":0.90,"vdop":1.39,"tdop":0.82,"hdop":1.12,"gdop":1.84,"pdop":1.79,"satellites":[{"PRN":1,"el":4,"az":49,"ss":0,"used":false},{"PRN":2,"el":24,"az":240,"ss":27,"used":true},{"PRN":3,"el":27,"az":55,"ss":31,"used":true},{"PRN":6,"el":62,"az":248,"ss":37,"used":true},{"PRN":12,"el":4,"az":319,"ss":0,"used":false},{"PRN":17,"el":62,"az":27,"ss":39,"used":true},{"PRN":19,"el":61,"az":337,"ss":30,"used":true},{"PRN":22,"el":12,"az":42,"ss":32,"used":true},{"PRN":24,"el":17,"az":294,"ss":29,"used":true},{"PRN":28,"el":51,"az":144,"ss":34,"used":true},{"PRN":133,"el":23,"az":244,"ss":0,"used":false},{"PRN":135,"el":20,"az":247,"ss":0,"used":false},{"PRN":138,"el":39,"az":223,"ss":0,"used":false}]}
{"class":"TPV","device":"/dev/ttyACM0","mode":3,"time":"2019-05-16T21:13:36.000Z","ept":0.005,"lat":35.921569167,"lon":-78.928328333,"alt":107.000,"epx":9.392,"epy":13.513,"epv":31.970,"track":210.0600,"speed":17.050,"climb":0.000,"eps":27.03}
{"class":"SKY","device":"/dev/ttyACM0","xdop":0.63,"ydop":0.90,"vdop":1.39,"tdop":0.82,"hdop":1.13,"gdop":1.84,"pdop":1.79,"satellites":[{"PRN":1,"el":4,"az":49,"ss":0,"used":false},{"PRN":2,"el":24,"az":240,"ss":27,"used":true},{"PRN":3,"el":27,"az":55,"ss":31,"used":true},{"PRN":6,"el":62,"az":248,"ss":37,"used":true},{"PRN":12,"el":4,"az":319,"ss":0,"used":false},{"PRN":17,"el":62,"az":27,"ss":39,"used":true},{"PRN":19,"el":61,"az":337,"ss":34,"used":true},{"PRN":22,"el":12,"az":42,"ss":32,"used":true},{"PRN":24,"el":17,"az":294,"ss":28,"used":true},{"PRN":28,"el":51,"az":144,"ss":34,"used":true},{"PRN":133,"el":23,"az":244,"ss":0,"used":false},{"PRN":135,"el":20,"az":247,"ss":0,"used":false},{"PRN":138,"el":39,"az":223,"ss":0,"used":false}]}
{"class":"TPV","device":"/dev/ttyACM0","mode":3,"time":"2019-05-16T21:13:37.000Z","ept":0.005,"lat":35.921435333,"lon":-78.928423833,"alt":106.700,"epx":9.392,"epy":13.513,"epv":31.970,"track":209.7400,"speed":17.225,"climb":0.000,"eps":27.03}
{"class":"SKY","device":"/dev/ttyACM0","xdop":0.63,"ydop":0.90,"vdop":1.39,"tdop":0.82,"hdop":1.13,"gdop":1.84,"pdop":1.79,"satellites":[{"PRN":1,"el":4,"az":49,"ss":6,"used":false},{"PRN":2,"el":24,"az":240,"ss":28,"used":true},{"PRN":3,"el":27,"az":55,"ss":31,"used":true},{"PRN":6,"el":62,"az":248,"ss":37,"used":true},{"PRN":12,"el":4,"az":319,"ss":0,"used":false},{"PRN":17,"el":62,"az":27,"ss":40,"used":true},{"PRN":19,"el":61,"az":337,"ss":32,"used":true},{"PRN":22,"el":12,"az":42,"ss":31,"used":true},{"PRN":24,"el":17,"az":294,"ss":27,"used":true},{"PRN":28,"el":51,"az":144,"ss":34,"used":true},{"PRN":133,"el":23,"az":244,"ss":0,"used":false},{"PRN":135,"el":20,"az":247,"ss":0,"used":false},{"PRN":138,"el":39,"az":223,"ss":0,"used":false}]}
{"class":"TPV","device":"/dev/ttyACM0","mode":3,"time":"2019-05-16T21:13:38.000Z","ept":0.005,"lat":35.921300667,"lon":-78.928520833,"alt":106.500,"epx":9.392,"epy":13.513,"epv":31.970,"track":210.2000,"speed":17.296,"climb":0.000,"eps":27.03}
{"class":"SKY","device":"/dev/ttyACM0","xdop":0.63,"ydop":0.90,"vdop":1.39,"tdop":0.82,"hdop":1.13,"gdop":1.84,"pdop":1.79,"satellites":[{"PRN":1,"el":4,"az":49,"ss":9,"used":false},{"PRN":2,"el":24,"az":240,"ss":21,"used":true},{"PRN":3,"el":27,"az":55,"ss":30,"used":true},{"PRN":6,"el":62,"az":248,"ss":37,"used":true},{"PRN":12,"el":4,"az":319,"ss":0,"used":false},{"PRN":17,"el":62,"az":27,"ss":39,"used":true},{"PRN":19,"el":61,"az":337,"ss":31,"used":true},{"PRN":22,"el":12,"az":42,"ss":31,"used":true},{"PRN":24,"el":17,"az":294,"ss":27,"used":true},{"PRN":28,"el":51,"az":144,"ss":34,"used":true},{"PRN":133,"el":23,"az":244,"ss":0,"used":false},{"PRN":135,"el":20,"az":247,"ss":0,"used":false},{"PRN":138,"el":39,"az":223,"ss":0,"used":false}]}
{"class":"TPV","device":"/dev/ttyACM0","mode":3,"time":"2019-05-16T21:13:39.000Z","ept":0.005,"lat":35.921165667,"lon":-78.928618667,"alt":106.500,"epx":9.392,"epy":13.513,"epv":31.970,"track":210.3800,"speed":17.394,"climb":0.000,"eps":27.03}
{"class":"SKY","device":"/dev/ttyACM0","xdop":0.63,"ydop":0.90,"vdop":1.39,"tdop":0.82,"hdop":1.13,"gdop":1.84,"pdop":1.79,"satellites":[{"PRN":1,"el":4,"az":49,"ss":12,"used":false},{"PRN":2,"el":24,"az":240,"ss":21,"used":true},{"PRN":3,"el":27,"az":55,"ss":30,"used":true},{"PRN":6,"el":62,"az":248,"ss":36,"used":true},{"PRN":12,"el":4,"az":319,"ss":0,"used":false},{"PRN":17,"el":62,"az":28,"ss":39,"used":true},{"PRN":19,"el":61,"az":337,"ss":30,"used":true},{"PRN":22,"el":12,"az":42,"ss":32,"used":true},{"PRN":24,"el":17,"az":294,"ss":27,"used":true},{"PRN":28,"el":51,"az":144,"ss":34,"used":true},{"PRN":133,"el":23,"az":244,"ss":0,"used":false},{"PRN":135,"el":20,"az":247,"ss":0,"used":false},{"PRN":138,"el":39,"az":223,"ss":0,"used":false}]}
{"class":"TPV","device":"/dev/ttyACM0","mode":3,"time":"2019-05-16T21:13:40.000Z","ept":0.005,"lat":35.921030167,"lon":-78.928716667,"alt":106.400,"epx":9.392,"epy":13.513,"epv":31.970,"track":210.2800,"speed":17.439,"climb":0.000,"eps":27.03}
{"class":"SKY","device":"/dev/ttyACM0","xdop":0.63,"ydop":0.90,"vdop":1.39,"tdop":0.82,"hdop":1.13,"gdop":1.84,"pdop":1.79,"satellites":[{"PRN":1,"el":4,"az":49,"ss":13,"used":false},{"PRN":2,"el":24,"az":240,"ss":30,"used":true},{"PRN":3,"el":27,"az":55,"ss":31,"used":true},{"PRN":6,"el":62,"az":248,"ss":37,"used":true},{"PRN":12,"el":4,"az":319,"ss":0,"used":false},{"PRN":17,"el":62,"az":28,"ss":39,"used":true},{"PRN":19,"el":61,"az":337,"ss":30,"used":true},{"PRN":22,"el":12,"az":42,"ss":32,"used":true},{"PRN":24,"el":17,"az":294,"ss":26,"used":true},{"PRN":28,"el":51,"az":144,"ss":34,"used":true},{"PRN":133,"el":23,"az":244,"ss":0,"used":false},{"PRN":135,"el":20,"az":247,"ss":0,"used":false},{"PRN":138,"el":39,"az":223,"ss":0,"used":false}]}
{"class":"TPV","device":"/dev/ttyACM0","mode":3,"time":"2019-05-16T21:13:41.000Z","ept":0.005,"lat":35.920894000,"lon":-78.928814500,"alt":106.500,"epx":9.392,"epy":13.513,"epv":31.970,"track":209.8700,"speed":17.488,"climb":0.000,"eps":27.03}
{"class":"SKY","device":"/dev/ttyACM0","xdop":0.63,"ydop":0.90,"vdop":1.39,"tdop":0.82,"hdop":1.13,"gdop":1.84,"pdop":1.79,"satellites":[{"PRN":1,"el":4,"az":49,"ss":12,"used":false},{"PRN":2,"el":24,"az":240,"ss":28,"used":true},{"PRN":3,"el":27,"az":55,"ss":31,"used":true},{"PRN":6,"el":62,"az":248,"ss":37,"used":true},{"PRN":12,"el":4,"az":319,"ss":0,"used":false},{"PRN":17,"el":62,"az":28,"ss":39,"used":true},{"PRN":19,"el":61,"az":338,"ss":30,"used":true},{"PRN":22,"el":12,"az":42,"ss":32,"used":true},{"PRN":24,"el":17,"az":294,"ss":26,"used":true},{"PRN":28,"el":51,"az":144,"ss":34,"used":true},{"PRN":133,"el":23,"az":244,"ss":0,"used":false},{"PRN":135,"el":20,"az":247,"ss":0,"used":false},{"PRN":138,"el":39,"az":223,"ss":0,"used":false}]}
{"class":"TPV","device":"/dev/ttyACM0","mode":3,"time":"2019-05-16T21:13:42.000Z","ept":0.005,"lat":35.920756833,"lon":-78.928912667,"alt":106.300,"epx":9.392,"epy":13.513,"epv":31.970,"track":209.9900,"speed":17.580,"climb":0.000,"eps":27.03}
{"class":"SKY","device":"/dev/ttyACM0","xdop":0.63,"ydop":0.90,"vdop":1.39,"tdop":0.82,"hdop":1.13,"gdop":1.84,"pdop":1.79,"satellites":[{"PRN":1,"el":4,"az":49,"ss":9,"used":false},{"PRN":2,"el":24,"az":240,"ss":29,"used":true},{"PRN":3,"el":27,"az":55,"ss":30,"used":true},{"PRN":6,"el":62,"az":248,"ss":37,"used":true},{"PRN":12,"el":4,"az":319,"ss":0,"used":false},{"PRN":17,"el":62,"az":28,"ss":40,"used":true},{"PRN":19,"el":61,"az":338,"ss":35,"used":true},{"PRN":22,"el":12,"az":42,"ss":30,"used":true},{"PRN":24,"el":17,"az":294,"ss":26,"used":true},{"PRN":28,"el":51,"az":144,"ss":34,"used":true},{"PRN":133,"el":23,"az":244,"ss":0,"used":false},{"PRN":135,"el":20,"az":247,"ss":0,"used":false},{"PRN":138,"el":39,"az":223,"ss":0,"used":false}]}
{"class":"TPV","device":"/dev/ttyACM0","mode":3,"time":"2019-05-16T21:13:43.000Z","ept":0.005,"lat":35.920619167,"lon":-78.929012000,"alt":106.000,"epx":9.392,"epy":13.513,"epv":31.970,"track":210.0300,"speed":17.704,"climb":0.000,"eps":27.03}
{"class":"SKY","device":"/dev/ttyACM0","xdop":0.63,"ydop":0.90,"vdop":1.39,"tdop":0.82,"hdop":1.13,"gdop":1.84,"pdop":1.79,"satellites":[{"PRN":1,"el":4,"az":49,"ss":9,"used":false},{"PRN":2,"el":24,"az":240,"ss":33,"used":true},{"PRN":3,"el":27,"az":55,"ss":29,"used":true},{"PRN":6,"el":62,"az":248,"ss":37,"used":true},{"PRN":12,"el":4,"az":319,"ss":0,"used":false},{"PRN":17,"el":62,"az":28,"ss":40,"used":true},{"PRN":19,"el":61,"az":338,"ss":35,"used":true},{"PRN":22,"el":12,"az":42,"ss":29,"used":true},{"PRN":24,"el":17,"az":294,"ss":25,"used":true},{"PRN":28,"el":51,"az":144,"ss":34,"used":true},{"PRN":133,"el":23,"az":244,"ss":0,"used":false},{"PRN":135,"el":20,"az":247,"ss":0,"used":false},{"PRN":138,"el":39,"az":223,"ss":0,"used":false}]}
{"class":"TPV","device":"/dev/ttyACM0","mode":3,"time":"2019-05-16T21:13:44.000Z","ept":0.005,"lat":35.920481000,"lon":-78.929109500,"alt":105.700,"epx":9.392,"epy":13.513,"epv":31.970,"track":210.0400,"speed":17.569,"climb":0.000,"eps":27.03}
{"class":"SKY","device":"/dev/ttyACM0","xdop":0.63,"ydop":0.90,"vdop":1.39,"tdop":0.82,"hdop":1.13,"gdop":1.84,"pdop":1.79,"satellites":[{"PRN":1,"el":4,"az":49,"ss":9,"used":false},{"PRN":2,"el":24,"az":240,"ss":32,"used":true},{"PRN":3,"el":27,"az":55,"ss":28,"used":true},{"PRN":6,"el":62,"az":248,"ss":36,"used":true},{"PRN":12,"el":4,"az":319,"ss":0,"used":false},{"PRN":17,"el":62,"az":28,"ss":39,"used":true},{"PRN":19,"el":61,"az":338,"ss":32,"used":true},{"PRN":22,"el":11,"az":42,"ss":29,"used":true},{"PRN":24,"el":17,"az":294,"ss":24,"used":true},{"PRN":28,"el":51,"az":144,"ss":33,"used":true},{"PRN":133,"el":23,"az":244,"ss":0,"used":false},{"PRN":135,"el":20,"az":247,"ss":0,"used":false},{"PRN":138,"el":39,"az":223,"ss":0,"used":false}]}
{"class":"TPV","device":"/dev/ttyACM0","mode":3,"time":"2019-05-16T21:13:45.000Z","ept":0.005,"lat":35.920343333,"lon":-78.929207000,"alt":105.400,"epx":9.392,"epy":13.513,"epv":31.970,"track":210.1000,"speed":17.503,"climb":0.000,"eps":27.03}
{"class":"SKY","device":"/dev/ttyACM0","xdop":0.63,"ydop":0.90,"vdop":1.39,"tdop":0.82,"hdop":1.13,"gdop":1.84,"pdop":1.79,"satellites":[{"PRN":1,"el":4,"az":49,"ss":9,"used":false},{"PRN":2,"el":24,"az":240,"ss":28,"used":true},{"PRN":3,"el":27,"az":55,"ss":27,"used":true},{"PRN":6,"el":62,"az":248,"ss":37,"used":true},{"PRN":12,"el":4,"az":319,"ss":0,"used":false},{"PRN":17,"el":62,"az":28,"ss":38,"used":true},{"PRN":19,"el":61,"az":338,"ss":32,"used":true},{"PRN":22,"el":11,"az":42,"ss":29,"used":true},{"PRN":24,"el":17,"az":294,"ss":25,"used":true},{"PRN":28,"el":51,"az":144,"ss":33,"used":true},{"PRN":133,"el":23,"az":244,"ss":0,"used":false},{"PRN":135,"el":20,"az":247,"ss":0,"used":false},{"PRN":138,"el":39,"az":223,"ss":0,"used":false}]}
{"class":"TPV","device":"/dev/ttyACM0","mode":3,"time":"2019-05-16T21:13:46.000Z","ept":0.005,"lat":35.920205000,"lon":-78.929305333,"alt":105.200,"epx":9.392,"epy":13.513,"epv":31.970,"track":210.2000,"speed":17.795,"climb":0.000,"eps":27.03}
{"class":"SKY","device":"/dev/ttyACM0","xdop":0.63,"ydop":0.90,"vdop":1.39,"tdop":0.82,"hdop":1.13,"gdop":1.84,"pdop":1.79,"satellites":[{"PRN":1,"el":4,"az":49,"ss":8,"used":false},{"PRN":2,"el":24,"az":240,"ss":28,"used":true},{"PRN":3,"el":27,"az":55,"ss":26,"used":true},{"PRN":6,"el":62,"az":248,"ss":37,"used":true},{"PRN":12,"el":4,"az":319,"ss":0,"used":false},{"PRN":17,"el":62,"az":28,"ss":38,"used":true},{"PRN":19,"el":61,"az":338,"ss":33,"used":true},{"PRN":22,"el":11,"az":42,"ss":29,"used":true},{"PRN":24,"el":17,"az":294,"ss":26,"used":true},{"PRN":28,"el":51,"az":144,"ss":33,"used":true},{"PRN":133,"el":23,"az":244,"ss":0,"used":false},{"PRN":135,"el":20,"az":247,"ss":0,"used":false},{"PRN":138,"el":39,"az":223,"ss":0,"used":false}]}
{"class":"TPV","device":"/dev/ttyACM0","mode":3,"time":"2019-05-16T21:13:47.000Z","ept":0.005,"lat":35.920064667,"lon":-78.929406167,"alt":104.800,"epx":9.392,"epy":13.513,"epv":31.970,"track":210.5800,"speed":18.067,"climb":0.000,"eps":27.03}
{"class":"SKY","device":"/dev/ttyACM0","xdop":0.63,"ydop":0.90,"vdop":1.39,"tdop":0.82,"hdop":1.13,"gdop":1.84,"pdop":1.79,"satellites":[{"PRN":1,"el":4,"az":49,"ss":8,"used":false},{"PRN":2,"el":24,"az":240,"ss":28,"used":true},{"PRN":3,"el":27,"az":55,"ss":25,"used":true},{"PRN":6,"el":62,"az":248,"ss":37,"used":true},{"PRN":12,"el":4,"az":319,"ss":0,"used":false},{"PRN":17,"el":62,"az":28,"ss":38,"used":true},{"PRN":19,"el":61,"az":338,"ss":34,"used":true},{"PRN":22,"el":11,"az":42,"ss":28,"used":true},{"PRN":24,"el":17,"az":294,"ss":26,"used":true},{"PRN":28,"el":51,"az":144,"ss":33,"used":true},{"PRN":133,"el":23,"az":244,"ss":0,"used":false},{"PRN":135,"el":20,"az":247,"ss":0,"used":false},{"PRN":138,"el":39,"az":223,"ss":0,"used":false}]}
{"class":"TPV","device":"/dev/ttyACM0","mode":3,"time":"2019-05-16T21:13:48.000Z","ept":0.005,"lat":35.919921333,"lon":-78.929507500,"alt":104.400,"epx":9.392,"epy":13.513,"epv":31.970,"track":209.9400,"speed":18.419,"climb":0.000,"eps":27.03}
{"class":"SKY","device":"/dev/ttyACM0","xdop":0.63,"ydop":0.90,"vdop":1.39,"tdop":0.82,"hdop":1.13,"gdop":1.84,"pdop":1.79,"satellites":[{"PRN":1,"el":4,"az":49,"ss":8,"used":false},{"PRN":2,"el":24,"az":240,"ss":29,"used":true},{"PRN":3,"el":27,"az":55,"ss":26,"used":true},{"PRN":6,"el":62,"az":248,"ss":37,"used":true},{"PRN":12,"el":4,"az":319,"ss":0,"used":false},{"PRN":17,"el":62,"az":28,"ss":38,"used":true},{"PRN":19,"el":61,"az":338,"ss":35,"used":true},{"PRN":22,"el":11,"az":42,"ss":28,"used":true},{"PRN":24,"el":17,"az":294,"ss":24,"used":true},{"PRN":28,"el":51,"az":144,"ss":33,"used":true},{"PRN":133,"el":23,"az":244,"ss":0,"used":false},{"PRN":135,"el":20,"az":247,"ss":0,"used":false},{"PRN":138,"el":39,"az":223,"ss":0,"used":false}]}
{"class":"TPV","device":"/dev/ttyACM0","mode":3,"time":"2019-05-16T21:13:49.000Z","ept":0.005,"lat":35.919774833,"lon":-78.929609833,"alt":103.900,"epx":9.392,"epy":13.513,"epv":31.970,"track":209.8200,"speed":18.762,"climb":0.000,"eps":27.03}
{"class":"SKY","device":"/dev/ttyACM0","xdop":0.63,"ydop":0.90,"vdop":1.39,"tdop":0.82,"hdop":1.13,"gdop":1.84,"pdop":1.79,"satellites":[{"PRN":1,"el":4,"az":49,"ss":9,"used":false},{"PRN":2,"el":24,"az":240,"ss":28,"used":true},{"PRN":3,"el":27,"az":55,"ss":26,"used":true},{"PRN":6,"el":62,"az":248,"ss":37,"used":true},{"PRN":12,"el":4,"az":319,"ss":20,"used":false},{"PRN":17,"el":62,"az":28,"ss":37,"used":true},{"PRN":19,"el":61,"az":338,"ss":36,"used":true},{"PRN":22,"el":11,"az":42,"ss":27,"used":true},{"PRN":24,"el":17,"az":294,"ss":22,"used":true},{"PRN":28,"el":51,"az":144,"ss":33,"used":true},{"PRN":133,"el":23,"az":244,"ss":0,"used":false},{"PRN":135,"el":20,"az":247,"ss":0,"used":false},{"PRN":138,"el":39,"az":223,"ss":0,"used":false}]}
{"class":"TPV","device":"/dev/ttyACM0","mode":3,"time":"2019-05-16T21:13:50.000Z","ept":0.005,"lat":35.919627167,"lon":-78.929714000,"alt":103.300,"epx":9.392,"epy":13.513,"epv":31.970,"track":210.1600,"speed":18.953,"climb":0.000,"eps":27.03}
{"class":"SKY","device":"/dev/ttyACM0","xdop":0.63,"ydop":0.90,"vdop":1.39,"tdop":0.82,"hdop":1.13,"gdop":1.84,"pdop":1.79,"satellites":[{"PRN":1,"el":4,"az":49,"ss":8,"used":false},{"PRN":2,"el":24,"az":240,"ss":32,"used":true},{"PRN":3,"el":27,"az":55,"ss":26,"used":true},{"PRN":6,"el":62,"az":248,"ss":37,"used":true},{"PRN":12,"el":4,"az":319,"ss":0,"used":false},{"PRN":17,"el":62,"az":28,"ss":36,"used":true},{"PRN":19,"el":61,"az":338,"ss":36,"used":true},{"PRN":22,"el":11,"az":42,"ss":25,"used":true},{"PRN":24,"el":17,"az":294,"ss":22,"used":true},{"PRN":28,"el":50,"az":144,"ss":34,"used":true},{"PRN":133,"el":23,"az":244,"ss":0,"used":false},{"PRN":135,"el":20,"az":247,"ss":0,"used":false},{"PRN":138,"el":39,"az":223,"ss":0,"used":false}]}
{"class":"TPV","device":"/dev/ttyACM0","mode":3,"time":"2019-05-16T21:13:51.000Z","ept":0.005,"lat":35.919478000,"lon":-78.929820500,"alt":102.500,"epx":9.392,"epy":13.513,"epv":31.970,"track":210.3300,"speed":19.152,"climb":0.000,"eps":27.03}
{"class":"SKY","device":"/dev/ttyACM0","xdop":0.63,"ydop":0.90,"vdop":1.39,"tdop":0.82,"hdop":1.13,"gdop":1.84,"pdop":1.79,"satellites":[{"PRN":1,"el":4,"az":49,"ss":0,"used":false},{"PRN":2,"el":24,"az":240,"ss":28,"used":true},{"PRN":3,"el":27,"az":55,"ss":26,"used":true},{"PRN":6,"el":62,"az":248,"ss":37,"used":true},{"PRN":12,"el":4,"az":319,"ss":0,"used":false},{"PRN":17,"el":62,"az":28,"ss":36,"used":true},{"PRN":19,"el":61,"az":338,"ss":36,"used":true},{"PRN":22,"el":11,"az":42,"ss":25,"used":true},{"PRN":24,"el":17,"az":294,"ss":22,"used":true},{"PRN":28,"el":50,"az":144,"ss":34,"used":true},{"PRN":133,"el":23,"az":244,"ss":0,"used":false},{"PRN":135,"el":20,"az":247,"ss":0,"used":false},{"PRN":138,"el":39,"az":223,"ss":0,"used":false}]}
{"class":"TPV","device":"/dev/ttyACM0","mode":3,"time":"2019-05-16T21:13:52.000Z","ept":0.005,"lat":35.919328000,"lon":-78.929928167,"alt":101.900,"epx":9.392,"epy":13.513,"epv":31.970,"track":210.6100,"speed":19.277,"climb":0.000,"eps":27.03}
{"class":"SKY","device":"/dev/ttyACM0","xdop":0.63,"ydop":0.90,"vdop":1.39,"tdop":0.82,"hdop":1.13,"gdop":1.84,"pdop":1.79,"satellites":[{"PRN":1,"el":4,"az":49,"ss":0,"used":false},{"PRN":2,"el":24,"az":240,"ss":33,"used":true},{"PRN":3,"el":27,"az":55,"ss":25,"used":true},{"PRN":6,"el":62,"az":248,"ss":37,"used":true},{"PRN":12,"el":4,"az":319,"ss":0,"used":false},{"PRN":17,"el":62,"az":28,"ss":37,"used":true},{"PRN":19,"el":61,"az":338,"ss":36,"used":true},{"PRN":22,"el":11,"az":42,"ss":25,"used":true},{"PRN":24,"el":17,"az":294,"ss":22,"used":true},{"PRN":28,"el":50,"az":144,"ss":33,"used":true},{"PRN":133,"el":23,"az":244,"ss":0,"used":false},{"PRN":135,"el":20,"az":247,"ss":0,"used":false},{"PRN":138,"el":39,"az":223,"ss":0,"used":false}]}
{"class":"TPV","device":"/dev/ttyACM0","mode":3,"time":"2019-05-16T21:13:53.000Z","ept":0.005,"lat":35.919177167,"lon":-78.930036167,"alt":101.300,"epx":9.392,"epy":13.513,"epv":31.970,"track":210.3400,"speed":19.367,"climb":0.000,"eps":27.03}
{"class":"SKY","device":"/dev/ttyACM0","xdop":0.63,"ydop":0.90,"vdop":1.39,"tdop":0.82,"hdop":1.13,"gdop":1.84,"pdop":1.79,"satellites":[{"PRN":1,"el":4,"az":49,"ss":0,"used":false},{"PRN":2,"el":24,"az":240,"ss":33,"used":true},{"PRN":3,"el":27,"az":55,"ss":25,"used":true},{"PRN":6,"el":62,"az":248,"ss":37,"used":true},{"PRN":12,"el":4,"az":319,"ss":0,"used":false},{"PRN":17,"el":62,"az":28,"ss":38,"used":true},{"PRN":19,"el":61,"az":338,"ss":36,"used":true},{"PRN":22,"el":11,"az":42,"ss":25,"used":true},{"PRN":24,"el":17,"az":294,"ss":24,"used":true},{"PRN":28,"el":50,"az":144,"ss":33,"used":true},{"PRN":133,"el":23,"az":244,"ss":0,"used":false},{"PRN":135,"el":20,"az":247,"ss":0,"used":false},{"PRN":138,"el":39,"az":223,"ss":0,"used":false}]}
{"class":"TPV","device":"/dev/ttyACM0","mode":3,"time":"2019-05-16T21:13:54.000Z","ept":0.005,"lat":35.919025667,"lon":-78.930144333,"alt":100.600,"epx":9.392,"epy":13.513,"epv":31.970,"track":210.2200,"speed":19.384,"climb":0.000,"eps":27.03}
{"class":"SKY","device":"/dev/ttyACM0","xdop":0.63,"ydop":0.90,"vdop":1.39,"tdop":0.82,"hdop":1.13,"gdop":1.84,"pdop":1.79,"satellites":[{"PRN":1,"el":4,"az":49,"ss":0,"used":false},{"PRN":2,"el":24,"az":240,"ss":30,"used":true},{"PRN":3,"el":27,"az":55,"ss":25,"used":true},{"PRN":6,"el":62,"az":248,"ss":38,"used":true},{"PRN":12,"el":4,"az":319,"ss":0,"used":false},{"PRN":17,"el":62,"az":28,"ss":38,"used":true},{"PRN":19,"el":61,"az":338,"ss":33,"used":true},{"PRN":22,"el":11,"az":42,"ss":26,"used":true},{"PRN":24,"el":17,"az":294,"ss":24,"used":true},{"PRN":28,"el":50,"az":144,"ss":34,"used":true},{"PRN":133,"el":23,"az":244,"ss":0,"used":false},{"PRN":135,"el":20,"az":247,"ss":0,"used":false},{"PRN":138,"el":39,"az":223,"ss":0,"used":false}]}
{"class":"TPV","device":"/dev/ttyACM0","mode":3,"time":"2019-05-16T21:13:55.000Z","ept":0.005,"lat":35.918874500,"lon":-78.930252000,"alt":100.400,"epx":9.392,"epy":13.513,"epv":31.970,"track":210.3000,"speed":19.381,"climb":0.000,"eps":27.03}
{"class":"SKY","device":"/dev/ttyACM0","xdop":0.63,"ydop":0.90,"vdop":1.39,"tdop":0.82,"hdop":1.13,"gdop":1.84,"pdop":1.79,"satellites":[{"PRN":1,"el":4,"az":49,"ss":0,"used":false},{"PRN":2,"el":24,"az":240,"ss":20,"used":true},{"PRN":3,"el":27,"az":55,"ss":27,"used":true},{"PRN":6,"el":62,"az":248,"ss":36,"used":true},{"PRN":12,"el":4,"az":319,"ss":0,"used":false},{"PRN":17,"el":62,"az":28,"ss":39,"used":true},{"PRN":19,"el":61,"az":338,"ss":32,"used":true},{"PRN":22,"el":11,"az":42,"ss":31,"used":true},{"PRN":24,"el":17,"az":294,"ss":24,"used":true},{"PRN":28,"el":50,"az":144,"ss":34,"used":true},{"PRN":133,"el":23,"az":244,"ss":0,"used":false},{"PRN":135,"el":20,"az":247,"ss":0,"used":false},{"PRN":138,"el":39,"az":223,"ss":0,"used":false}]}
{"class":"TPV","device":"/dev/ttyACM0","mode":3,"time":"2019-05-16T21:13:56.000Z","ept":0.005,"lat":35.918724333,"lon":-78.930359500,"alt":100.200,"epx":9.392,"epy":13.513,"epv":31.970,"track":210.1500,"speed":19.326,"climb":0.000,"eps":27.03}
{"class":"SKY","device":"/dev/ttyACM0","xdop":0.63,"ydop":0.90,"vdop":1.39,"tdop":0.82,"hdop":1.13,"gdop":1.84,"pdop":1.79,"satellites":[{"PRN":1,"el":4,"az":49,"ss":0,"used":false},{"PRN":2,"el":24,"az":240,"ss":20,"used":true},{"PRN":3,"el":27,"az":55,"ss":28,"used":true},{"PRN":6,"el":62,"az":248,"ss":37,"used":true},{"PRN":12,"el":4,"az":319,"ss":0,"used":false},{"PRN":17,"el":62,"az":28,"ss":39,"used":true},{"PRN":19,"el":61,"az":338,"ss":31,"used":true},{"PRN":22,"el":11,"az":42,"ss":30,"used":true},{"PRN":24,"el":17,"az":294,"ss":21,"used":true},{"PRN":28,"el":50,"az":144,"ss":33,"used":true},{"PRN":133,"el":23,"az":244,"ss":0,"used":false},{"PRN":135,"el":20,"az":247,"ss":0,"used":false},{"PRN":138,"el":39,"az":223,"ss":0,"used":false}]}
{"class":"TPV","device":"/dev/ttyACM0","mode":3,"time":"2019-05-16T21:13:57.000Z","ept":0.005,"lat":35.918574167,"lon":-78.930467167,"alt":100.100,"epx":9.392,"epy":13.513,"epv":31.970,"track":210.3000,"speed":19.298,"climb":0.000,"eps":27.03}
{"class":"SKY","device":"/dev/ttyACM0","xdop":0.63,"ydop":0.90,"vdop":1.39,"tdop":0.82,"hdop":1.13,"gdop":1.84,"pdop":1.79,"satellites":[{"PRN":1,"el":4,"az":49,"ss":0,"used":false},{"PRN":2,"el":24,"az":240,"ss":29,"used":true},{"PRN":3,"el":27,"az":55,"ss":29,"used":true},{"PRN":6,"el":62,"az":248,"ss":38,"used":true},{"PRN":12,"el":4,"az":319,"ss":0,"used":false},{"PRN":17,"el":62,"az":28,"ss":37,"used":true},{"PRN":19,"el":61,"az":338,"ss":24,"used":true},{"PRN":22,"el":11,"az":42,"ss":29,"used":true},{"PRN":24,"el":17,"az":294,"ss":17,"used":true},{"PRN":28,"el":50,"az":144,"ss":30,"used":true},{"PRN":133,"el":23,"az":244,"ss":0,"used":false},{"PRN":135,"el":20,"az":247,"ss":0,"used":false},{"PRN":138,"el":39,"az":223,"ss":0,"used":false}]}
{"class":"TPV","device":"/dev/ttyACM0","mode":3,"time":"2019-05-16T21:13:58.000Z","ept":0.005,"lat":35.918424333,"lon":-78.930573667,"alt":100.200,"epx":9.392,"epy":13.513,"epv":31.970,"track":209.9600,"speed":19.255,"climb":0.000,"eps":27.03}
{"class":"SKY","device":"/dev/ttyACM0","xdop":0.63,"ydop":0.90,"vdop":1.39,"tdop":0.82,"hdop":1.13,"gdop":1.84,"pdop":1.79,"satellites":[{"PRN":1,"el":4,"az":49,"ss":0,"used":false},{"PRN":2,"el":24,"az":240,"ss":32,"used":true},{"PRN":3,"el":27,"az":55,"ss":29,"used":true},{"PRN":6,"el":62,"az":248,"ss":37,"used":true},{"PRN":12,"el":4,"az":319,"ss":0,"used":false},{"PRN":17,"el":62,"az":28,"ss":37,"used":true},{"PRN":19,"el":61,"az":338,"ss":25,"used":true},{"PRN":22,"el":11,"az":42,"ss":31,"used":true},{"PRN":24,"el":17,"az":294,"ss":28,"used":true},{"PRN":28,"el":50,"az":144,"ss":30,"used":true},{"PRN":133,"el":23,"az":244,"ss":0,"used":false},{"PRN":135,"el":20,"az":247,"ss":0,"used":false},{"PRN":138,"el":39,"az":223,"ss":0,"used":false}]}
{"class":"TPV","device":"/dev/ttyACM0","mode":3,"time":"2019-05-16T21:13:59.000Z","ept":0.005,"lat":35.918275167,"lon":-78.930679833,"alt":100.300,"epx":9.392,"epy":13.513,"epv":31.970,"track":209.9000,"speed":19.168,"climb":0.000,"eps":27.03}
{"class":"SKY","device":"/dev/ttyACM0","xdop":0.63,"ydop":0.90,"vdop":1.39,"tdop":0.82,"hdop":1.13,"gdop":1.84,"pdop":1.79,"satellites":[{"PRN":1,"el":4,"az":49,"ss":0,"used":false},{"PRN":2,"el":24,"az":240,"ss":26,"used":true},{"PRN":3,"el":27,"az":55,"ss":29,"used":true},{"PRN":6,"el":62,"az":248,"ss":37,"used":true},{"PRN":12,"el":4,"az":319,"ss":0,"used":false},{"PRN":17,"el":62,"az":28,"ss":37,"used":true},{"PRN":19,"el":61,"az":338,"ss":25,"used":true},{"PRN":22,"el":11,"az":42,"ss":29,"used":true},{"PRN":24,"el":17,"az":294,"ss":26,"used":true},{"PRN":28,"el":50,"az":144,"ss":20,"used":true},{"PRN":133,"el":23,"az":244,"ss":0,"used":false},{"PRN":135,"el":20,"az":247,"ss":0,"used":false},{"PRN":138,"el":39,"az":223,"ss":0,"used":false}]}
{"class":"TPV","device":"/dev/ttyACM0","mode":3,"time":"2019-05-16T21:14:00.000Z","ept":0.005,"lat":35.918126833,"lon":-78.930784667,"alt":100.500,"epx":9.392,"epy":13.513,"epv":31.970,"track":209.9500,"speed":18.994,"climb":0.000,"eps":27.03}
{"class":"SKY","device":"/dev/ttyACM0","xdop":0.63,"ydop":0.90,"vdop":1.39,"tdop":0.82,"hdop":1.13,"gdop":1.84,"pdop":1.79,"satellites":[{"PRN":1,"el":4,"az":49,"ss":0,"used":false},{"PRN":2,"el":24,"az":240,"ss":26,"used":true},{"PRN":3,"el":27,"az":55,"ss":29,"used":true},{"PRN":6,"el":62,"az":248,"ss":36,"used":true},{"PRN":12,"el":4,"az":319,"ss":0,"used":false},{"PRN":17,"el":62,"az":28,"ss":36,"used":true},{"PRN":19,"el":61,"az":338,"ss":25,"used":true},{"PRN":22,"el":11,"az":42,"ss":29,"used":true},{"PRN":24,"el":17,"az":294,"ss":22,"used":true},{"PRN":28,"el":50,"az":144,"ss":20,"used":true},{"PRN":133,"el":23,"az":244,"ss":0,"used":false},{"PRN":135,"el":20,"az":247,"ss":0,"used":false},{"PRN":138,"el":39,"az":223,"ss":0,"used":false}]}
{"class":"TPV","device":"/dev/ttyACM0","mode":3,"time":"2019-05-16T21:14:01.000Z","ept":0.005,"lat":35.917981167,"lon":-78.930889833,"alt":101.100,"epx":9.392,"epy":13.513,"epv":31.970,"track":210.3400,"speed":18.790,"climb":0.000,"eps":27.03}
{"class":"SKY","device":"/dev/ttyACM0","xdop":0.63,"ydop":0.90,"vdop":1.39,"tdop":0.82,"hdop":1.13,"gdop":1.84,"pdop":1.79,"satellites":[{"PRN":1,"el":4,"az":49,"ss":0,"used":false},{"PRN":2,"el":24,"az":240,"ss":31,"used":true},{"PRN":3,"el":27,"az":55,"ss":30,"used":true},{"PRN":6,"el":62,"az":248,"ss":36,"used":true},{"PRN":12,"el":4,"az":319,"ss":0,"used":false},{"PRN":17,"el":62,"az":28,"ss":36,"used":true},{"PRN":19,"el":61,"az":338,"ss":26,"used":true},{"PRN":22,"el":11,"az":42,"ss":28,"used":true},{"PRN":24,"el":17,"az":294,"ss":28,"used":true},{"PRN":28,"el":50,"az":144,"ss":30,"used":true},{"PRN":133,"el":23,"az":244,"ss":0,"used":false},{"PRN":135,"el":20,"az":247,"ss":0,"used":false},{"PRN":138,"el":39,"az":223,"ss":0,"used":false}]}
{"class":"TPV","device":"/dev/ttyACM0","mode":3,"time":"2019-05-16T21:14:02.000Z","ept":0.005,"lat":35.917831167,"lon":-78.930988833,"alt":101.800,"epx":9.392,"epy":13.513,"epv":31.970,"track":208.6900,"speed":18.812,"climb":0.000,"eps":27.03}
{"class":"SKY","device":"/dev/ttyACM0","xdop":0.63,"ydop":0.90,"vdop":1.39,"tdop":0.82,"hdop":1.13,"gdop":1.84,"pdop":1.79,"satellites":[{"PRN":1,"el":4,"az":49,"ss":0,"used":false},{"PRN":2,"el":24,"az":240,"ss":32,"used":true},{"PRN":3,"el":27,"az":55,"ss":30,"used":true},{"PRN":6,"el":62,"az":248,"ss":36,"used":true},{"PRN":12,"el":4,"az":319,"ss":0,"used":false},{"PRN":17,"el":62,"az":28,"ss":37,"used":true},{"PRN":19,"el":61,"az":338,"ss":27,"used":true},{"PRN":22,"el":11,"az":42,"ss":27,"used":true},{"PRN":24,"el":17,"az":294,"ss":30,"used":true},{"PRN":28,"el":50,"az":144,"ss":34,"used":true},{"PRN":133,"el":23,"az":244,"ss":0,"used":false},{"PRN":135,"el":20,"az":247,"ss":0,"used":false},{"PRN":138,"el":39,"az":223,"ss":0,"used":false}]}
{"class":"TPV","device":"/dev/ttyACM0","mode":3,"time":"2019-05-16T21:14:03.000Z","ept":0.005,"lat":35.917680667,"lon":-78.931084167,"alt":102.600,"epx":9.392,"epy":13.513,"epv":31.970,"track":207.5300,"speed":18.703,"climb":0.000,"eps":27.03}
{"class":"SKY","device":"/dev/ttyACM0","xdop":0.63,"ydop":0.90,"vdop":1.39,"tdop":0.82,"hdop":1.13,"gdop":1.84,"pdop":1.79,"satellites":[{"PRN":1,"el":4,"az":49,"ss":0,"used":false},{"PRN":2,"el":24,"az":240,"ss":30,"used":true},{"PRN":3,"el":27,"az":55,"ss":30,"used":true},{"PRN":6,"el":62,"az":248,"ss":36,"used":true},{"PRN":12,"el":4,"az":319,"ss":0,"used":false},{"PRN":17,"el":62,"az":28,"ss":37,"used":true},{"PRN":19,"el":61,"az":338,"ss":27,"used":true},{"PRN":22,"el":11,"az":42,"ss":26,"used":true},{"PRN":24,"el":17,"az":294,"ss":25,"used":true},{"PRN":28,"el":50,"az":144,"ss":35,"used":true},{"PRN":133,"el":23,"az":244,"ss":0,"used":false},{"PRN":135,"el":20,"az":247,"ss":0,"used":false},{"PRN":138,"el":39,"az":223,"ss":0,"used":false}]}
{"class":"TPV","device":"/dev/ttyACM0","mode":3,"time":"2019-05-16T21:14:04.000Z","ept":0.005,"lat":35.917532500,"lon":-78.931179000,"alt":103.300,"epx":9.392,"epy":13.513,"epv":31.970,"track":207.5100,"speed":18.521,"climb":0.000,"eps":27.03}
{"class":"SKY","device":"/dev/ttyACM0","xdop":0.63,"ydop":0.90,"vdop":1.39,"tdop":0.82,"hdop":1.13,"gdop":1.84,"pdop":1.79,"satellites":[{"PRN":1,"el":4,"az":49,"ss":0,"used":false},{"PRN":2,"el":24,"az":240,"ss":29,"used":true},{"PRN":3,"el":27,"az":55,"ss":31,"used":true},{"PRN":6,"el":62,"az":248,"ss":36,"used":true},{"PRN":12,"el":4,"az":319,"ss":0,"used":false},{"PRN":17,"el":62,"az":28,"ss":37,"used":true},{"PRN":19,"el":61,"az":338,"ss":27,"used":true},{"PRN":22,"el":11,"az":42,"ss":25,"used":true},{"PRN":24,"el":17,"az":294,"ss":27,"used":true},{"PRN":28,"el":50,"az":144,"ss":35,"used":true},{"PRN":133,"el":23,"az":244,"ss":0,"used":false},{"PRN":135,"el":20,"az":247,"ss":0,"used":false},{"PRN":138,"el":39,"az":223,"ss":0,"used":false}]}
{"class":"TPV","device":"/dev/ttyACM0","mode":3,"time":"2019-05-16T21:14:05.000Z","ept":0.005,"lat":35.917387000,"lon":-78.931271667,"alt":104.000,"epx":9.392,"epy":13.513,"epv":31.970,"track":207.2300,"speed":18.108,"climb":0.000,"eps":27.03}
{"class":"SKY","device":"/dev/ttyACM0","xdop":0.63,"ydop":0.90,"vdop":1.39,"tdop":0.82,"hdop":1.13,"gdop":1.84,"pdop":1.79,"satellites":[{"PRN":1,"el":4,"az":49,"ss":0,"used":false},{"PRN":2,"el":24,"az":240,"ss":30,"used":true},{"PRN":3,"el":27,"az":55,"ss":32,"used":true},{"PRN":6,"el":62,"az":248,"ss":37,"used":true},{"PRN":12,"el":4,"az":319,"ss":0,"used":false},{"PRN":17,"el":62,"az":28,"ss":37,"used":true},{"PRN":19,"el":61,"az":338,"ss":25,"used":true},{"PRN":22,"el":11,"az":42,"ss":25,"used":true},{"PRN":24,"el":17,"az":294,"ss":29,"used":true},{"PRN":28,"el":50,"az":144,"ss":35,"used":true},{"PRN":133,"el":23,"az":244,"ss":0,"used":false},{"PRN":135,"el":20,"az":247,"ss":0,"used":false},{"PRN":138,"el":39,"az":223,"ss":0,"used":false}]}
{"class":"TPV","device":"/dev/ttyACM0","mode":3,"time":"2019-05-16T21:14:06.000Z","ept":0.005,"lat":35.917245500,"lon":-78.931362167,"alt":104.600,"epx":9.392,"epy":13.513,"epv":31.970,"track":206.9600,"speed":17.680,"climb":0.000,"eps":27.03}
{"class":"SKY","device":"/dev/ttyACM0","xdop":0.63,"ydop":0.90,"vdop":1.39,"tdop":0.82,"hdop":1.13,"gdop":1.84,"pdop":1.79,"satellites":[{"PRN":1,"el":4,"az":49,"ss":0,"used":false},{"PRN":2,"el":24,"az":240,"ss":31,"used":true},{"PRN":3,"el":27,"az":55,"ss":33,"used":true},{"PRN":6,"el":62,"az":248,"ss":37,"used":true},{"PRN":12,"el":4,"az":319,"ss":0,"used":false},{"PRN":17,"el":62,"az":28,"ss":37,"used":true},{"PRN":19,"el":61,"az":338,"ss":25,"used":true},{"PRN":22,"el":11,"az":42,"ss":25,"used":true},{"PRN":24,"el":17,"az":294,"ss":30,"used":true},{"PRN":28,"el":50,"az":144,"ss":34,"used":true},{"PRN":133,"el":23,"az":244,"ss":0,"used":false},{"PRN":135,"el":20,"az":247,"ss":0,"used":false},{"PRN":138,"el":39,"az":223,"ss":0,"used":false}]}
{"class":"TPV","device":"/dev/ttyACM0","mode":3,"time":"2019-05-16T21:14:07.000Z","ept":0.005,"lat":35.917109000,"lon":-78.931449833,"alt":105.100,"epx":9.392,"epy":13.513,"epv":31.970,"track":207.1800,"speed":16.986,"climb":0.000,"eps":27.03}
{"class":"SKY","device":"/dev/ttyACM0","xdop":0.63,"ydop":0.90,"vdop":1.39,"tdop":0.82,"hdop":1.13,"gdop":1.84,"pdop":1.79,"satellites":[{"PRN":1,"el":4,"az":49,"ss":0,"used":false},{"PRN":2,"el":24,"az":240,"ss":25,"used":true},{"PRN":3,"el":27,"az":55,"ss":34,"used":true},{"PRN":6,"el":62,"az":248,"ss":38,"used":true},{"PRN":12,"el":4,"az":319,"ss":0,"used":false},{"PRN":17,"el":62,"az":28,"ss":39,"used":true},{"PRN":19,"el":61,"az":338,"ss":32,"used":true},{"PRN":22,"el":11,"az":42,"ss":25,"used":true},{"PRN":24,"el":17,"az":294,"ss":29,"used":true},{"PRN":28,"el":50,"az":144,"ss":34,"used":true},{"PRN":133,"el":23,"az":244,"ss":0,"used":false},{"PRN":135,"el":20,"az":247,"ss":0,"used":false},{"PRN":138,"el":39,"az":223,"ss":0,"used":false}]}
{"class":"TPV","device":"/dev/ttyACM0","mode":3,"time":"2019-05-16T21:14:08.000Z","ept":0.005,"lat":35.916977000,"lon":-78.931531333,"alt":105.800,"epx":9.392,"epy":13.513,"epv":31.970,"track":206.0800,"speed":16.286,"climb":0.000,"eps":27.03}
{"class":"SKY","device":"/dev/ttyACM0","xdop":0.63,"ydop":0.90,"vdop":1.39,"tdop":0.82,"hdop":1.13,"gdop":1.84,"pdop":1.79,"satellites":[{"PRN":1,"el":3,"az":49,"ss":0,"used":false},{"PRN":2,"el":24,"az":240,"ss":26,"used":true},{"PRN":3,"el":27,"az":55,"ss":33,"used":true},{"PRN":6,"el":62,"az":248,"ss":38,"used":true},{"PRN":12,"el":4,"az":319,"ss":0,"used":false},{"PRN":17,"el":62,"az":28,"ss":39,"used":true},{"PRN":19,"el":61,"az":338,"ss":35,"used":true},{"PRN":22,"el":11,"az":42,"ss":26,"used":true},{"PRN":24,"el":17,"az":294,"ss":16,"used":true},{"PRN":28,"el":50,"az":144,"ss":36,"used":true},{"PRN":133,"el":23,"az":244,"ss":0,"used":false},{"PRN":135,"el":20,"az":247,"ss":0,"used":false},{"PRN":138,"el":39,"az":223,"ss":0,"used":false}]}
{"class":"TPV","device":"/dev/ttyACM0","mode":3,"time":"2019-05-16T21:14:09.000Z","ept":0.005,"lat":35.916847500,"lon":-78.931605667,"alt":106.100,"epx":9.392,"epy":13.513,"epv":31.970,"track":204.6200,"speed":15.860,"climb":0.000,"eps":27.03}
{"class":"SKY","device":"/dev/ttyACM0","xdop":0.63,"ydop":0.90,"vdop":1.39,"tdop":0.82,"hdop":1.13,"gdop":1.84,"pdop":1.79,"satellites":[{"PRN":1,"el":3,"az":49,"ss":0,"used":false},{"PRN":2,"el":25,"az":240,"ss":26,"used":true},{"PRN":3,"el":27,"az":55,"ss":33,"used":true},{"PRN":6,"el":62,"az":248,"ss":38,"used":true},{"PRN":12,"el":4,"az":319,"ss":0,"used":false},{"PRN":17,"el":62,"az":28,"ss":39,"used":true},{"PRN":19,"el":61,"az":338,"ss":35,"used":true},{"PRN":22,"el":11,"az":42,"ss":25,"used":true},{"PRN":24,"el":17,"az":294,"ss":22,"used":true},{"PRN":28,"el":50,"az":144,"ss":36,"used":true},{"PRN":133,"el":23,"az":244,"ss":0,"used":false},{"PRN":135,"el":20,"az":247,"ss":0,"used":false},{"PRN":138,"el":39,"az":223,"ss":0,"used":false}]}
{"class":"TPV","device":"/dev/ttyACM0","mode":3,"time":"2019-05-16T21:14:10.000Z","ept":0.005,"lat":35.916717500,"lon":-78.931678000,"alt":106.400,"epx":9.392,"epy":13.513,"epv":31.970,"track":204.2300,"speed":15.944,"climb":0.000,"eps":27.03}
{"class":"SKY","device":"/dev/ttyACM0","xdop":0.63,"ydop":0.90,"vdop":1.39,"tdop":0.82,"hdop":1.13,"gdop":1.84,"pdop":1.79,"satellites":[{"PRN":1,"el":3,"az":49,"ss":0,"used":false},{"PRN":2,"el":25,"az":240,"ss":27,"used":true},{"PRN":3,"el":27,"az":54,"ss":33,"used":true},{"PRN":6,"el":62,"az":248,"ss":38,"used":true},{"PRN":12,"el":4,"az":319,"ss":0,"used":false},{"PRN":17,"el":62,"az":28,"ss":40,"used":true},{"PRN":19,"el":61,"az":338,"ss":36,"used":true},{"PRN":22,"el":11,"az":42,"ss":26,"used":true},{"PRN":24,"el":17,"az":294,"ss":24,"used":true},{"PRN":28,"el":50,"az":144,"ss":35,"used":true},{"PRN":133,"el":23,"az":244,"ss":0,"used":false},{"PRN":135,"el":20,"az":247,"ss":0,"used":false},{"PRN":138,"el":39,"az":223,"ss":0,"used":false}]}
{"class":"TPV","device":"/dev/ttyACM0","mode":3,"time":"2019-05-16T21:14:11.000Z","ept":0.005,"lat":35.916584500,"lon":-78.931751667,"alt":106.600,"epx":9.392,"epy":13.513,"epv":31.970,"track":204.3300,"speed":16.319,"climb":0.000,"eps":27.03}
{"class":"SKY","device":"/dev/ttyACM0","xdop":0.63,"ydop":0.90,"vdop":1.39,"tdop":0.82,"hdop":1.13,"gdop":1.84,"pdop":1.79,"satellites":[{"PRN":1,"el":3,"az":49,"ss":12,"used":false},{"PRN":2,"el":25,"az":240,"ss":26,"used":true},{"PRN":3,"el":27,"az":54,"ss":33,"used":true},{"PRN":6,"el":62,"az":248,"ss":37,"used":true},{"PRN":12,"el":4,"az":319,"ss":0,"used":false},{"PRN":17,"el":62,"az":28,"ss":40,"used":true},{"PRN":19,"el":61,"az":338,"ss":36,"used":true},{"PRN":22,"el":11,"az":42,"ss":26,"used":true},{"PRN":24,"el":17,"az":294,"ss":25,"used":true},{"PRN":28,"el":50,"az":144,"ss":35,"used":true},{"PRN":133,"el":23,"az":244,"ss":0,"used":false},{"PRN":135,"el":20,"az":247,"ss":0,"used":false},{"PRN":138,"el":39,"az":223,"ss":0,"used":false}]}
{"class":"TPV","device":"/dev/ttyACM0","mode":3,"time":"2019-05-16T21:14:12.000Z","ept":0.005,"lat":35.916447833,"lon":-78.931826667,"alt":106.600,"epx":9.392,"epy":13.513,"epv":31.970,"track":204.1400,"speed":16.674,"climb":0.000,"eps":27.03}
