{"class":"VERSION","release":"3.16","rev":"3.16-4","proto_major":3,"proto_minor":11}
{"class":"DEVICES","devices":[{"class":"DEVICE","path":"/dev/ttyACM0","driver":"NMEA0183","activated":"2019-05-16T21:16:03.067Z","flags":1,"native":0,"bps":9600,"parity":"N","stopbits":1,"cycle":1.00}]}
{"class":"WATCH","enable":true,"json":true,"nmea":false,"raw":0,"scaled":false,"timing":false,"split24":false,"pps":false}
{"class":"SKY","device":"/dev/ttyACM0","xdop":0.63,"ydop":0.90,"vdop":1.53,"tdop":0.82,"hdop":1.35,"gdop":1.84,"pdop":2.04,"satellites":[{"PRN":1,"el":3,"az":49,"ss":20,"used":false},{"PRN":2,"el":25,"az":240,"ss":31,"used":true},{"PRN":3,"el":27,"az":54,"ss":37,"used":true},{"PRN":6,"el":63,"az":250,"ss":39,"used":true},{"PRN":12,"el":5,"az":319,"ss":11,"used":false},{"PRN":17,"el":62,"az":30,"ss":44,"used":true},{"PRN":19,"el":61,"az":340,"ss":37,"used":true},{"PRN":22,"el":11,"az":41,"ss":28,"used":true},{"PRN":24,"el":17,"az":293,"ss":0,"used":false},{"PRN":28,"el":49,"az":145,"ss":38,"used":true},{"PRN":133,"el":23,"az":244,"ss":0,"used":false},{"PRN":135,"el":20,"az":247,"ss":0,"used":false},{"PRN":138,"el":39,"az":223,"ss":34,"used":false}]}
{"class":"TPV","device":"/dev/ttyACM0","mode":3,"time":"2019-05-16T21:16:04.000Z","ept":0.005,"lat":35.910081167,"lon":-78.935216667,"alt":102.900,"epx":9.392,"epy":13.513,"epv":35.190,"track":205.2700,"speed":11.994,"climb":0.000,"eps":27.03}
{"class":"SKY","device":"/dev/ttyACM0","xdop":0.63,"ydop":0.90,"vdop":1.53,"tdop":0.82,"hdop":1.35,"gdop":1.84,"pdop":2.04,"satellites":[{"PRN":1,"el":3,"az":49,"ss":21,"used":false},{"PRN":2,"el":25,"az":240,"ss":31,"used":true},{"PRN":3,"el":27,"az":54,"ss":33,"used":true},{"PRN":6,"el":63,"az":250,"ss":38,"used":true},{"PRN":12,"el":5,"az":319,"ss":11,"used":false},{"PRN":17,"el":62,"az":30,"ss":39,"used":true},{"PRN":19,"el":61,"az":340,"ss":36,"used":true},{"PRN":22,"el":11,"az":41,"ss":27,"used":true},{"PRN":24,"el":17,"az":293,"ss":0,"used":false},{"PRN":28,"el":49,"az":145,"ss":35,"used":true},{"PRN":133,"el":23,"az":244,"ss":0,"used":false},{"PRN":135,"el":20,"az":247,"ss":0,"used":false},{"PRN":138,"el":39,"az":223,"ss":33,"used":false}]}
{"class":"TPV","device":"/dev/ttyACM0","mode":3,"time":"2019-05-16T21:16:05.000Z","ept":0.005,"lat":35.909985500,"lon":-78.935272167,"alt":103.000,"epx":9.392,"epy":13.513,"epv":35.190,"track":205.4000,"speed":11.586,"climb":0.000,"eps":27.03}
{"class":"SKY","device":"/dev/ttyACM0","xdop":0.63,"ydop":0.90,"vdop":1.39,"tdop":0.82,"hdop":1.13,"gdop":1.84,"pdop":1.79,"satellites":[{"PRN":1,"el":3,"az":49,"ss":25,"used":false},{"PRN":2,"el":25,"az":240,"ss":33,"used":true},{"PRN":3,"el":27,"az":54,"ss":35,"used":true},{"PRN":6,"el":63,"az":250,"ss":39,"used":true},{"PRN":12,"el":5,"az":319,"ss":11,"used":false},{"PRN":17,"el":62,"az":30,"ss":42,"used":true},{"PRN":19,"el":61,"az":340,"ss":37,"used":true},{"PRN":22,"el":11,"az":41,"ss":27,"used":true},{"PRN":24,"el":17,"az":293,"ss":29,"used":true},{"PRN":28,"el":49,"az":145,"ss":27,"used":true},{"PRN":133,"el":23,"az":244,"ss":0,"used":false},{"PRN":135,"el":20,"az":247,"ss":0,"used":false},{"PRN":138,"el":39,"az":223,"ss":33,"used":false}]}
{"class":"TPV","device":"/dev/ttyACM0","mode":3,"time":"2019-05-16T21:16:06.000Z","ept":0.005,"lat":35.909894167,"lon":-78.935327333,"alt":103.000,"epx":9.392,"epy":13.513,"epv":35.190,"track":206.9400,"speed":11.106,"climb":0.000,"eps":27.03}
{"class":"SKY","device":"/dev/ttyACM0","xdop":0.63,"ydop":0.90,"vdop":1.39,"tdop":0.82,"hdop":1.13,"gdop":1.84,"pdop":1.79,"satellites":[{"PRN":1,"el":3,"az":49,"ss":22,"used":false},{"PRN":2,"el":25,"az":240,"ss":32,"used":true},{"PRN":3,"el":27,"az":54,"ss":26,"used":true},{"PRN":6,"el":63,"az":250,"ss":39,"used":true},{"PRN":12,"el":5,"az":319,"ss":11,"used":false},{"PRN":17,"el":62,"az":30,"ss":39,"used":true},{"PRN":19,"el":61,"az":340,"ss":30,"used":true},{"PRN":22,"el":11,"az":41,"ss":31,"used":true},{"PRN":24,"el":17,"az":293,"ss":31,"used":true},{"PRN":28,"el":49,"az":145,"ss":38,"used":true},{"PRN":133,"el":23,"az":244,"ss":0,"used":false},{"PRN":135,"el":20,"az":247,"ss":0,"used":false},{"PRN":138,"el":39,"az":223,"ss":31,"used":false}]}
{"class":"TPV","device":"/dev/ttyACM0","mode":3,"time":"2019-05-16T21:16:07.000Z","ept":0.005,"lat":35.909812500,"lon":-78.935390333,"alt":103.000,"epx":9.392,"epy":13.513,"epv":31.970,"track":213.9000,"speed":10.586,"climb":0.000,"eps":27.03}
{"class":"SKY","device":"/dev/ttyACM0","xdop":0.63,"ydop":0.90,"vdop":1.39,"tdop":0.82,"hdop":1.13,"gdop":1.84,"pdop":1.79,"satellites":[{"PRN":1,"el":3,"az":49,"ss":30,"used":false},{"PRN":2,"el":25,"az":240,"ss":35,"used":true},{"PRN":3,"el":27,"az":54,"ss":26,"used":true},{"PRN":6,"el":63,"az":250,"ss":36,"used":true},{"PRN":12,"el":5,"az":319,"ss":0,"used":false},{"PRN":17,"el":62,"az":30,"ss":42,"used":true},{"PRN":19,"el":61,"az":340,"ss":36,"used":true},{"PRN":22,"el":11,"az":41,"ss":22,"used":true},{"PRN":24,"el":17,"az":293,"ss":25,"used":true},{"PRN":28,"el":49,"az":145,"ss":40,"used":true},{"PRN":133,"el":23,"az":244,"ss":0,"used":false},{"PRN":135,"el":20,"az":247,"ss":0,"used":false},{"PRN":138,"el":39,"az":223,"ss":34,"used":false}]}
{"class":"TPV","device":"/dev/ttyACM0","mode":3,"time":"2019-05-16T21:16:08.000Z","ept":0.005,"lat":35.909741667,"lon":-78.935465333,"alt":103.100,"epx":9.392,"epy":13.513,"epv":31.970,"track":223.9700,"speed":10.290,"climb":0.000,"eps":27.03}
{"class":"SKY","device":"/dev/ttyACM0","xdop":0.63,"ydop":0.90,"vdop":1.39,"tdop":0.82,"hdop":1.13,"gdop":1.84,"pdop":1.79,"satellites":[{"PRN":1,"el":3,"az":49,"ss":20,"used":false},{"PRN":2,"el":25,"az":240,"ss":30,"used":true},{"PRN":3,"el":27,"az":54,"ss":26,"used":true},{"PRN":6,"el":63,"az":250,"ss":34,"used":true},{"PRN":12,"el":5,"az":319,"ss":0,"used":false},{"PRN":17,"el":62,"az":30,"ss":41,"used":true},{"PRN":19,"el":61,"az":340,"ss":28,"used":true},{"PRN":22,"el":11,"az":41,"ss":21,"used":true},{"PRN":24,"el":17,"az":293,"ss":24,"used":true},{"PRN":28,"el":49,"az":145,"ss":36,"used":true},{"PRN":133,"el":23,"az":244,"ss":0,"used":false},{"PRN":135,"el":20,"az":247,"ss":0,"used":false},{"PRN":138,"el":39,"az":223,"ss":32,"used":false}]}
{"class":"TPV","device":"/dev/ttyACM0","mode":3,"time":"2019-05-16T21:16:09.000Z","ept":0.005,"lat":35.909683333,"lon":-78.935554667,"alt":103.200,"epx":9.392,"epy":13.513,"epv":31.970,"track":233.5200,"speed":10.467,"climb":0.000,"eps":27.03}
{"class":"SKY","device":"/dev/ttyACM0","xdop":0.63,"ydop":0.90,"vdop":1.39,"tdop":0.82,"hdop":1.13,"gdop":1.84,"pdop":1.79,"satellites":[{"PRN":1,"el":3,"az":49,"ss":21,"used":false},{"PRN":2,"el":25,"az":240,"ss":29,"used":true},{"PRN":3,"el":27,"az":54,"ss":24,"used":true},{"PRN":6,"el":63,"az":250,"ss":34,"used":true},{"PRN":12,"el":5,"az":319,"ss":0,"used":false},{"PRN":17,"el":62,"az":30,"ss":40,"used":true},{"PRN":19,"el":61,"az":340,"ss":38,"used":true},{"PRN":22,"el":11,"az":41,"ss":22,"used":true},{"PRN":24,"el":17,"az":293,"ss":34,"used":true},{"PRN":28,"el":49,"az":145,"ss":41,"used":true},{"PRN":133,"el":23,"az":244,"ss":0,"used":false},{"PRN":135,"el":20,"az":247,"ss":0,"used":false},{"PRN":138,"el":39,"az":223,"ss":33,"used":false}]}
{"class":"TPV","device":"/dev/ttyACM0","mode":3,"time":"2019-05-16T21:16:10.000Z","ept":0.005,"lat":35.909632667,"lon":-78.935659000,"alt":103.000,"epx":9.392,"epy":13.513,"epv":31.970,"track":241.4500,"speed":11.254,"climb":0.000,"eps":27.03}
{"class":"SKY","device":"/dev/ttyACM0","xdop":0.63,"ydop":0.90,"vdop":1.39,"tdop":0.82,"hdop":1.13,"gdop":1.84,"pdop":1.79,"satellites":[{"PRN":1,"el":3,"az":49,"ss":31,"used":false},{"PRN":2,"el":25,"az":240,"ss":29,"used":true},{"PRN":3,"el":27,"az":54,"ss":34,"used":true},{"PRN":6,"el":63,"az":250,"ss":33,"used":true},{"PRN":12,"el":5,"az":319,"ss":0,"used":false},{"PRN":17,"el":62,"az":30,"ss":41,"used":true},{"PRN":19,"el":61,"az":340,"ss":40,"used":true},{"PRN":22,"el":11,"az":41,"ss":24,"used":true},{"PRN":24,"el":17,"az":293,"ss":30,"used":true},{"PRN":28,"el":49,"az":145,"ss":41,"used":true},{"PRN":133,"el":23,"az":244,"ss":0,"used":false},{"PRN":135,"el":20,"az":247,"ss":0,"used":false},{"PRN":138,"el":39,"az":223,"ss":28,"used":false}]}
{"class":"TPV","device":"/dev/ttyACM0","mode":3,"time":"2019-05-16T21:16:11.000Z","ept":0.005,"lat":35.909585500,"lon":-78.935777833,"alt":102.700,"epx":9.392,"epy":13.513,"epv":31.970,"track":244.9700,"speed":12.268,"climb":0.000,"eps":27.03}
{"class":"SKY","device":"/dev/ttyACM0","xdop":0.63,"ydop":0.90,"vdop":1.39,"tdop":0.82,"hdop":1.13,"gdop":1.84,"pdop":1.79,"satellites":[{"PRN":1,"el":3,"az":49,"ss":30,"used":false},{"PRN":2,"el":25,"az":240,"ss":28,"used":true},{"PRN":3,"el":27,"az":54,"ss":34,"used":true},{"PRN":6,"el":63,"az":250,"ss":32,"used":true},{"PRN":12,"el":5,"az":319,"ss":0,"used":false},{"PRN":17,"el":62,"az":30,"ss":41,"used":true},{"PRN":19,"el":61,"az":340,"ss":38,"used":true},{"PRN":22,"el":11,"az":41,"ss":27,"used":true},{"PRN":24,"el":17,"az":293,"ss":31,"used":true},{"PRN":28,"el":49,"az":145,"ss":40,"used":true},{"PRN":133,"el":23,"az":244,"ss":0,"used":false},{"PRN":135,"el":20,"az":247,"ss":0,"used":false},{"PRN":138,"el":39,"az":223,"ss":29,"used":false}]}
{"class":"TPV","device":"/dev/ttyACM0","mode":3,"time":"2019-05-16T21:16:12.000Z","ept":0.005,"lat":35.909536333,"lon":-78.935906667,"alt":102.700,"epx":9.392,"epy":13.513,"epv":31.970,"track":245.4000,"speed":13.120,"climb":0.000,"eps":27.03}
{"class":"SKY","device":"/dev/ttyACM0","xdop":0.63,"ydop":0.90,"vdop":1.39,"tdop":0.82,"hdop":1.13,"gdop":1.84,"pdop":1.79,"satellites":[{"PRN":1,"el":3,"az":49,"ss":22,"used":false},{"PRN":2,"el":25,"az":240,"ss":27,"used":true},{"PRN":3,"el":27,"az":54,"ss":30,"used":true},{"PRN":6,"el":63,"az":250,"ss":31,"used":true},{"PRN":12,"el":5,"az":319,"ss":0,"used":false},{"PRN":17,"el":62,"az":30,"ss":39,"used":true},{"PRN":19,"el":61,"az":340,"ss":38,"used":true},{"PRN":22,"el":11,"az":41,"ss":27,"used":true},{"PRN":24,"el":17,"az":293,"ss":30,"used":true},{"PRN":28,"el":49,"az":145,"ss":38,"used":true},{"PRN":133,"el":23,"az":244,"ss":0,"used":false},{"PRN":135,"el":20,"az":247,"ss":0,"used":false},{"PRN":138,"el":39,"az":223,"ss":28,"used":false}]}
{"class":"TPV","device":"/dev/ttyACM0","mode":3,"time":"2019-05-16T21:16:13.000Z","ept":0.005,"lat":35.909484333,"lon":-78.936043333,"alt":102.600,"epx":9.392,"epy":13.513,"epv":31.970,"track":245.2800,"speed":13.824,"climb":0.000,"eps":27.03}
{"class":"SKY","device":"/dev/ttyACM0","xdop":0.63,"ydop":0.90,"vdop":1.39,"tdop":0.82,"hdop":1.13,"gdop":1.84,"pdop":1.79,"satellites":[{"PRN":1,"el":3,"az":49,"ss":23,"used":false},{"PRN":2,"el":25,"az":240,"ss":28,"used":true},{"PRN":3,"el":27,"az":54,"ss":31,"used":true},{"PRN":6,"el":63,"az":250,"ss":35,"used":true},{"PRN":12,"el":5,"az":319,"ss":0,"used":false},{"PRN":17,"el":62,"az":30,"ss":39,"used":true},{"PRN":19,"el":61,"az":340,"ss":39,"used":true},{"PRN":22,"el":11,"az":41,"ss":27,"used":true},{"PRN":24,"el":17,"az":293,"ss":23,"used":true},{"PRN":28,"el":49,"az":145,"ss":36,"used":true},{"PRN":133,"el":23,"az":244,"ss":0,"used":false},{"PRN":135,"el":20,"az":247,"ss":0,"used":false},{"PRN":138,"el":39,"az":223,"ss":28,"used":false}]}
{"class":"TPV","device":"/dev/ttyACM0","mode":3,"time":"2019-05-16T21:16:14.000Z","ept":0.005,"lat":35.909430667,"lon":-78.936185167,"alt":102.500,"epx":9.392,"epy":13.513,"epv":31.970,"track":245.3900,"speed":14.325,"climb":0.000,"eps":27.03}
{"class":"SKY","device":"/dev/ttyACM0","xdop":0.63,"ydop":0.90,"vdop":1.39,"tdop":0.82,"hdop":1.13,"gdop":1.84,"pdop":1.79,"satellites":[{"PRN":1,"el":3,"az":49,"ss":23,"used":false},{"PRN":2,"el":25,"az":240,"ss":28,"used":true},{"PRN":3,"el":27,"az":54,"ss":31,"used":true},{"PRN":6,"el":63,"az":250,"ss":34,"used":true},{"PRN":12,"el":5,"az":319,"ss":0,"used":false},{"PRN":17,"el":62,"az":30,"ss":39,"used":true},{"PRN":19,"el":61,"az":340,"ss":39,"used":true},{"PRN":22,"el":11,"az":41,"ss":26,"used":true},{"PRN":24,"el":17,"az":293,"ss":23,"used":true},{"PRN":28,"el":49,"az":145,"ss":37,"used":true},{"PRN":133,"el":23,"az":244,"ss":0,"used":false},{"PRN":135,"el":20,"az":247,"ss":0,"used":false},{"PRN":138,"el":39,"az":223,"ss":28,"used":false}]}
{"class":"TPV","device":"/dev/ttyACM0","mode":3,"time":"2019-05-16T21:16:15.000Z","ept":0.005,"lat":35.909374333,"lon":-78.936327833,"alt":102.400,"epx":9.392,"epy":13.513,"epv":31.970,"track":244.5000,"speed":14.462,"climb":0.000,"eps":27.03}
{"class":"SKY","device":"/dev/ttyACM0","xdop":0.63,"ydop":0.90,"vdop":1.39,"tdop":0.82,"hdop":1.13,"gdop":1.84,"pdop":1.79,"satellites":[{"PRN":1,"el":3,"az":49,"ss":24,"used":false},{"PRN":2,"el":25,"az":240,"ss":28,"used":true},{"PRN":3,"el":27,"az":54,"ss":31,"used":true},{"PRN":6,"el":63,"az":250,"ss":29,"used":true},{"PRN":12,"el":5,"az":319,"ss":0,"used":false},{"PRN":17,"el":62,"az":30,"ss":39,"used":true},{"PRN":19,"el":61,"az":340,"ss":37,"used":true},{"PRN":22,"el":11,"az":41,"ss":24,"used":true},{"PRN":24,"el":17,"az":293,"ss":22,"used":true},{"PRN":28,"el":49,"az":145,"ss":35,"used":true},{"PRN":133,"el":23,"az":244,"ss":0,"used":false},{"PRN":135,"el":20,"az":247,"ss":0,"used":false},{"PRN":138,"el":39,"az":223,"ss":28,"used":false}]}
{"class":"TPV","device":"/dev/ttyACM0","mode":3,"time":"2019-05-16T21:16:16.000Z","ept":0.005,"lat":35.909315333,"lon":-78.936474833,"alt":101.900,"epx":9.392,"epy":13.513,"epv":31.970,"track":243.7400,"speed":14.936,"climb":0.000,"eps":27.03}
{"class":"SKY","device":"/dev/ttyACM0","xdop":0.63,"ydop":0.90,"vdop":1.39,"tdop":0.82,"hdop":1.13,"gdop":1.84,"pdop":1.79,"satellites":[{"PRN":1,"el":3,"az":49,"ss":21,"used":false},{"PRN":2,"el":25,"az":240,"ss":26,"used":true},{"PRN":3,"el":27,"az":54,"ss":29,"used":true},{"PRN":6,"el":63,"az":250,"ss":26,"used":true},{"PRN":12,"el":5,"az":319,"ss":0,"used":false},{"PRN":17,"el":62,"az":30,"ss":38,"used":true},{"PRN":19,"el":61,"az":340,"ss":36,"used":true},{"PRN":22,"el":11,"az":41,"ss":21,"used":true},{"PRN":24,"el":17,"az":293,"ss":19,"used":true},{"PRN":28,"el":49,"az":145,"ss":34,"used":true},{"PRN":133,"el":23,"az":244,"ss":0,"used":false},{"PRN":135,"el":20,"az":247,"ss":0,"used":false},{"PRN":138,"el":39,"az":223,"ss":27,"used":false}]}
{"class":"TPV","device":"/dev/ttyACM0","mode":3,"time":"2019-05-16T21:16:17.000Z","ept":0.005,"lat":35.909252500,"lon":-78.936628833,"alt":101.100,"epx":9.392,"epy":13.513,"epv":31.970,"track":243.2000,"speed":15.820,"climb":0.000,"eps":27.03}
{"class":"SKY","device":"/dev/ttyACM0","xdop":0.63,"ydop":0.90,"vdop":1.39,"tdop":0.82,"hdop":1.13,"gdop":1.84,"pdop":1.79,"satellites":[{"PRN":1,"el":3,"az":49,"ss":18,"used":false},{"PRN":2,"el":25,"az":240,"ss":26,"used":true},{"PRN":3,"el":27,"az":54,"ss":30,"used":true},{"PRN":6,"el":63,"az":250,"ss":25,"used":true},{"PRN":12,"el":5,"az":319,"ss":0,"used":false},{"PRN":17,"el":62,"az":30,"ss":39,"used":true},{"PRN":19,"el":61,"az":340,"ss":36,"used":true},{"PRN":22,"el":11,"az":41,"ss":19,"used":true},{"PRN":24,"el":17,"az":293,"ss":17,"used":true},{"PRN":28,"el":49,"az":145,"ss":35,"used":true},{"PRN":133,"el":23,"az":244,"ss":0,"used":false},{"PRN":135,"el":20,"az":247,"ss":0,"used":false},{"PRN":138,"el":39,"az":223,"ss":0,"used":false}]}
{"class":"TPV","device":"/dev/ttyACM0","mode":3,"time":"2019-05-16T21:16:18.000Z","ept":0.005,"lat":35.909184000,"lon":-78.936791667,"alt":100.100,"epx":9.392,"epy":13.513,"epv":31.970,"track":242.6100,"speed":16.826,"climb":0.000,"eps":27.03}
{"class":"SKY","device":"/dev/ttyACM0","xdop":0.63,"ydop":0.90,"vdop":1.39,"tdop":0.82,"hdop":1.13,"gdop":1.84,"pdop":1.79,"satellites":[{"PRN":1,"el":3,"az":49,"ss":13,"used":false},{"PRN":2,"el":25,"az":240,"ss":26,"used":true},{"PRN":3,"el":27,"az":54,"ss":29,"used":true},{"PRN":6,"el":63,"az":250,"ss":24,"used":true},{"PRN":12,"el":5,"az":319,"ss":0,"used":false},{"PRN":17,"el":62,"az":30,"ss":39,"used":true},{"PRN":19,"el":61,"az":340,"ss":35,"used":true},{"PRN":22,"el":11,"az":41,"ss":18,"used":true},{"PRN":24,"el":17,"az":293,"ss":15,"used":true},{"PRN":28,"el":49,"az":145,"ss":37,"used":true},{"PRN":133,"el":23,"az":244,"ss":0,"used":false},{"PRN":135,"el":20,"az":247,"ss":0,"used":false},{"PRN":138,"el":39,"az":223,"ss":0,"used":false}]}
{"class":"TPV","device":"/dev/ttyACM0","mode":3,"time":"2019-05-16T21:16:19.000Z","ept":0.005,"lat":35.909110833,"lon":-78.936964167,"alt":99.100,"epx":9.392,"epy":13.513,"epv":31.970,"track":242.6900,"speed":17.825,"climb":0.000,"eps":27.03}
{"class":"SKY","device":"/dev/ttyACM0","xdop":0.63,"ydop":0.90,"vdop":1.39,"tdop":0.82,"hdop":1.13,"gdop":1.84,"pdop":1.79,"satellites":[{"PRN":1,"el":3,"az":49,"ss":9,"used":false},{"PRN":2,"el":25,"az":240,"ss":25,"used":true},{"PRN":3,"el":27,"az":54,"ss":28,"used":true},{"PRN":6,"el":63,"az":250,"ss":26,"used":true},{"PRN":12,"el":5,"az":319,"ss":0,"used":false},{"PRN":17,"el":62,"az":30,"ss":39,"used":true},{"PRN":19,"el":61,"az":340,"ss":34,"used":true},{"PRN":22,"el":11,"az":41,"ss":19,"used":true},{"PRN":24,"el":17,"az":293,"ss":14,"used":true},{"PRN":28,"el":49,"az":145,"ss":37,"used":true},{"PRN":133,"el":23,"az":244,"ss":0,"used":false},{"PRN":135,"el":20,"az":247,"ss":0,"used":false},{"PRN":138,"el":39,"az":223,"ss":0,"used":false}]}
{"class":"TPV","device":"/dev/ttyACM0","mode":3,"time":"2019-05-16T21:16:20.000Z","ept":0.005,"lat":35.909034000,"lon":-78.937146000,"alt":98.300,"epx":9.392,"epy":13.513,"epv":31.970,"track":242.7600,"speed":18.722,"climb":0.000,"eps":27.03}
{"class":"SKY","device":"/dev/ttyACM0","xdop":0.63,"ydop":0.90,"vdop":1.39,"tdop":0.82,"hdop":1.13,"gdop":1.84,"pdop":1.79,"satellites":[{"PRN":1,"el":3,"az":49,"ss":0,"used":false},{"PRN":2,"el":25,"az":240,"ss":25,"used":true},{"PRN":3,"el":27,"az":54,"ss":26,"used":true},{"PRN":6,"el":63,"az":250,"ss":26,"used":true},{"PRN":12,"el":5,"az":319,"ss":0,"used":false},{"PRN":17,"el":62,"az":30,"ss":39,"used":true},{"PRN":19,"el":61,"az":340,"ss":36,"used":true},{"PRN":22,"el":11,"az":41,"ss":18,"used":true},{"PRN":24,"el":17,"az":293,"ss":12,"used":true},{"PRN":28,"el":49,"az":145,"ss":38,"used":true},{"PRN":133,"el":23,"az":244,"ss":0,"used":false},{"PRN":135,"el":20,"az":247,"ss":0,"used":false},{"PRN":138,"el":39,"az":223,"ss":0,"used":false}]}
{"class":"TPV","device":"/dev/ttyACM0","mode":3,"time":"2019-05-16T21:16:21.000Z","ept":0.005,"lat":35.908953667,"lon":-78.937336500,"alt":97.300,"epx":9.392,"epy":13.513,"epv":31.970,"track":242.9800,"speed":19.534,"climb":0.000,"eps":27.03}
{"class":"SKY","device":"/dev/ttyACM0","xdop":0.63,"ydop":0.90,"vdop":1.53,"tdop":0.82,"hdop":1.35,"gdop":1.84,"pdop":2.04,"satellites":[{"PRN":1,"el":3,"az":49,"ss":0,"used":false},{"PRN":2,"el":25,"az":241,"ss":25,"used":true},{"PRN":3,"el":27,"az":54,"ss":28,"used":true},{"PRN":6,"el":63,"az":250,"ss":26,"used":true},{"PRN":12,"el":5,"az":319,"ss":0,"used":false},{"PRN":17,"el":62,"az":30,"ss":39,"used":true},{"PRN":19,"el":61,"az":340,"ss":36,"used":true},{"PRN":22,"el":11,"az":41,"ss":17,"used":true},{"PRN":24,"el":17,"az":293,"ss":9,"used":false},{"PRN":28,"el":49,"az":145,"ss":38,"used":true},{"PRN":133,"el":23,"az":244,"ss":0,"used":false},{"PRN":135,"el":20,"az":247,"ss":0,"used":false},{"PRN":138,"el":39,"az":223,"ss":0,"used":false}]}
{"class":"TPV","device":"/dev/ttyACM0","mode":3,"time":"2019-05-16T21:16:22.000Z","ept":0.005,"lat":35.908872833,"lon":-78.937536833,"alt":96.500,"epx":9.392,"epy":13.513,"epv":31.970,"track":244.1100,"speed":20.395,"climb":0.000,"eps":27.03}
{"class":"SKY","device":"/dev/ttyACM0","xdop":0.63,"ydop":0.90,"vdop":1.53,"tdop":0.82,"hdop":1.35,"gdop":1.84,"pdop":2.04,"satellites":[{"PRN":1,"el":3,"az":49,"ss":0,"used":false},{"PRN":2,"el":25,"az":241,"ss":25,"used":true},{"PRN":3,"el":27,"az":53,"ss":29,"used":true},{"PRN":6,"el":63,"az":250,"ss":27,"used":true},{"PRN":12,"el":5,"az":319,"ss":0,"used":false},{"PRN":17,"el":62,"az":30,"ss":38,"used":true},{"PRN":19,"el":61,"az":340,"ss":36,"used":true},{"PRN":22,"el":11,"az":41,"ss":14,"used":true},{"PRN":24,"el":17,"az":293,"ss":0,"used":false},{"PRN":28,"el":49,"az":145,"ss":39,"used":true},{"PRN":133,"el":23,"az":244,"ss":0,"used":false},{"PRN":135,"el":20,"az":247,"ss":0,"used":false},{"PRN":138,"el":39,"az":223,"ss":0,"used":false}]}
{"class":"TPV","device":"/dev/ttyACM0","mode":3,"time":"2019-05-16T21:16:23.000Z","ept":0.005,"lat":35.908793667,"lon":-78.937744000,"alt":95.800,"epx":9.392,"epy":13.513,"epv":35.190,"track":245.2300,"speed":20.701,"climb":0.000,"eps":27.03}
{"class":"SKY","device":"/dev/ttyACM0","xdop":0.63,"ydop":0.90,"vdop":1.53,"tdop":0.82,"hdop":1.35,"gdop":1.84,"pdop":2.04,"satellites":[{"PRN":1,"el":3,"az":49,"ss":0,"used":false},{"PRN":2,"el":25,"az":241,"ss":26,"used":true},{"PRN":3,"el":27,"az":53,"ss":30,"used":true},{"PRN":6,"el":63,"az":250,"ss":29,"used":true},{"PRN":12,"el":5,"az":319,"ss":0,"used":false},{"PRN":17,"el":62,"az":30,"ss":39,"used":true},{"PRN":19,"el":61,"az":340,"ss":37,"used":true},{"PRN":22,"el":11,"az":41,"ss":12,"used":true},{"PRN":24,"el":17,"az":293,"ss":0,"used":false},{"PRN":28,"el":49,"az":145,"ss":40,"used":true},{"PRN":133,"el":23,"az":244,"ss":0,"used":false},{"PRN":135,"el":20,"az":247,"ss":0,"used":false},{"PRN":138,"el":39,"az":223,"ss":0,"used":false}]}
{"class":"TPV","device":"/dev/ttyACM0","mode":3,"time":"2019-05-16T21:16:24.000Z","ept":0.005,"lat":35.908716667,"lon":-78.937954167,"alt":95.300,"epx":9.392,"epy":13.513,"epv":35.190,"track":245.9500,"speed":20.756,"climb":0.000,"eps":27.03}
{"class":"SKY","device":"/dev/ttyACM0","xdop":0.63,"ydop":0.90,"vdop":2.07,"tdop":0.82,"hdop":1.41,"gdop":1.84,"pdop":2.50,"satellites":[{"PRN":1,"el":3,"az":49,"ss":0,"used":false},{"PRN":2,"el":25,"az":241,"ss":26,"used":true},{"PRN":3,"el":27,"az":53,"ss":30,"used":true},{"PRN":6,"el":63,"az":251,"ss":28,"used":true},{"PRN":12,"el":5,"az":319,"ss":0,"used":false},{"PRN":17,"el":62,"az":30,"ss":38,"used":true},{"PRN":19,"el":61,"az":340,"ss":36,"used":true},{"PRN":22,"el":11,"az":41,"ss":12,"used":false},{"PRN":24,"el":17,"az":293,"ss":0,"used":false},{"PRN":28,"el":49,"az":145,"ss":39,"used":true},{"PRN":133,"el":23,"az":244,"ss":0,"used":false},{"PRN":135,"el":20,"az":247,"ss":0,"used":false},{"PRN":138,"el":39,"az":223,"ss":0,"used":false}]}
{"class":"TPV","device":"/dev/ttyACM0","mode":3,"time":"2019-05-16T21:16:25.000Z","ept":0.005,"lat":35.908640667,"lon":-78.938167333,"alt":94.700,"epx":9.392,"epy":13.513,"epv":35.190,"track":246.4100,"speed":21.128,"climb":0.000,"eps":27.03}
{"class":"SKY","device":"/dev/ttyACM0","xdop":0.63,"ydop":0.90,"vdop":1.53,"tdop":0.82,"hdop":1.35,"gdop":1.84,"pdop":2.04,"satellites":[{"PRN":1,"el":3,"az":49,"ss":0,"used":false},{"PRN":2,"el":25,"az":241,"ss":27,"used":true},{"PRN":3,"el":27,"az":53,"ss":30,"used":true},{"PRN":6,"el":63,"az":251,"ss":28,"used":true},{"PRN":12,"el":5,"az":319,"ss":0,"used":false},{"PRN":17,"el":62,"az":30,"ss":38,"used":true},{"PRN":19,"el":61,"az":340,"ss":36,"used":true},{"PRN":22,"el":11,"az":41,"ss":11,"used":true},{"PRN":24,"el":17,"az":293,"ss":0,"used":false},{"PRN":28,"el":49,"az":145,"ss":40,"used":true},{"PRN":133,"el":23,"az":244,"ss":0,"used":false},{"PRN":135,"el":20,"az":247,"ss":0,"used":false},{"PRN":138,"el":39,"az":223,"ss":0,"used":false}]}
{"class":"TPV","device":"/dev/ttyACM0","mode":3,"time":"2019-05-16T21:16:26.000Z","ept":0.005,"lat":35.908565333,"lon":-78.938384833,"alt":94.200,"epx":9.392,"epy":13.513,"epv":47.610,"track":247.1100,"speed":21.416,"climb":0.000,"eps":27.03}
{"class":"SKY","device":"/dev/ttyACM0","xdop":0.63,"ydop":0.90,"vdop":1.53,"tdop":0.82,"hdop":1.35,"gdop":1.84,"pdop":2.04,"satellites":[{"PRN":1,"el":3,"az":49,"ss":0,"used":false},{"PRN":2,"el":25,"az":241,"ss":29,"used":true},{"PRN":3,"el":27,"az":53,"ss":31,"used":true},{"PRN":6,"el":63,"az":251,"ss":29,"used":true},{"PRN":12,"el":5,"az":319,"ss":0,"used":false},{"PRN":17,"el":62,"az":30,"ss":38,"used":true},{"PRN":19,"el":61,"az":340,"ss":36,"used":true},{"PRN":22,"el":11,"az":41,"ss":11,"used":true},{"PRN":24,"el":17,"az":293,"ss":0,"used":false},{"PRN":28,"el":49,"az":145,"ss":41,"used":true},{"PRN":133,"el":23,"az":244,"ss":0,"used":false},{"PRN":135,"el":20,"az":247,"ss":0,"used":false},{"PRN":138,"el":39,"az":223,"ss":0,"used":false}]}
{"class":"TPV","device":"/dev/ttyACM0","mode":3,"time":"2019-05-16T21:16:27.000Z","ept":0.005,"lat":35.908492500,"lon":-78.938607167,"alt":94.100,"epx":9.392,"epy":13.513,"epv":35.190,"track":248.3600,"speed":21.771,"climb":0.000,"eps":27.03}
{"class":"SKY","device":"/dev/ttyACM0","xdop":0.63,"ydop":0.90,"vdop":2.07,"tdop":0.82,"hdop":1.41,"gdop":1.84,"pdop":2.50,"satellites":[{"PRN":1,"el":3,"az":49,"ss":0,"used":false},{"PRN":2,"el":25,"az":241,"ss":34,"used":true},{"PRN":3,"el":27,"az":53,"ss":33,"used":true},{"PRN":6,"el":63,"az":251,"ss":31,"used":true},{"PRN":12,"el":5,"az":319,"ss":0,"used":false},{"PRN":17,"el":62,"az":30,"ss":34,"used":true},{"PRN":19,"el":61,"az":340,"ss":38,"used":true},{"PRN":22,"el":11,"az":41,"ss":9,"used":false},{"PRN":24,"el":17,"az":293,"ss":0,"used":false},{"PRN":28,"el":49,"az":145,"ss":41,"used":true},{"PRN":133,"el":23,"az":244,"ss":0,"used":false},{"PRN":135,"el":20,"az":247,"ss":0,"used":false},{"PRN":138,"el":39,"az":223,"ss":0,"used":false}]}
{"class":"TPV","device":"/dev/ttyACM0","mode":3,"time":"2019-05-16T21:16:28.000Z","ept":0.005,"lat":35.908426000,"lon":-78.938836833,"alt":94.200,"epx":9.392,"epy":13.513,"epv":35.190,"track":251.2500,"speed":22.192,"climb":0.000,"eps":27.03}
{"class":"SKY","device":"/dev/ttyACM0","xdop":0.63,"ydop":0.90,"vdop":2.07,"tdop":0.82,"hdop":1.41,"gdop":1.84,"pdop":2.50,"satellites":[{"PRN":1,"el":3,"az":49,"ss":0,"used":false},{"PRN":2,"el":25,"az":241,"ss":35,"used":true},{"PRN":3,"el":27,"az":53,"ss":31,"used":true},{"PRN":6,"el":63,"az":251,"ss":31,"used":true},{"PRN":12,"el":5,"az":319,"ss":0,"used":false},{"PRN":17,"el":62,"az":30,"ss":35,"used":true},{"PRN":19,"el":61,"az":340,"ss":38,"used":true},{"PRN":22,"el":11,"az":41,"ss":10,"used":false},{"PRN":24,"el":17,"az":293,"ss":0,"used":false},{"PRN":28,"el":49,"az":145,"ss":39,"used":true},{"PRN":133,"el":23,"az":244,"ss":0,"used":false},{"PRN":135,"el":20,"az":247,"ss":0,"used":false},{"PRN":138,"el":39,"az":223,"ss":0,"used":false}]}
{"class":"TPV","device":"/dev/ttyACM0","mode":3,"time":"2019-05-16T21:16:29.000Z","ept":0.005,"lat":35.908367500,"lon":-78.939076000,"alt":94.300,"epx":9.392,"epy":13.513,"epv":47.610,"track":253.9400,"speed":22.797,"climb":0.000,"eps":27.03}
{"class":"SKY","device":"/dev/ttyACM0","xdop":0.63,"ydop":0.90,"vdop":2.07,"tdop":0.82,"hdop":1.41,"gdop":1.84,"pdop":2.50,"satellites":[{"PRN":1,"el":3,"az":49,"ss":0,"used":false},{"PRN":2,"el":25,"az":241,"ss":36,"used":true},{"PRN":3,"el":27,"az":53,"ss":30,"used":true},{"PRN":6,"el":63,"az":251,"ss":31,"used":true},{"PRN":12,"el":5,"az":319,"ss":0,"used":false},{"PRN":17,"el":62,"az":30,"ss":37,"used":true},{"PRN":19,"el":61,"az":340,"ss":37,"used":true},{"PRN":22,"el":11,"az":41,"ss":10,"used":false},{"PRN":24,"el":17,"az":293,"ss":0,"used":false},{"PRN":28,"el":49,"az":145,"ss":39,"used":true},{"PRN":133,"el":23,"az":244,"ss":0,"used":false},{"PRN":135,"el":20,"az":247,"ss":0,"used":false},{"PRN":138,"el":39,"az":223,"ss":0,"used":false}]}
{"class":"TPV","device":"/dev/ttyACM0","mode":3,"time":"2019-05-16T21:16:30.000Z","ept":0.005,"lat":35.908313000,"lon":-78.939324833,"alt":94.100,"epx":9.392,"epy":13.513,"epv":47.610,"track":255.2300,"speed":23.450,"climb":0.000,"eps":27.03}
{"class":"SKY","device":"/dev/ttyACM0","xdop":0.63,"ydop":0.90,"vdop":2.07,"tdop":0.82,"hdop":1.41,"gdop":1.84,"pdop":2.50,"satellites":[{"PRN":1,"el":3,"az":49,"ss":0,"used":false},{"PRN":2,"el":25,"az":241,"ss":36,"used":true},{"PRN":3,"el":27,"az":53,"ss":30,"used":true},{"PRN":6,"el":63,"az":251,"ss":31,"used":true},{"PRN":12,"el":5,"az":319,"ss":0,"used":false},{"PRN":17,"el":62,"az":30,"ss":37,"used":true},{"PRN":19,"el":61,"az":340,"ss":35,"used":true},{"PRN":22,"el":11,"az":41,"ss":9,"used":false},{"PRN":24,"el":17,"az":293,"ss":0,"used":false},{"PRN":28,"el":49,"az":145,"ss":37,"used":true},{"PRN":133,"el":23,"az":244,"ss":0,"used":false},{"PRN":135,"el":20,"az":247,"ss":0,"used":false},{"PRN":138,"el":39,"az":223,"ss":0,"used":false}]}
{"class":"TPV","device":"/dev/ttyACM0","mode":3,"time":"2019-05-16T21:16:31.000Z","ept":0.005,"lat":35.908260167,"lon":-78.939580000,"alt":94.100,"epx":9.392,"epy":13.513,"epv":47.610,"track":255.9000,"speed":23.940,"climb":0.000,"eps":27.03}
{"class":"SKY","device":"/dev/ttyACM0","xdop":0.63,"ydop":0.90,"vdop":2.07,"tdop":0.82,"hdop":1.41,"gdop":1.84,"pdop":2.50,"satellites":[{"PRN":1,"el":3,"az":49,"ss":0,"used":false},{"PRN":2,"el":25,"az":241,"ss":36,"used":true},{"PRN":3,"el":27,"az":53,"ss":29,"used":true},{"PRN":6,"el":63,"az":251,"ss":30,"used":true},{"PRN":12,"el":5,"az":319,"ss":0,"used":false},{"PRN":17,"el":62,"az":30,"ss":37,"used":true},{"PRN":19,"el":61,"az":340,"ss":37,"used":true},{"PRN":22,"el":11,"az":41,"ss":0,"used":false},{"PRN":24,"el":17,"az":293,"ss":0,"used":false},{"PRN":28,"el":49,"az":145,"ss":38,"used":true},{"PRN":133,"el":23,"az":244,"ss":0,"used":false},{"PRN":135,"el":20,"az":247,"ss":0,"used":false},{"PRN":138,"el":39,"az":223,"ss":0,"used":false}]}
{"class":"TPV","device":"/dev/ttyACM0","mode":3,"time":"2019-05-16T21:16:32.000Z","ept":0.005,"lat":35.908206167,"lon":-78.939838500,"alt":94.000,"epx":9.392,"epy":13.513,"epv":47.610,"track":255.4500,"speed":24.083,"climb":0.000,"eps":27.03}
{"class":"SKY","device":"/dev/ttyACM0","xdop":0.63,"ydop":0.90,"vdop":2.07,"tdop":0.82,"hdop":1.41,"gdop":1.84,"pdop":2.50,"satellites":[{"PRN":1,"el":3,"az":49,"ss":0,"used":false},{"PRN":2,"el":25,"az":241,"ss":36,"used":true},{"PRN":3,"el":27,"az":53,"ss":29,"used":true},{"PRN":6,"el":63,"az":251,"ss":30,"used":true},{"PRN":12,"el":5,"az":319,"ss":0,"used":false},{"PRN":17,"el":62,"az":30,"ss":37,"used":true},{"PRN":19,"el":61,"az":340,"ss":37,"used":true},{"PRN":22,"el":11,"az":41,"ss":0,"used":false},{"PRN":24,"el":17,"az":293,"ss":0,"used":false},{"PRN":28,"el":49,"az":145,"ss":39,"used":true},{"PRN":133,"el":23,"az":244,"ss":0,"used":false},{"PRN":135,"el":20,"az":247,"ss":0,"used":false},{"PRN":138,"el":39,"az":223,"ss":0,"used":false}]}
{"class":"TPV","device":"/dev/ttyACM0","mode":3,"time":"2019-05-16T21:16:33.000Z","ept":0.005,"lat":35.908148500,"lon":-78.940097000,"alt":93.800,"epx":9.392,"epy":13.513,"epv":47.610,"track":254.4200,"speed":24.185,"climb":0.000,"eps":27.03}
{"class":"SKY","device":"/dev/ttyACM0","xdop":0.63,"ydop":0.90,"vdop":2.07,"tdop":0.82,"hdop":1.41,"gdop":1.84,"pdop":2.50,"satellites":[{"PRN":1,"el":3,"az":49,"ss":0,"used":false},{"PRN":2,"el":25,"az":241,"ss":36,"used":true},{"PRN":3,"el":27,"az":53,"ss":28,"used":true},{"PRN":6,"el":63,"az":251,"ss":30,"used":true},{"PRN":12,"el":5,"az":319,"ss":0,"used":false},{"PRN":17,"el":62,"az":30,"ss":37,"used":true},{"PRN":19,"el":61,"az":340,"ss":38,"used":true},{"PRN":22,"el":11,"az":41,"ss":0,"used":false},{"PRN":24,"el":17,"az":293,"ss":0,"used":false},{"PRN":28,"el":49,"az":145,"ss":39,"used":true},{"PRN":133,"el":23,"az":244,"ss":0,"used":false},{"PRN":135,"el":20,"az":247,"ss":0,"used":false},{"PRN":138,"el":39,"az":223,"ss":0,"used":false}]}
{"class":"TPV","device":"/dev/ttyACM0","mode":3,"time":"2019-05-16T21:16:34.000Z","ept":0.005,"lat":35.908088833,"lon":-78.940355833,"alt":93.500,"epx":9.392,"epy":13.513,"epv":47.610,"track":254.2200,"speed":24.336,"climb":0.000,"eps":27.03}
{"class":"SKY","device":"/dev/ttyACM0","xdop":0.63,"ydop":0.90,"vdop":2.07,"tdop":0.82,"hdop":1.41,"gdop":1.84,"pdop":2.50,"satellites":[{"PRN":1,"el":3,"az":49,"ss":0,"used":false},{"PRN":2,"el":25,"az":241,"ss":36,"used":true},{"PRN":3,"el":27,"az":53,"ss":29,"used":true},{"PRN":6,"el":63,"az":251,"ss":31,"used":true},{"PRN":12,"el":5,"az":319,"ss":0,"used":false},{"PRN":17,"el":62,"az":30,"ss":36,"used":true},{"PRN":19,"el":61,"az":340,"ss":38,"used":true},{"PRN":22,"el":11,"az":41,"ss":0,"used":false},{"PRN":24,"el":17,"az":293,"ss":0,"used":false},{"PRN":28,"el":49,"az":145,"ss":39,"used":true},{"PRN":133,"el":23,"az":244,"ss":0,"used":false},{"PRN":135,"el":20,"az":247,"ss":0,"used":false},{"PRN":138,"el":39,"az":223,"ss":0,"used":false}]}
{"class":"TPV","device":"/dev/ttyACM0","mode":3,"time":"2019-05-16T21:16:35.000Z","ept":0.005,"lat":35.908029833,"lon":-78.940616667,"alt":93.400,"epx":9.392,"epy":13.513,"epv":47.610,"track":254.5500,"speed":24.480,"climb":0.000,"eps":27.03}
{"class":"SKY","device":"/dev/ttyACM0","xdop":0.63,"ydop":0.90,"vdop":2.07,"tdop":0.82,"hdop":1.41,"gdop":1.84,"pdop":2.50,"satellites":[{"PRN":1,"el":3,"az":49,"ss":0,"used":false},{"PRN":2,"el":25,"az":241,"ss":36,"used":true},{"PRN":3,"el":27,"az":53,"ss":29,"used":true},{"PRN":6,"el":63,"az":251,"ss":31,"used":true},{"PRN":12,"el":5,"az":319,"ss":0,"used":false},{"PRN":17,"el":62,"az":31,"ss":36,"used":true},{"PRN":19,"el":61,"az":340,"ss":37,"used":true},{"PRN":22,"el":11,"az":41,"ss":0,"used":false},{"PRN":24,"el":17,"az":293,"ss":0,"used":false},{"PRN":28,"el":49,"az":145,"ss":39,"used":true},{"PRN":133,"el":23,"az":244,"ss":0,"used":false},{"PRN":135,"el":20,"az":247,"ss":0,"used":false},{"PRN":138,"el":39,"az":223,"ss":0,"used":false}]}
{"class":"TPV","device":"/dev/ttyACM0","mode":3,"time":"2019-05-16T21:16:36.000Z","ept":0.005,"lat":35.907972500,"lon":-78.940880333,"alt":93.200,"epx":9.392,"epy":13.513,"epv":47.610,"track":255.3600,"speed":24.692,"climb":0.000,"eps":27.03}
{"class":"SKY","device":"/dev/ttyACM0","xdop":0.63,"ydop":0.90,"vdop":2.07,"tdop":0.82,"hdop":1.41,"gdop":1.84,"pdop":2.50,"satellites":[{"PRN":1,"el":3,"az":49,"ss":0,"used":false},{"PRN":2,"el":25,"az":241,"ss":36,"used":true},{"PRN":3,"el":27,"az":53,"ss":29,"used":true},{"PRN":6,"el":63,"az":251,"ss":32,"used":true},{"PRN":12,"el":5,"az":319,"ss":0,"used":false},{"PRN":17,"el":62,"az":31,"ss":36,"used":true},{"PRN":19,"el":61,"az":340,"ss":37,"used":true},{"PRN":22,"el":11,"az":41,"ss":0,"used":false},{"PRN":24,"el":17,"az":293,"ss":0,"used":false},{"PRN":28,"el":49,"az":145,"ss":38,"used":true},{"PRN":133,"el":23,"az":244,"ss":0,"used":false},{"PRN":135,"el":20,"az":247,"ss":0,"used":false},{"PRN":138,"el":39,"az":223,"ss":0,"used":false}]}
{"class":"TPV","device":"/dev/ttyACM0","mode":3,"time":"2019-05-16T21:16:37.000Z","ept":0.005,"lat":35.907917000,"lon":-78.941148667,"alt":93.100,"epx":9.392,"epy":13.513,"epv":47.610,"track":255.8800,"speed":25.043,"climb":0.000,"eps":27.03}
{"class":"SKY","device":"/dev/ttyACM0","xdop":0.63,"ydop":0.90,"vdop":2.07,"tdop":0.82,"hdop":1.41,"gdop":1.84,"pdop":2.50,"satellites":[{"PRN":1,"el":3,"az":49,"ss":0,"used":false},{"PRN":2,"el":25,"az":241,"ss":36,"used":true},{"PRN":3,"el":27,"az":53,"ss":29,"used":true},{"PRN":6,"el":63,"az":251,"ss":32,"used":true},{"PRN":12,"el":5,"az":319,"ss":0,"used":false},{"PRN":17,"el":62,"az":31,"ss":36,"used":true},{"PRN":19,"el":61,"az":341,"ss":37,"used":true},{"PRN":22,"el":11,"az":41,"ss":0,"used":false},{"PRN":24,"el":17,"az":293,"ss":0,"used":false},{"PRN":28,"el":49,"az":145,"ss":38,"used":true},{"PRN":133,"el":23,"az":244,"ss":0,"used":false},{"PRN":135,"el":20,"az":247,"ss":0,"used":false},{"PRN":138,"el":39,"az":223,"ss":0,"used":false}]}
{"class":"TPV","device":"/dev/ttyACM0","mode":3,"time":"2019-05-16T21:16:38.000Z","ept":0.005,"lat":35.907861000,"lon":-78.941420333,"alt":93.000,"epx":9.392,"epy":13.513,"epv":47.610,"track":255.8100,"speed":25.350,"climb":0.000,"eps":27.03}
{"class":"SKY","device":"/dev/ttyACM0","xdop":0.63,"ydop":0.90,"vdop":2.07,"tdop":0.82,"hdop":1.41,"gdop":1.84,"pdop":2.50,"satellites":[{"PRN":1,"el":3,"az":49,"ss":0,"used":false},{"PRN":2,"el":25,"az":241,"ss":36,"used":true},{"PRN":3,"el":27,"az":53,"ss":30,"used":true},{"PRN":6,"el":63,"az":251,"ss":32,"used":true},{"PRN":12,"el":5,"az":319,"ss":0,"used":false},{"PRN":17,"el":62,"az":31,"ss":36,"used":true},{"PRN":19,"el":61,"az":341,"ss":36,"used":true},{"PRN":22,"el":11,"az":41,"ss":0,"used":false},{"PRN":24,"el":17,"az":293,"ss":0,"used":false},{"PRN":28,"el":49,"az":145,"ss":38,"used":true},{"PRN":133,"el":23,"az":244,"ss":0,"used":false},{"PRN":135,"el":20,"az":247,"ss":0,"used":false},{"PRN":138,"el":39,"az":223,"ss":0,"used":false}]}
{"class":"TPV","device":"/dev/ttyACM0","mode":3,"time":"2019-05-16T21:16:39.000Z","ept":0.005,"lat":35.907804667,"lon":-78.941694833,"alt":92.800,"epx":9.392,"epy":13.513,"epv":47.610,"track":255.9000,"speed":25.638,"climb":0.000,"eps":27.03}
{"class":"SKY","device":"/dev/ttyACM0","xdop":0.63,"ydop":0.90,"vdop":2.07,"tdop":0.82,"hdop":1.41,"gdop":1.84,"pdop":2.50,"satellites":[{"PRN":1,"el":3,"az":49,"ss":0,"used":false},{"PRN":2,"el":25,"az":241,"ss":35,"used":true},{"PRN":3,"el":27,"az":53,"ss":29,"used":true},{"PRN":6,"el":63,"az":251,"ss":31,"used":true},{"PRN":12,"el":5,"az":319,"ss":0,"used":false},{"PRN":17,"el":62,"az":31,"ss":36,"used":true},{"PRN":19,"el":61,"az":341,"ss":36,"used":true},{"PRN":22,"el":11,"az":41,"ss":0,"used":false},{"PRN":24,"el":17,"az":293,"ss":0,"used":false},{"PRN":28,"el":49,"az":145,"ss":37,"used":true},{"PRN":133,"el":23,"az":244,"ss":0,"used":false},{"PRN":135,"el":20,"az":247,"ss":0,"used":false},{"PRN":138,"el":39,"az":223,"ss":0,"used":false}]}
{"class":"TPV","device":"/dev/ttyACM0","mode":3,"time":"2019-05-16T21:16:40.000Z","ept":0.005,"lat":35.907748167,"lon":-78.941973500,"alt":92.600,"epx":9.392,"epy":13.513,"epv":47.610,"track":256.1100,"speed":26.033,"climb":0.000,"eps":27.03}
{"class":"SKY","device":"/dev/ttyACM0","xdop":0.63,"ydop":0.90,"vdop":2.07,"tdop":0.82,"hdop":1.41,"gdop":1.84,"pdop":2.50,"satellites":[{"PRN":1,"el":3,"az":49,"ss":0,"used":false},{"PRN":2,"el":25,"az":241,"ss":35,"used":true},{"PRN":3,"el":27,"az":53,"ss":29,"used":true},{"PRN":6,"el":63,"az":251,"ss":31,"used":true},{"PRN":12,"el":5,"az":319,"ss":0,"used":false},{"PRN":17,"el":62,"az":31,"ss":36,"used":true},{"PRN":19,"el":61,"az":341,"ss":36,"used":true},{"PRN":22,"el":10,"az":41,"ss":0,"used":false},{"PRN":24,"el":17,"az":293,"ss":0,"used":false},{"PRN":28,"el":49,"az":145,"ss":37,"used":true},{"PRN":133,"el":23,"az":244,"ss":0,"used":false},{"PRN":135,"el":20,"az":247,"ss":0,"used":false},{"PRN":138,"el":39,"az":223,"ss":0,"used":false}]}
{"class":"TPV","device":"/dev/ttyACM0","mode":3,"time":"2019-05-16T21:16:41.000Z","ept":0.005,"lat":35.907691000,"lon":-78.942256667,"alt":92.400,"epx":9.392,"epy":13.513,"epv":47.610,"track":256.1300,"speed":26.460,"climb":0.000,"eps":27.03}
{"class":"SKY","device":"/dev/ttyACM0","xdop":0.63,"ydop":0.90,"vdop":2.07,"tdop":0.82,"hdop":1.41,"gdop":1.84,"pdop":2.50,"satellites":[{"PRN":1,"el":3,"az":49,"ss":0,"used":false},{"PRN":2,"el":25,"az":241,"ss":35,"used":true},{"PRN":3,"el":27,"az":53,"ss":30,"used":true},{"PRN":6,"el":63,"az":251,"ss":31,"used":true},{"PRN":12,"el":5,"az":319,"ss":0,"used":false},{"PRN":17,"el":62,"az":31,"ss":36,"used":true},{"PRN":19,"el":61,"az":341,"ss":35,"used":true},{"PRN":22,"el":10,"az":41,"ss":0,"used":false},{"PRN":24,"el":17,"az":293,"ss":0,"used":false},{"PRN":28,"el":49,"az":145,"ss":37,"used":true},{"PRN":133,"el":23,"az":244,"ss":0,"used":false},{"PRN":135,"el":20,"az":247,"ss":0,"used":false},{"PRN":138,"el":39,"az":223,"ss":0,"used":false}]}
{"class":"TPV","device":"/dev/ttyACM0","mode":3,"time":"2019-05-16T21:16:42.000Z","ept":0.005,"lat":35.907633667,"lon":-78.942544333,"alt":92.100,"epx":9.392,"epy":13.513,"epv":47.610,"track":256.2600,"speed":26.851,"climb":0.000,"eps":27.03}
{"class":"SKY","device":"/dev/ttyACM0","xdop":0.63,"ydop":0.90,"vdop":2.07,"tdop":0.82,"hdop":1.41,"gdop":1.84,"pdop":2.50,"satellites":[{"PRN":1,"el":3,"az":49,"ss":0,"used":false},{"PRN":2,"el":25,"az":241,"ss":35,"used":true},{"PRN":3,"el":27,"az":53,"ss":30,"used":true},{"PRN":6,"el":63,"az":251,"ss":31,"used":true},{"PRN":12,"el":5,"az":319,"ss":0,"used":false},{"PRN":17,"el":62,"az":31,"ss":36,"used":true},{"PRN":19,"el":61,"az":341,"ss":35,"used":true},{"PRN":22,"el":10,"az":41,"ss":0,"used":false},{"PRN":24,"el":17,"az":292,"ss":0,"used":false},{"PRN":28,"el":49,"az":145,"ss":37,"used":true},{"PRN":133,"el":23,"az":244,"ss":0,"used":false},{"PRN":135,"el":20,"az":247,"ss":0,"used":false},{"PRN":138,"el":39,"az":223,"ss":0,"used":false}]}
{"class":"TPV","device":"/dev/ttyACM0","mode":3,"time":"2019-05-16T21:16:43.000Z","ept":0.005,"lat":35.907575500,"lon":-78.942835833,"alt":92.000,"epx":9.392,"epy":13.513,"epv":47.610,"track":256.2700,"speed":27.191,"climb":0.000,"eps":27.03}
{"class":"SKY","device":"/dev/ttyACM0","xdop":0.63,"ydop":0.90,"vdop":2.07,"tdop":0.82,"hdop":1.41,"gdop":1.84,"pdop":2.50,"satellites":[{"PRN":1,"el":3,"az":49,"ss":0,"used":false},{"PRN":2,"el":25,"az":241,"ss":26,"used":true},{"PRN":3,"el":27,"az":53,"ss":30,"used":true},{"PRN":6,"el":63,"az":251,"ss":32,"used":true},{"PRN":12,"el":5,"az":319,"ss":0,"used":false},{"PRN":17,"el":62,"az":31,"ss":36,"used":true},{"PRN":19,"el":61,"az":341,"ss":35,"used":true},{"PRN":22,"el":10,"az":41,"ss":0,"used":false},{"PRN":24,"el":17,"az":292,"ss":7,"used":false},{"PRN":28,"el":49,"az":145,"ss":37,"used":true},{"PRN":133,"el":23,"az":244,"ss":0,"used":false},{"PRN":135,"el":20,"az":247,"ss":0,"used":false},{"PRN":138,"el":39,"az":223,"ss":0,"used":false}]}
{"class":"TPV","device":"/dev/ttyACM0","mode":3,"time":"2019-05-16T21:16:44.000Z","ept":0.005,"lat":35.907516000,"lon":-78.943132833,"alt":91.900,"epx":9.392,"epy":13.513,"epv":47.610,"track":256.2000,"speed":27.754,"climb":0.000,"eps":27.03}
{"class":"SKY","device":"/dev/ttyACM0","xdop":0.63,"ydop":0.90,"vdop":2.07,"tdop":0.82,"hdop":1.41,"gdop":1.84,"pdop":2.50,"satellites":[{"PRN":1,"el":3,"az":49,"ss":0,"used":false},{"PRN":2,"el":25,"az":241,"ss":35,"used":true},{"PRN":3,"el":27,"az":53,"ss":29,"used":true},{"PRN":6,"el":63,"az":251,"ss":27,"used":true},{"PRN":12,"el":5,"az":319,"ss":0,"used":false},{"PRN":17,"el":62,"az":31,"ss":35,"used":true},{"PRN":19,"el":61,"az":341,"ss":35,"used":true},{"PRN":22,"el":10,"az":41,"ss":0,"used":false},{"PRN":24,"el":17,"az":292,"ss":8,"used":false},{"PRN":28,"el":49,"az":145,"ss":36,"used":true},{"PRN":133,"el":23,"az":244,"ss":0,"used":false},{"PRN":135,"el":20,"az":247,"ss":0,"used":false},{"PRN":138,"el":39,"az":223,"ss":0,"used":false}]}
{"class":"TPV","device":"/dev/ttyACM0","mode":3,"time":"2019-05-16T21:16:45.000Z","ept":0.005,"lat":35.907458167,"lon":-78.943433333,"alt":91.600,"epx":9.392,"epy":13.513,"epv":47.610,"track":256.8800,"speed":27.891,"climb":0.000,"eps":27.03}
{"class":"SKY","device":"/dev/ttyACM0","xdop":0.63,"ydop":0.90,"vdop":2.07,"tdop":0.82,"hdop":1.41,"gdop":1.84,"pdop":2.50,"satellites":[{"PRN":1,"el":3,"az":49,"ss":0,"used":false},{"PRN":2,"el":25,"az":241,"ss":35,"used":true},{"PRN":3,"el":27,"az":53,"ss":30,"used":true},{"PRN":6,"el":63,"az":251,"ss":30,"used":true},{"PRN":12,"el":5,"az":319,"ss":0,"used":false},{"PRN":17,"el":62,"az":31,"ss":35,"used":true},{"PRN":19,"el":61,"az":341,"ss":35,"used":true},{"PRN":22,"el":10,"az":41,"ss":0,"used":false},{"PRN":24,"el":17,"az":292,"ss":10,"used":false},{"PRN":28,"el":49,"az":145,"ss":36,"used":true},{"PRN":133,"el":23,"az":244,"ss":0,"used":false},{"PRN":135,"el":20,"az":247,"ss":0,"used":false},{"PRN":138,"el":39,"az":223,"ss":0,"used":false}]}
{"class":"TPV","device":"/dev/ttyACM0","mode":3,"time":"2019-05-16T21:16:46.000Z","ept":0.005,"lat":35.907398333,"lon":-78.943735500,"alt":91.500,"epx":9.392,"epy":13.513,"epv":47.610,"track":256.2400,"speed":28.169,"climb":0.000,"eps":27.03}
{"class":"SKY","device":"/dev/ttyACM0","xdop":0.63,"ydop":0.90,"vdop":2.07,"tdop":0.82,"hdop":1.41,"gdop":1.84,"pdop":2.50,"satellites":[{"PRN":1,"el":3,"az":49,"ss":0,"used":false},{"PRN":2,"el":25,"az":241,"ss":35,"used":true},{"PRN":3,"el":27,"az":53,"ss":30,"used":true},{"PRN":6,"el":63,"az":251,"ss":31,"used":true},{"PRN":12,"el":5,"az":319,"ss":0,"used":false},{"PRN":17,"el":62,"az":31,"ss":36,"used":true},{"PRN":19,"el":61,"az":341,"ss":36,"used":true},{"PRN":22,"el":10,"az":41,"ss":0,"used":false},{"PRN":24,"el":17,"az":292,"ss":8,"used":false},{"PRN":28,"el":49,"az":145,"ss":37,"used":true},{"PRN":133,"el":23,"az":244,"ss":0,"used":false},{"PRN":135,"el":20,"az":247,"ss":0,"used":false},{"PRN":138,"el":39,"az":223,"ss":0,"used":false}]}
{"class":"TPV","device":"/dev/ttyACM0","mode":3,"time":"2019-05-16T21:16:47.000Z","ept":0.005,"lat":35.907337333,"lon":-78.944040167,"alt":91.600,"epx":9.392,"epy":13.513,"epv":47.610,"track":256.2100,"speed":28.426,"climb":0.000,"eps":27.03}
{"class":"SKY","device":"/dev/ttyACM0","xdop":0.63,"ydop":0.90,"vdop":2.07,"tdop":0.82,"hdop":1.41,"gdop":1.84,"pdop":2.50,"satellites":[{"PRN":1,"el":3,"az":49,"ss":0,"used":false},{"PRN":2,"el":25,"az":241,"ss":35,"used":true},{"PRN":3,"el":27,"az":53,"ss":30,"used":true},{"PRN":6,"el":63,"az":251,"ss":30,"used":true},{"PRN":12,"el":5,"az":319,"ss":0,"used":false},{"PRN":17,"el":62,"az":31,"ss":37,"used":true},{"PRN":19,"el":61,"az":341,"ss":36,"used":true},{"PRN":22,"el":10,"az":41,"ss":0,"used":false},{"PRN":24,"el":17,"az":292,"ss":0,"used":false},{"PRN":28,"el":49,"az":145,"ss":37,"used":true},{"PRN":133,"el":23,"az":244,"ss":35,"used":false},{"PRN":135,"el":20,"az":247,"ss":0,"used":false},{"PRN":138,"el":39,"az":223,"ss":0,"used":false}]}
{"class":"TPV","device":"/dev/ttyACM0","mode":3,"time":"2019-05-16T21:16:48.000Z","ept":0.005,"lat":35.907276167,"lon":-78.944346167,"alt":91.600,"epx":9.392,"epy":13.513,"epv":47.610,"track":256.4600,"speed":28.555,"climb":0.000,"eps":27.03}
{"class":"SKY","device":"/dev/ttyACM0","xdop":0.63,"ydop":0.90,"vdop":2.07,"tdop":0.82,"hdop":1.41,"gdop":1.84,"pdop":2.50,"satellites":[{"PRN":1,"el":3,"az":49,"ss":0,"used":false},{"PRN":2,"el":25,"az":241,"ss":34,"used":true},{"PRN":3,"el":27,"az":53,"ss":29,"used":true},{"PRN":6,"el":63,"az":251,"ss":29,"used":true},{"PRN":12,"el":5,"az":319,"ss":0,"used":false},{"PRN":17,"el":62,"az":31,"ss":32,"used":true},{"PRN":19,"el":61,"az":341,"ss":35,"used":true},{"PRN":22,"el":10,"az":41,"ss":0,"used":false},{"PRN":24,"el":17,"az":292,"ss":0,"used":false},{"PRN":28,"el":49,"az":145,"ss":35,"used":true},{"PRN":133,"el":23,"az":244,"ss":34,"used":false},{"PRN":135,"el":20,"az":247,"ss":0,"used":false},{"PRN":138,"el":39,"az":223,"ss":0,"used":false}]}
{"class":"TPV","device":"/dev/ttyACM0","mode":3,"time":"2019-05-16T21:16:49.000Z","ept":0.005,"lat":35.907216167,"lon":-78.944653167,"alt":91.500,"epx":9.392,"epy":13.513,"epv":47.610,"track":256.4300,"speed":28.513,"climb":0.000,"eps":27.03}
{"class":"SKY","device":"/dev/ttyACM0","xdop":0.63,"ydop":0.90,"vdop":2.07,"tdop":0.82,"hdop":1.41,"gdop":1.84,"pdop":2.50,"satellites":[{"PRN":1,"el":3,"az":49,"ss":0,"used":false},{"PRN":2,"el":25,"az":241,"ss":37,"used":true},{"PRN":3,"el":27,"az":53,"ss":33,"used":true},{"PRN":6,"el":63,"az":251,"ss":29,"used":true},{"PRN":12,"el":5,"az":319,"ss":0,"used":false},{"PRN":17,"el":62,"az":31,"ss":38,"used":true},{"PRN":19,"el":61,"az":341,"ss":36,"used":true},{"PRN":22,"el":10,"az":41,"ss":0,"used":false},{"PRN":24,"el":17,"az":292,"ss":0,"used":false},{"PRN":28,"el":49,"az":145,"ss":38,"used":true},{"PRN":133,"el":23,"az":244,"ss":37,"used":false},{"PRN":135,"el":20,"az":247,"ss":0,"used":false},{"PRN":138,"el":39,"az":223,"ss":0,"used":false}]}
{"class":"TPV","device":"/dev/ttyACM0","mode":3,"time":"2019-05-16T21:16:50.000Z","ept":0.005,"lat":35.907155667,"lon":-78.944958000,"alt":91.400,"epx":9.392,"epy":13.513,"epv":47.610,"track":256.4300,"speed":28.318,"climb":0.000,"eps":27.03}
{"class":"SKY","device":"/dev/ttyACM0","xdop":0.63,"ydop":0.90,"vdop":2.07,"tdop":0.82,"hdop":1.41,"gdop":1.84,"pdop":2.50,"satellites":[{"PRN":1,"el":3,"az":49,"ss":0,"used":false},{"PRN":2,"el":25,"az":241,"ss":37,"used":true},{"PRN":3,"el":27,"az":53,"ss":32,"used":true},{"PRN":6,"el":63,"az":251,"ss":29,"used":true},{"PRN":12,"el":5,"az":319,"ss":0,"used":false},{"PRN":17,"el":62,"az":31,"ss":37,"used":true},{"PRN":19,"el":61,"az":341,"ss":38,"used":true},{"PRN":22,"el":10,"az":41,"ss":0,"used":false},{"PRN":24,"el":17,"az":292,"ss":0,"used":false},{"PRN":28,"el":49,"az":145,"ss":37,"used":true},{"PRN":133,"el":23,"az":244,"ss":37,"used":false},{"PRN":135,"el":20,"az":247,"ss":0,"used":false},{"PRN":138,"el":39,"az":223,"ss":0,"used":false}]}
{"class":"TPV","device":"/dev/ttyACM0","mode":3,"time":"2019-05-16T21:16:51.000Z","ept":0.005,"lat":35.907094500,"lon":-78.945260167,"alt":91.400,"epx":9.392,"epy":13.513,"epv":47.610,"track":256.3400,"speed":28.085,"climb":0.000,"eps":27.03}
{"class":"SKY","device":"/dev/ttyACM0","xdop":0.63,"ydop":0.90,"vdop":2.07,"tdop":0.82,"hdop":1.41,"gdop":1.84,"pdop":2.50,"satellites":[{"PRN":1,"el":3,"az":49,"ss":0,"used":false},{"PRN":2,"el":25,"az":241,"ss":37,"used":true},{"PRN":3,"el":27,"az":53,"ss":30,"used":true},{"PRN":6,"el":63,"az":251,"ss":29,"used":true},{"PRN":12,"el":5,"az":319,"ss":0,"used":false},{"PRN":17,"el":62,"az":31,"ss":37,"used":true},{"PRN":19,"el":61,"az":341,"ss":36,"used":true},{"PRN":22,"el":10,"az":41,"ss":0,"used":false},{"PRN":24,"el":17,"az":292,"ss":0,"used":false},{"PRN":28,"el":49,"az":145,"ss":37,"used":true},{"PRN":133,"el":23,"az":244,"ss":36,"used":false},{"PRN":135,"el":20,"az":247,"ss":0,"used":false},{"PRN":138,"el":39,"az":223,"ss":0,"used":false}]}
{"class":"TPV","device":"/dev/ttyACM0","mode":3,"time":"2019-05-16T21:16:52.000Z","ept":0.005,"lat":35.907034000,"lon":-78.945560000,"alt":91.400,"epx":9.392,"epy":13.513,"epv":47.610,"track":256.0800,"speed":27.849,"climb":0.000,"eps":27.03}
{"class":"SKY","device":"/dev/ttyACM0","xdop":0.63,"ydop":0.90,"vdop":2.07,"tdop":0.82,"hdop":1.41,"gdop":1.84,"pdop":2.50,"satellites":[{"PRN":1,"el":3,"az":49,"ss":0,"used":false},{"PRN":2,"el":25,"az":241,"ss":35,"used":true},{"PRN":3,"el":27,"az":53,"ss":30,"used":true},{"PRN":6,"el":63,"az":251,"ss":30,"used":true},{"PRN":12,"el":5,"az":319,"ss":0,"used":false},{"PRN":17,"el":62,"az":31,"ss":37,"used":true},{"PRN":19,"el":61,"az":341,"ss":37,"used":true},{"PRN":22,"el":10,"az":41,"ss":0,"used":false},{"PRN":24,"el":17,"az":292,"ss":0,"used":false},{"PRN":28,"el":49,"az":145,"ss":37,"used":true},{"PRN":133,"el":23,"az":244,"ss":34,"used":false},{"PRN":135,"el":20,"az":247,"ss":0,"used":false},{"PRN":138,"el":39,"az":223,"ss":0,"used":false}]}
{"class":"TPV","device":"/dev/ttyACM0","mode":3,"time":"2019-05-16T21:16:53.000Z","ept":0.005,"lat":35.906973333,"lon":-78.945856667,"alt":91.200,"epx":9.392,"epy":13.513,"epv":47.610,"track":255.9100,"speed":27.621,"climb":0.000,"eps":27.03}
{"class":"SKY","device":"/dev/ttyACM0","xdop":0.63,"ydop":0.90,"vdop":2.07,"tdop":0.82,"hdop":1.41,"gdop":1.84,"pdop":2.50,"satellites":[{"PRN":1,"el":3,"az":49,"ss":0,"used":false},{"PRN":2,"el":25,"az":241,"ss":35,"used":true},{"PRN":3,"el":27,"az":53,"ss":30,"used":true},{"PRN":6,"el":63,"az":251,"ss":31,"used":true},{"PRN":12,"el":5,"az":319,"ss":0,"used":false},{"PRN":17,"el":62,"az":31,"ss":37,"used":true},{"PRN":19,"el":61,"az":341,"ss":37,"used":true},{"PRN":22,"el":10,"az":41,"ss":0,"used":false},{"PRN":24,"el":17,"az":292,"ss":0,"used":false},{"PRN":28,"el":49,"az":145,"ss":37,"used":true},{"PRN":133,"el":23,"az":244,"ss":34,"used":false},{"PRN":135,"el":20,"az":247,"ss":0,"used":false},{"PRN":138,"el":39,"az":223,"ss":0,"used":false}]}
{"class":"TPV","device":"/dev/ttyACM0","mode":3,"time":"2019-05-16T21:16:54.000Z","ept":0.005,"lat":35.906913333,"lon":-78.946151667,"alt":91.000,"epx":9.392,"epy":13.513,"epv":47.610,"track":256.0200,"speed":27.395,"climb":0.000,"eps":27.03}
{"class":"SKY","device":"/dev/ttyACM0","xdop":0.63,"ydop":0.90,"vdop":2.07,"tdop":0.82,"hdop":1.41,"gdop":1.84,"pdop":2.50,"satellites":[{"PRN":1,"el":3,"az":49,"ss":0,"used":false},{"PRN":2,"el":25,"az":241,"ss":35,"used":true},{"PRN":3,"el":27,"az":53,"ss":30,"used":true},{"PRN":6,"el":63,"az":251,"ss":32,"used":true},{"PRN":12,"el":5,"az":319,"ss":0,"used":false},{"PRN":17,"el":62,"az":31,"ss":37,"used":true},{"PRN":19,"el":61,"az":341,"ss":38,"used":true},{"PRN":22,"el":10,"az":41,"ss":0,"used":false},{"PRN":24,"el":17,"az":292,"ss":0,"used":false},{"PRN":28,"el":49,"az":145,"ss":38,"used":true},{"PRN":133,"el":23,"az":244,"ss":35,"used":false},{"PRN":135,"el":20,"az":247,"ss":0,"used":false},{"PRN":138,"el":39,"az":223,"ss":0,"used":false}]}
{"class":"TPV","device":"/dev/ttyACM0","mode":3,"time":"2019-05-16T21:16:55.000Z","ept":0.005,"lat":35.906854000,"lon":-78.946444667,"alt":90.900,"epx":9.392,"epy":13.513,"epv":47.610,"track":256.1500,"speed":27.177,"climb":0.000,"eps":27.03}
{"class":"SKY","device":"/dev/ttyACM0","xdop":0.63,"ydop":0.90,"vdop":2.07,"tdop":0.82,"hdop":1.41,"gdop":1.84,"pdop":2.50,"satellites":[{"PRN":1,"el":3,"az":49,"ss":0,"used":false},{"PRN":2,"el":25,"az":241,"ss":35,"used":true},{"PRN":3,"el":27,"az":53,"ss":30,"used":true},{"PRN":6,"el":63,"az":251,"ss":31,"used":true},{"PRN":12,"el":5,"az":319,"ss":0,"used":false},{"PRN":17,"el":62,"az":31,"ss":37,"used":true},{"PRN":19,"el":61,"az":341,"ss":37,"used":true},{"PRN":22,"el":10,"az":41,"ss":0,"used":false},{"PRN":24,"el":17,"az":292,"ss":0,"used":false},{"PRN":28,"el":49,"az":145,"ss":37,"used":true},{"PRN":133,"el":23,"az":244,"ss":34,"used":false},{"PRN":135,"el":20,"az":247,"ss":0,"used":false},{"PRN":138,"el":39,"az":223,"ss":0,"used":false}]}
{"class":"TPV","device":"/dev/ttyACM0","mode":3,"time":"2019-05-16T21:16:56.000Z","ept":0.005,"lat":35.906795333,"lon":-78.946735667,"alt":90.800,"epx":9.392,"epy":13.513,"epv":47.610,"track":256.1800,"speed":27.005,"climb":0.000,"eps":27.03}
{"class":"SKY","device":"/dev/ttyACM0","xdop":0.63,"ydop":0.90,"vdop":2.07,"tdop":0.82,"hdop":1.41,"gdop":1.84,"pdop":2.50,"satellites":[{"PRN":1,"el":3,"az":49,"ss":0,"used":false},{"PRN":2,"el":25,"az":241,"ss":35,"used":true},{"PRN":3,"el":27,"az":53,"ss":30,"used":true},{"PRN":6,"el":63,"az":251,"ss":32,"used":true},{"PRN":12,"el":5,"az":319,"ss":0,"used":false},{"PRN":17,"el":62,"az":31,"ss":34,"used":true},{"PRN":19,"el":61,"az":341,"ss":37,"used":true},{"PRN":22,"el":10,"az":41,"ss":0,"used":false},{"PRN":24,"el":17,"az":292,"ss":0,"used":false},{"PRN":28,"el":49,"az":145,"ss":37,"used":true},{"PRN":133,"el":23,"az":244,"ss":35,"used":false},{"PRN":135,"el":20,"az":247,"ss":0,"used":false},{"PRN":138,"el":39,"az":223,"ss":0,"used":false}]}
{"class":"TPV","device":"/dev/ttyACM0","mode":3,"time":"2019-05-16T21:16:57.000Z","ept":0.005,"lat":35.906736833,"lon":-78.947025333,"alt":90.600,"epx":9.392,"epy":13.513,"epv":47.610,"track":256.1000,"speed":26.914,"climb":0.000,"eps":27.03}
{"class":"SKY","device":"/dev/ttyACM0","xdop":0.63,"ydop":0.90,"vdop":2.07,"tdop":0.82,"hdop":1.41,"gdop":1.84,"pdop":2.50,"satellites":[{"PRN":1,"el":3,"az":49,"ss":0,"used":false},{"PRN":2,"el":25,"az":241,"ss":35,"used":true},{"PRN":3,"el":27,"az":53,"ss":30,"used":true},{"PRN":6,"el":63,"az":251,"ss":31,"used":true},{"PRN":12,"el":5,"az":319,"ss":0,"used":false},{"PRN":17,"el":62,"az":31,"ss":37,"used":true},{"PRN":19,"el":61,"az":341,"ss":37,"used":true},{"PRN":22,"el":10,"az":41,"ss":0,"used":false},{"PRN":24,"el":17,"az":292,"ss":0,"used":false},{"PRN":28,"el":49,"az":145,"ss":37,"used":true},{"PRN":133,"el":23,"az":244,"ss":35,"used":false},{"PRN":135,"el":20,"az":247,"ss":0,"used":false},{"PRN":138,"el":39,"az":223,"ss":0,"used":false}]}
{"class":"TPV","device":"/dev/ttyACM0","mode":3,"time":"2019-05-16T21:16:58.000Z","ept":0.005,"lat":35.906679667,"lon":-78.947314000,"alt":90.500,"epx":9.392,"epy":13.513,"epv":47.610,"track":256.4500,"speed":26.789,"climb":0.000,"eps":27.03}
{"class":"SKY","device":"/dev/ttyACM0","xdop":0.63,"ydop":0.90,"vdop":2.07,"tdop":0.82,"hdop":1.41,"gdop":1.84,"pdop":2.50,"satellites":[{"PRN":1,"el":3,"az":49,"ss":0,"used":false},{"PRN":2,"el":25,"az":241,"ss":35,"used":true},{"PRN":3,"el":27,"az":53,"ss":31,"used":true},{"PRN":6,"el":63,"az":251,"ss":32,"used":true},{"PRN":12,"el":5,"az":319,"ss":0,"used":false},{"PRN":17,"el":62,"az":31,"ss":37,"used":true},{"PRN":19,"el":61,"az":341,"ss":37,"used":true},{"PRN":22,"el":10,"az":41,"ss":0,"used":false},{"PRN":24,"el":17,"az":292,"ss":0,"used":false},{"PRN":28,"el":49,"az":145,"ss":37,"used":true},{"PRN":133,"el":23,"az":244,"ss":35,"used":false},{"PRN":135,"el":20,"az":247,"ss":0,"used":false},{"PRN":138,"el":39,"az":223,"ss":0,"used":false}]}
{"class":"TPV","device":"/dev/ttyACM0","mode":3,"time":"2019-05-16T21:16:59.000Z","ept":0.005,"lat":35.906623333,"lon":-78.947601500,"alt":90.200,"epx":9.392,"epy":13.513,"epv":47.610,"track":256.5000,"speed":26.708,"climb":0.000,"eps":27.03}
{"class":"SKY","device":"/dev/ttyACM0","xdop":0.63,"ydop":0.90,"vdop":2.07,"tdop":0.82,"hdop":1.41,"gdop":1.84,"pdop":2.50,"satellites":[{"PRN":1,"el":3,"az":49,"ss":0,"used":false},{"PRN":2,"el":25,"az":241,"ss":35,"used":true},{"PRN":3,"el":27,"az":53,"ss":30,"used":true},{"PRN":6,"el":63,"az":251,"ss":32,"used":true},{"PRN":12,"el":5,"az":319,"ss":0,"used":false},{"PRN":17,"el":62,"az":31,"ss":37,"used":true},{"PRN":19,"el":61,"az":341,"ss":37,"used":true},{"PRN":22,"el":10,"az":41,"ss":0,"used":false},{"PRN":24,"el":17,"az":292,"ss":0,"used":false},{"PRN":28,"el":49,"az":145,"ss":37,"used":true},{"PRN":133,"el":23,"az":244,"ss":35,"used":false},{"PRN":135,"el":20,"az":247,"ss":0,"used":false},{"PRN":138,"el":39,"az":223,"ss":0,"used":false}]}
{"class":"TPV","device":"/dev/ttyACM0","mode":3,"time":"2019-05-16T21:17:00.000Z","ept":0.005,"lat":35.906566167,"lon":-78.947888167,"alt":90.000,"epx":9.392,"epy":13.513,"epv":47.610,"track":256.2800,"speed":26.622,"climb":0.000,"eps":27.03}
{"class":"SKY","device":"/dev/ttyACM0","xdop":0.63,"ydop":0.90,"vdop":2.07,"tdop":0.82,"hdop":1.41,"gdop":1.84,"pdop":2.50,"satellites":[{"PRN":1,"el":3,"az":49,"ss":0,"used":false},{"PRN":2,"el":25,"az":241,"ss":35,"used":true},{"PRN":3,"el":27,"az":53,"ss":29,"used":true},{"PRN":6,"el":63,"az":251,"ss":32,"used":true},{"PRN":12,"el":5,"az":319,"ss":0,"used":false},{"PRN":17,"el":62,"az":31,"ss":37,"used":true},{"PRN":19,"el":61,"az":341,"ss":35,"used":true},{"PRN":22,"el":10,"az":41,"ss":0,"used":false},{"PRN":24,"el":17,"az":292,"ss":0,"used":false},{"PRN":28,"el":49,"az":145,"ss":37,"used":true},{"PRN":133,"el":23,"az":244,"ss":34,"used":false},{"PRN":135,"el":20,"az":247,"ss":0,"used":false},{"PRN":138,"el":39,"az":223,"ss":0,"used":false}]}
{"class":"TPV","device":"/dev/ttyACM0","mode":3,"time":"2019-05-16T21:17:01.000Z","ept":0.005,"lat":35.906509167,"lon":-78.948175000,"alt":89.900,"epx":9.392,"epy":13.513,"epv":47.610,"track":256.4200,"speed":26.681,"climb":0.000,"eps":27.03}
{"class":"SKY","device":"/dev/ttyACM0","xdop":0.63,"ydop":0.90,"vdop":2.07,"tdop":0.82,"hdop":1.41,"gdop":1.84,"pdop":2.50,"satellites":[{"PRN":1,"el":3,"az":49,"ss":0,"used":false},{"PRN":2,"el":25,"az":241,"ss":35,"used":true},{"PRN":3,"el":27,"az":53,"ss":27,"used":true},{"PRN":6,"el":63,"az":251,"ss":32,"used":true},{"PRN":12,"el":5,"az":319,"ss":0,"used":false},{"PRN":17,"el":62,"az":31,"ss":36,"used":true},{"PRN":19,"el":61,"az":341,"ss":37,"used":true},{"PRN":22,"el":10,"az":41,"ss":0,"used":false},{"PRN":24,"el":17,"az":292,"ss":0,"used":false},{"PRN":28,"el":49,"az":145,"ss":37,"used":true},{"PRN":133,"el":23,"az":244,"ss":34,"used":false},{"PRN":135,"el":20,"az":247,"ss":0,"used":false},{"PRN":138,"el":39,"az":223,"ss":0,"used":false}]}
{"class":"TPV","device":"/dev/ttyACM0","mode":3,"time":"2019-05-16T21:17:02.000Z","ept":0.005,"lat":35.906451500,"lon":-78.948463833,"alt":89.800,"epx":9.392,"epy":13.513,"epv":47.610,"track":256.2900,"speed":26.866,"climb":0.000,"eps":27.03}
