{"class":"VERSION","release":"3.16","rev":"3.16-4","proto_major":3,"proto_minor":11}
{"class":"DEVICES","devices":[{"class":"DEVICE","path":"/dev/ttyACM0","driver":"NMEA0183","activated":"2019-05-16T21:18:21.260Z","flags":1,"native":0,"bps":9600,"parity":"N","stopbits":1,"cycle":1.00}]}
{"class":"WATCH","enable":true,"json":true,"nmea":false,"raw":0,"scaled":false,"timing":false,"split24":false,"pps":false}
{"class":"SKY","device":"/dev/ttyACM0","xdop":0.63,"ydop":0.90,"vdop":2.63,"tdop":0.82,"hdop":1.66,"gdop":1.84,"pdop":3.11,"satellites":[{"PRN":1,"el":2,"az":50,"ss":0,"used":false},{"PRN":2,"el":26,"az":241,"ss":27,"used":true},{"PRN":3,"el":26,"az":53,"ss":20,"used":true},{"PRN":6,"el":64,"az":252,"ss":38,"used":true},{"PRN":12,"el":6,"az":319,"ss":12,"used":false},{"PRN":17,"el":62,"az":32,"ss":40,"used":true},{"PRN":19,"el":62,"az":342,"ss":33,"used":true},{"PRN":22,"el":10,"az":41,"ss":8,"used":false},{"PRN":24,"el":17,"az":292,"ss":18,"used":true},{"PRN":28,"el":48,"az":146,"ss":38,"used":true},{"PRN":133,"el":23,"az":244,"ss":0,"used":false},{"PRN":135,"el":20,"az":247,"ss":28,"used":false},{"PRN":138,"el":39,"az":223,"ss":34,"used":false}]}
{"class":"TPV","device":"/dev/ttyACM0","mode":3,"time":"2019-05-16T21:18:22.000Z","ept":0.005,"lat":35.909578167,"lon":-78.960560333,"alt":83.700,"epx":9.392,"epy":13.513,"epv":31.740,"track":354.6700,"speed":19.719,"climb":0.000,"eps":2.08}
{"class":"SKY","device":"/dev/ttyACM0","xdop":0.63,"ydop":0.90,"vdop":2.63,"tdop":0.82,"hdop":1.66,"gdop":1.84,"pdop":3.11,"satellites":[{"PRN":1,"el":2,"az":50,"ss":0,"used":false},{"PRN":2,"el":26,"az":241,"ss":27,"used":true},{"PRN":3,"el":26,"az":53,"ss":0,"used":false},{"PRN":6,"el":64,"az":252,"ss":38,"used":true},{"PRN":12,"el":6,"az":319,"ss":13,"used":false},{"PRN":17,"el":62,"az":32,"ss":39,"used":true},{"PRN":19,"el":62,"az":342,"ss":33,"used":true},{"PRN":22,"el":10,"az":41,"ss":9,"used":false},{"PRN":24,"el":17,"az":292,"ss":17,"used":true},{"PRN":28,"el":48,"az":146,"ss":38,"used":true},{"PRN":133,"el":23,"az":244,"ss":0,"used":false},{"PRN":135,"el":20,"az":247,"ss":27,"used":false},{"PRN":138,"el":39,"az":223,"ss":34,"used":false}]}
{"class":"TPV","device":"/dev/ttyACM0","mode":3,"time":"2019-05-16T21:18:23.000Z","ept":0.005,"lat":35.909755333,"lon":-78.960583167,"alt":82.900,"epx":9.392,"epy":13.513,"epv":60.490,"track":354.0800,"speed":19.761,"climb":0.000,"eps":27.03}
{"class":"SKY","device":"/dev/ttyACM0","xdop":0.63,"ydop":0.90,"vdop":1.41,"tdop":0.82,"hdop":1.17,"gdop":1.84,"pdop":1.83,"satellites":[{"PRN":1,"el":2,"az":50,"ss":0,"used":false},{"PRN":2,"el":26,"az":241,"ss":26,"used":true},{"PRN":3,"el":26,"az":53,"ss":22,"used":false},{"PRN":6,"el":64,"az":252,"ss":36,"used":true},{"PRN":12,"el":6,"az":319,"ss":13,"used":false},{"PRN":17,"el":62,"az":32,"ss":39,"used":true},{"PRN":19,"el":62,"az":342,"ss":33,"used":true},{"PRN":22,"el":10,"az":41,"ss":10,"used":true},{"PRN":24,"el":17,"az":292,"ss":17,"used":true},{"PRN":28,"el":48,"az":146,"ss":36,"used":true},{"PRN":133,"el":23,"az":244,"ss":0,"used":false},{"PRN":135,"el":20,"az":247,"ss":0,"used":false},{"PRN":138,"el":39,"az":223,"ss":34,"used":false}]}
{"class":"TPV","device":"/dev/ttyACM0","mode":3,"time":"2019-05-16T21:18:24.000Z","ept":0.005,"lat":35.909933333,"lon":-78.960606333,"alt":82.200,"epx":9.392,"epy":13.513,"epv":60.490,"track":354.1000,"speed":19.916,"climb":0.000,"eps":27.03}
{"class":"SKY","device":"/dev/ttyACM0","xdop":0.63,"ydop":0.90,"vdop":1.41,"tdop":0.82,"hdop":1.17,"gdop":1.84,"pdop":1.83,"satellites":[{"PRN":1,"el":2,"az":50,"ss":0,"used":false},{"PRN":2,"el":26,"az":241,"ss":24,"used":true},{"PRN":3,"el":26,"az":53,"ss":21,"used":false},{"PRN":6,"el":64,"az":252,"ss":38,"used":true},{"PRN":12,"el":6,"az":319,"ss":10,"used":false},{"PRN":17,"el":62,"az":32,"ss":39,"used":true},{"PRN":19,"el":62,"az":342,"ss":33,"used":true},{"PRN":22,"el":10,"az":41,"ss":11,"used":true},{"PRN":24,"el":17,"az":292,"ss":15,"used":true},{"PRN":28,"el":48,"az":146,"ss":36,"used":true},{"PRN":133,"el":23,"az":244,"ss":0,"used":false},{"PRN":135,"el":20,"az":247,"ss":0,"used":false},{"PRN":138,"el":39,"az":223,"ss":35,"used":false}]}
{"class":"TPV","device":"/dev/ttyACM0","mode":3,"time":"2019-05-16T21:18:25.000Z","ept":0.005,"lat":35.910113333,"lon":-78.960628667,"alt":81.500,"epx":9.392,"epy":13.513,"epv":32.430,"track":354.5000,"speed":20.142,"climb":0.000,"eps":27.03}
{"class":"SKY","device":"/dev/ttyACM0","xdop":0.63,"ydop":0.90,"vdop":1.38,"tdop":0.82,"hdop":1.13,"gdop":1.84,"pdop":1.78,"satellites":[{"PRN":1,"el":2,"az":50,"ss":0,"used":false},{"PRN":2,"el":26,"az":241,"ss":25,"used":true},{"PRN":3,"el":26,"az":53,"ss":21,"used":true},{"PRN":6,"el":64,"az":252,"ss":38,"used":true},{"PRN":12,"el":6,"az":319,"ss":10,"used":false},{"PRN":17,"el":62,"az":32,"ss":40,"used":true},{"PRN":19,"el":62,"az":342,"ss":33,"used":true},{"PRN":22,"el":10,"az":41,"ss":11,"used":true},{"PRN":24,"el":17,"az":292,"ss":17,"used":true},{"PRN":28,"el":48,"az":146,"ss":34,"used":true},{"PRN":133,"el":23,"az":244,"ss":0,"used":false},{"PRN":135,"el":20,"az":247,"ss":0,"used":false},{"PRN":138,"el":39,"az":223,"ss":34,"used":false}]}
{"class":"TPV","device":"/dev/ttyACM0","mode":3,"time":"2019-05-16T21:18:26.000Z","ept":0.005,"lat":35.910294500,"lon":-78.960651167,"alt":80.600,"epx":9.392,"epy":13.513,"epv":32.430,"track":354.3700,"speed":20.215,"climb":0.000,"eps":27.03}
{"class":"SKY","device":"/dev/ttyACM0","xdop":0.63,"ydop":0.90,"vdop":1.38,"tdop":0.82,"hdop":1.13,"gdop":1.84,"pdop":1.78,"satellites":[{"PRN":1,"el":2,"az":50,"ss":0,"used":false},{"PRN":2,"el":26,"az":241,"ss":25,"used":true},{"PRN":3,"el":26,"az":53,"ss":20,"used":true},{"PRN":6,"el":64,"az":252,"ss":37,"used":true},{"PRN":12,"el":6,"az":319,"ss":11,"used":false},{"PRN":17,"el":62,"az":32,"ss":29,"used":true},{"PRN":19,"el":62,"az":342,"ss":33,"used":true},{"PRN":22,"el":10,"az":41,"ss":13,"used":true},{"PRN":24,"el":17,"az":292,"ss":18,"used":true},{"PRN":28,"el":48,"az":146,"ss":26,"used":true},{"PRN":133,"el":23,"az":244,"ss":0,"used":false},{"PRN":135,"el":20,"az":247,"ss":0,"used":false},{"PRN":138,"el":39,"az":223,"ss":34,"used":false}]}
{"class":"TPV","device":"/dev/ttyACM0","mode":3,"time":"2019-05-16T21:18:27.000Z","ept":0.005,"lat":35.910476833,"lon":-78.960676667,"alt":79.700,"epx":9.392,"epy":13.513,"epv":31.740,"track":353.3400,"speed":20.377,"climb":0.000,"eps":27.03}
{"class":"SKY","device":"/dev/ttyACM0","xdop":0.63,"ydop":0.90,"vdop":1.38,"tdop":0.82,"hdop":1.13,"gdop":1.84,"pdop":1.78,"satellites":[{"PRN":1,"el":2,"az":50,"ss":0,"used":false},{"PRN":2,"el":26,"az":241,"ss":25,"used":true},{"PRN":3,"el":26,"az":53,"ss":20,"used":true},{"PRN":6,"el":64,"az":252,"ss":37,"used":true},{"PRN":12,"el":6,"az":319,"ss":9,"used":false},{"PRN":17,"el":62,"az":32,"ss":38,"used":true},{"PRN":19,"el":62,"az":342,"ss":35,"used":true},{"PRN":22,"el":10,"az":41,"ss":13,"used":true},{"PRN":24,"el":17,"az":292,"ss":29,"used":true},{"PRN":28,"el":48,"az":146,"ss":28,"used":true},{"PRN":133,"el":23,"az":244,"ss":0,"used":false},{"PRN":135,"el":20,"az":247,"ss":0,"used":false},{"PRN":138,"el":39,"az":223,"ss":34,"used":false}]}
{"class":"TPV","device":"/dev/ttyACM0","mode":3,"time":"2019-05-16T21:18:28.000Z","ept":0.005,"lat":35.910656500,"lon":-78.960699167,"alt":79.500,"epx":9.392,"epy":13.513,"epv":31.740,"track":354.0300,"speed":20.186,"climb":0.000,"eps":27.03}
{"class":"SKY","device":"/dev/ttyACM0","xdop":0.63,"ydop":0.90,"vdop":1.38,"tdop":0.82,"hdop":1.13,"gdop":1.84,"pdop":1.78,"satellites":[{"PRN":1,"el":2,"az":50,"ss":0,"used":false},{"PRN":2,"el":26,"az":241,"ss":26,"used":true},{"PRN":3,"el":26,"az":53,"ss":23,"used":true},{"PRN":6,"el":64,"az":252,"ss":37,"used":true},{"PRN":12,"el":6,"az":319,"ss":9,"used":false},{"PRN":17,"el":62,"az":32,"ss":39,"used":true},{"PRN":19,"el":62,"az":342,"ss":36,"used":true},{"PRN":22,"el":10,"az":41,"ss":13,"used":true},{"PRN":24,"el":17,"az":292,"ss":18,"used":true},{"PRN":28,"el":48,"az":146,"ss":35,"used":true},{"PRN":133,"el":23,"az":244,"ss":0,"used":false},{"PRN":135,"el":20,"az":247,"ss":0,"used":false},{"PRN":138,"el":39,"az":223,"ss":33,"used":false}]}
{"class":"TPV","device":"/dev/ttyACM0","mode":3,"time":"2019-05-16T21:18:29.000Z","ept":0.005,"lat":35.910835833,"lon":-78.960719500,"alt":79.100,"epx":9.392,"epy":13.513,"epv":31.740,"track":354.2000,"speed":19.925,"climb":0.000,"eps":27.03}
{"class":"SKY","device":"/dev/ttyACM0","xdop":0.63,"ydop":0.90,"vdop":1.38,"tdop":0.82,"hdop":1.13,"gdop":1.84,"pdop":1.78,"satellites":[{"PRN":1,"el":2,"az":50,"ss":0,"used":false},{"PRN":2,"el":26,"az":241,"ss":27,"used":true},{"PRN":3,"el":26,"az":53,"ss":22,"used":true},{"PRN":6,"el":64,"az":252,"ss":37,"used":true},{"PRN":12,"el":6,"az":319,"ss":8,"used":false},{"PRN":17,"el":62,"az":32,"ss":37,"used":true},{"PRN":19,"el":62,"az":342,"ss":36,"used":true},{"PRN":22,"el":10,"az":41,"ss":14,"used":true},{"PRN":24,"el":17,"az":292,"ss":18,"used":true},{"PRN":28,"el":48,"az":146,"ss":35,"used":true},{"PRN":133,"el":23,"az":244,"ss":0,"used":false},{"PRN":135,"el":20,"az":247,"ss":0,"used":false},{"PRN":138,"el":39,"az":223,"ss":33,"used":false}]}
{"class":"TPV","device":"/dev/ttyACM0","mode":3,"time":"2019-05-16T21:18:30.000Z","ept":0.005,"lat":35.911015167,"lon":-78.960740333,"alt":79.500,"epx":9.392,"epy":13.513,"epv":31.740,"track":354.8200,"speed":20.058,"climb":0.000,"eps":27.03}
{"class":"SKY","device":"/dev/ttyACM0","xdop":0.63,"ydop":0.90,"vdop":1.38,"tdop":0.82,"hdop":1.13,"gdop":1.84,"pdop":1.78,"satellites":[{"PRN":1,"el":2,"az":50,"ss":0,"used":false},{"PRN":2,"el":26,"az":241,"ss":26,"used":true},{"PRN":3,"el":26,"az":53,"ss":22,"used":true},{"PRN":6,"el":64,"az":252,"ss":37,"used":true},{"PRN":12,"el":6,"az":319,"ss":0,"used":false},{"PRN":17,"el":62,"az":32,"ss":34,"used":true},{"PRN":19,"el":62,"az":342,"ss":36,"used":true},{"PRN":22,"el":10,"az":41,"ss":13,"used":true},{"PRN":24,"el":17,"az":292,"ss":29,"used":true},{"PRN":28,"el":48,"az":146,"ss":27,"used":true},{"PRN":133,"el":23,"az":244,"ss":0,"used":false},{"PRN":135,"el":20,"az":247,"ss":0,"used":false},{"PRN":138,"el":39,"az":223,"ss":33,"used":false}]}
{"class":"TPV","device":"/dev/ttyACM0","mode":3,"time":"2019-05-16T21:18:31.000Z","ept":0.005,"lat":35.911195500,"lon":-78.960761333,"alt":79.500,"epx":9.392,"epy":13.513,"epv":31.740,"track":354.4900,"speed":20.202,"climb":0.000,"eps":27.03}
{"class":"SKY","device":"/dev/ttyACM0","xdop":0.63,"ydop":0.90,"vdop":1.38,"tdop":0.82,"hdop":1.13,"gdop":1.84,"pdop":1.78,"satellites":[{"PRN":1,"el":2,"az":50,"ss":0,"used":false},{"PRN":2,"el":26,"az":241,"ss":31,"used":true},{"PRN":3,"el":26,"az":53,"ss":20,"used":true},{"PRN":6,"el":64,"az":252,"ss":37,"used":true},{"PRN":12,"el":6,"az":319,"ss":0,"used":false},{"PRN":17,"el":62,"az":32,"ss":36,"used":true},{"PRN":19,"el":62,"az":342,"ss":36,"used":true},{"PRN":22,"el":10,"az":41,"ss":16,"used":true},{"PRN":24,"el":17,"az":292,"ss":19,"used":true},{"PRN":28,"el":48,"az":146,"ss":28,"used":true},{"PRN":133,"el":23,"az":244,"ss":0,"used":false},{"PRN":135,"el":20,"az":247,"ss":0,"used":false},{"PRN":138,"el":39,"az":223,"ss":32,"used":false}]}
{"class":"TPV","device":"/dev/ttyACM0","mode":3,"time":"2019-05-16T21:18:32.000Z","ept":0.005,"lat":35.911377500,"lon":-78.960783167,"alt":80.200,"epx":9.392,"epy":13.513,"epv":31.740,"track":354.0600,"speed":20.468,"climb":0.000,"eps":27.03}
{"class":"SKY","device":"/dev/ttyACM0","xdop":0.63,"ydop":0.90,"vdop":1.38,"tdop":0.82,"hdop":1.13,"gdop":1.84,"pdop":1.78,"satellites":[{"PRN":1,"el":2,"az":50,"ss":0,"used":false},{"PRN":2,"el":26,"az":241,"ss":30,"used":true},{"PRN":3,"el":26,"az":53,"ss":22,"used":true},{"PRN":6,"el":64,"az":252,"ss":37,"used":true},{"PRN":12,"el":6,"az":319,"ss":0,"used":false},{"PRN":17,"el":62,"az":32,"ss":37,"used":true},{"PRN":19,"el":62,"az":342,"ss":36,"used":true},{"PRN":22,"el":10,"az":41,"ss":15,"used":true},{"PRN":24,"el":17,"az":292,"ss":20,"used":true},{"PRN":28,"el":48,"az":146,"ss":33,"used":true},{"PRN":133,"el":23,"az":244,"ss":0,"used":false},{"PRN":135,"el":20,"az":247,"ss":0,"used":false},{"PRN":138,"el":39,"az":223,"ss":33,"used":false}]}
{"class":"TPV","device":"/dev/ttyACM0","mode":3,"time":"2019-05-16T21:18:33.000Z","ept":0.005,"lat":35.911559333,"lon":-78.960804833,"alt":80.400,"epx":9.392,"epy":13.513,"epv":31.740,"track":354.4400,"speed":20.370,"climb":0.000,"eps":27.03}
{"class":"SKY","device":"/dev/ttyACM0","xdop":0.63,"ydop":0.90,"vdop":1.38,"tdop":0.82,"hdop":1.13,"gdop":1.84,"pdop":1.78,"satellites":[{"PRN":1,"el":2,"az":50,"ss":0,"used":false},{"PRN":2,"el":26,"az":241,"ss":22,"used":true},{"PRN":3,"el":26,"az":53,"ss":22,"used":true},{"PRN":6,"el":64,"az":252,"ss":36,"used":true},{"PRN":12,"el":6,"az":319,"ss":0,"used":false},{"PRN":17,"el":62,"az":32,"ss":32,"used":true},{"PRN":19,"el":62,"az":342,"ss":34,"used":true},{"PRN":22,"el":10,"az":41,"ss":13,"used":true},{"PRN":24,"el":17,"az":292,"ss":19,"used":true},{"PRN":28,"el":48,"az":146,"ss":36,"used":true},{"PRN":133,"el":23,"az":244,"ss":0,"used":false},{"PRN":135,"el":20,"az":247,"ss":0,"used":false},{"PRN":138,"el":39,"az":223,"ss":33,"used":false}]}
{"class":"TPV","device":"/dev/ttyACM0","mode":3,"time":"2019-05-16T21:18:34.000Z","ept":0.005,"lat":35.911740667,"lon":-78.960827167,"alt":80.300,"epx":9.392,"epy":13.513,"epv":31.740,"track":354.1800,"speed":20.235,"climb":0.000,"eps":27.03}
{"class":"SKY","device":"/dev/ttyACM0","xdop":0.63,"ydop":0.90,"vdop":1.70,"tdop":0.82,"hdop":1.19,"gdop":1.84,"pdop":2.08,"satellites":[{"PRN":1,"el":2,"az":50,"ss":0,"used":false},{"PRN":2,"el":26,"az":241,"ss":22,"used":true},{"PRN":3,"el":26,"az":53,"ss":20,"used":true},{"PRN":6,"el":64,"az":252,"ss":37,"used":true},{"PRN":12,"el":6,"az":319,"ss":0,"used":false},{"PRN":17,"el":62,"az":32,"ss":32,"used":true},{"PRN":19,"el":62,"az":342,"ss":35,"used":true},{"PRN":22,"el":10,"az":41,"ss":9,"used":false},{"PRN":24,"el":17,"az":292,"ss":18,"used":true},{"PRN":28,"el":48,"az":146,"ss":27,"used":true},{"PRN":133,"el":23,"az":244,"ss":0,"used":false},{"PRN":135,"el":20,"az":247,"ss":0,"used":false},{"PRN":138,"el":39,"az":223,"ss":32,"used":false}]}
{"class":"TPV","device":"/dev/ttyACM0","mode":3,"time":"2019-05-16T21:18:35.000Z","ept":0.005,"lat":35.911921500,"lon":-78.960852167,"alt":81.300,"epx":9.392,"epy":13.513,"epv":31.740,"track":353.5600,"speed":20.308,"climb":0.000,"eps":27.03}
{"class":"SKY","device":"/dev/ttyACM0","xdop":0.63,"ydop":0.90,"vdop":1.70,"tdop":0.82,"hdop":1.19,"gdop":1.84,"pdop":2.08,"satellites":[{"PRN":1,"el":2,"az":50,"ss":0,"used":false},{"PRN":2,"el":26,"az":241,"ss":22,"used":true},{"PRN":3,"el":26,"az":53,"ss":19,"used":true},{"PRN":6,"el":64,"az":252,"ss":37,"used":true},{"PRN":12,"el":6,"az":319,"ss":0,"used":false},{"PRN":17,"el":62,"az":32,"ss":32,"used":true},{"PRN":19,"el":62,"az":342,"ss":35,"used":true},{"PRN":22,"el":10,"az":41,"ss":8,"used":false},{"PRN":24,"el":17,"az":292,"ss":18,"used":true},{"PRN":28,"el":48,"az":146,"ss":27,"used":true},{"PRN":133,"el":23,"az":244,"ss":0,"used":false},{"PRN":135,"el":20,"az":247,"ss":0,"used":false},{"PRN":138,"el":39,"az":223,"ss":30,"used":false}]}
{"class":"TPV","device":"/dev/ttyACM0","mode":3,"time":"2019-05-16T21:18:36.000Z","ept":0.005,"lat":35.912102000,"lon":-78.960875500,"alt":83.300,"epx":9.392,"epy":13.513,"epv":39.100,"track":353.9700,"speed":20.268,"climb":0.000,"eps":27.03}
{"class":"SKY","device":"/dev/ttyACM0","xdop":0.63,"ydop":0.90,"vdop":1.38,"tdop":0.82,"hdop":1.13,"gdop":1.84,"pdop":1.78,"satellites":[{"PRN":1,"el":2,"az":50,"ss":0,"used":false},{"PRN":2,"el":26,"az":241,"ss":22,"used":true},{"PRN":3,"el":26,"az":53,"ss":18,"used":true},{"PRN":6,"el":64,"az":252,"ss":36,"used":true},{"PRN":12,"el":6,"az":319,"ss":0,"used":false},{"PRN":17,"el":62,"az":32,"ss":38,"used":true},{"PRN":19,"el":62,"az":342,"ss":35,"used":true},{"PRN":22,"el":10,"az":41,"ss":10,"used":true},{"PRN":24,"el":17,"az":292,"ss":17,"used":true},{"PRN":28,"el":48,"az":146,"ss":26,"used":true},{"PRN":133,"el":23,"az":244,"ss":0,"used":false},{"PRN":135,"el":20,"az":247,"ss":0,"used":false},{"PRN":138,"el":39,"az":223,"ss":28,"used":false}]}
{"class":"TPV","device":"/dev/ttyACM0","mode":3,"time":"2019-05-16T21:18:37.000Z","ept":0.005,"lat":35.912279833,"lon":-78.960894500,"alt":85.000,"epx":9.392,"epy":13.513,"epv":39.100,"track":355.0000,"speed":19.844,"climb":0.000,"eps":27.03}
{"class":"SKY","device":"/dev/ttyACM0","xdop":0.63,"ydop":0.90,"vdop":1.38,"tdop":0.82,"hdop":1.13,"gdop":1.84,"pdop":1.78,"satellites":[{"PRN":1,"el":2,"az":50,"ss":0,"used":false},{"PRN":2,"el":26,"az":241,"ss":21,"used":true},{"PRN":3,"el":26,"az":53,"ss":21,"used":true},{"PRN":6,"el":64,"az":252,"ss":34,"used":true},{"PRN":12,"el":6,"az":319,"ss":0,"used":false},{"PRN":17,"el":62,"az":32,"ss":32,"used":true},{"PRN":19,"el":62,"az":342,"ss":31,"used":true},{"PRN":22,"el":10,"az":41,"ss":10,"used":true},{"PRN":24,"el":17,"az":292,"ss":16,"used":true},{"PRN":28,"el":48,"az":146,"ss":35,"used":true},{"PRN":133,"el":23,"az":244,"ss":0,"used":false},{"PRN":135,"el":20,"az":247,"ss":0,"used":false},{"PRN":138,"el":39,"az":223,"ss":0,"used":false}]}
{"class":"TPV","device":"/dev/ttyACM0","mode":3,"time":"2019-05-16T21:18:38.000Z","ept":0.005,"lat":35.912460500,"lon":-78.960915167,"alt":85.600,"epx":9.392,"epy":13.513,"epv":31.740,"track":355.5100,"speed":19.987,"climb":0.000,"eps":27.03}
{"class":"SKY","device":"/dev/ttyACM0","xdop":0.63,"ydop":0.90,"vdop":1.70,"tdop":0.82,"hdop":1.19,"gdop":1.84,"pdop":2.08,"satellites":[{"PRN":1,"el":2,"az":50,"ss":0,"used":false},{"PRN":2,"el":26,"az":241,"ss":21,"used":true},{"PRN":3,"el":26,"az":53,"ss":21,"used":true},{"PRN":6,"el":64,"az":252,"ss":36,"used":true},{"PRN":12,"el":6,"az":319,"ss":0,"used":false},{"PRN":17,"el":62,"az":32,"ss":37,"used":true},{"PRN":19,"el":62,"az":342,"ss":34,"used":true},{"PRN":22,"el":10,"az":41,"ss":9,"used":false},{"PRN":24,"el":17,"az":292,"ss":12,"used":true},{"PRN":28,"el":48,"az":146,"ss":30,"used":true},{"PRN":133,"el":23,"az":244,"ss":0,"used":false},{"PRN":135,"el":20,"az":247,"ss":0,"used":false},{"PRN":138,"el":39,"az":223,"ss":0,"used":false}]}
{"class":"TPV","device":"/dev/ttyACM0","mode":3,"time":"2019-05-16T21:18:39.000Z","ept":0.005,"lat":35.912642500,"lon":-78.960929333,"alt":86.100,"epx":9.392,"epy":13.513,"epv":31.740,"track":356.7400,"speed":20.307,"climb":0.000,"eps":27.03}
{"class":"SKY","device":"/dev/ttyACM0","xdop":0.63,"ydop":0.90,"vdop":2.07,"tdop":0.82,"hdop":1.40,"gdop":1.84,"pdop":2.50,"satellites":[{"PRN":1,"el":2,"az":50,"ss":0,"used":false},{"PRN":2,"el":26,"az":241,"ss":21,"used":true},{"PRN":3,"el":26,"az":53,"ss":21,"used":true},{"PRN":6,"el":64,"az":252,"ss":36,"used":true},{"PRN":12,"el":6,"az":319,"ss":0,"used":false},{"PRN":17,"el":62,"az":32,"ss":26,"used":true},{"PRN":19,"el":62,"az":342,"ss":34,"used":true},{"PRN":22,"el":10,"az":41,"ss":8,"used":false},{"PRN":24,"el":17,"az":292,"ss":9,"used":false},{"PRN":28,"el":48,"az":146,"ss":34,"used":true},{"PRN":133,"el":23,"az":244,"ss":0,"used":false},{"PRN":135,"el":20,"az":247,"ss":0,"used":false},{"PRN":138,"el":39,"az":223,"ss":0,"used":false}]}
{"class":"TPV","device":"/dev/ttyACM0","mode":3,"time":"2019-05-16T21:18:40.000Z","ept":0.005,"lat":35.912825667,"lon":-78.960947667,"alt":86.300,"epx":9.392,"epy":13.513,"epv":39.100,"track":354.9700,"speed":20.470,"climb":0.000,"eps":27.03}
{"class":"SKY","device":"/dev/ttyACM0","xdop":0.63,"ydop":0.90,"vdop":2.07,"tdop":0.82,"hdop":1.40,"gdop":1.84,"pdop":2.50,"satellites":[{"PRN":1,"el":2,"az":50,"ss":0,"used":false},{"PRN":2,"el":26,"az":241,"ss":21,"used":true},{"PRN":3,"el":26,"az":53,"ss":22,"used":true},{"PRN":6,"el":64,"az":252,"ss":36,"used":true},{"PRN":12,"el":6,"az":319,"ss":0,"used":false},{"PRN":17,"el":62,"az":32,"ss":31,"used":true},{"PRN":19,"el":62,"az":342,"ss":34,"used":true},{"PRN":22,"el":10,"az":41,"ss":0,"used":false},{"PRN":24,"el":17,"az":292,"ss":8,"used":false},{"PRN":28,"el":48,"az":146,"ss":29,"used":true},{"PRN":133,"el":23,"az":244,"ss":0,"used":false},{"PRN":135,"el":20,"az":247,"ss":0,"used":false},{"PRN":138,"el":39,"az":223,"ss":0,"used":false}]}
{"class":"TPV","device":"/dev/ttyACM0","mode":3,"time":"2019-05-16T21:18:41.000Z","ept":0.005,"lat":35.913010833,"lon":-78.960968833,"alt":86.100,"epx":9.392,"epy":13.513,"epv":47.610,"track":355.0700,"speed":20.542,"climb":0.000,"eps":27.03}
{"class":"SKY","device":"/dev/ttyACM0","xdop":0.63,"ydop":0.90,"vdop":2.07,"tdop":0.82,"hdop":1.40,"gdop":1.84,"pdop":2.50,"satellites":[{"PRN":1,"el":2,"az":50,"ss":0,"used":false},{"PRN":2,"el":26,"az":241,"ss":19,"used":true},{"PRN":3,"el":26,"az":53,"ss":28,"used":true},{"PRN":6,"el":64,"az":252,"ss":36,"used":true},{"PRN":12,"el":6,"az":319,"ss":0,"used":false},{"PRN":17,"el":62,"az":32,"ss":37,"used":true},{"PRN":19,"el":62,"az":342,"ss":34,"used":true},{"PRN":22,"el":10,"az":41,"ss":0,"used":false},{"PRN":24,"el":17,"az":292,"ss":9,"used":false},{"PRN":28,"el":48,"az":146,"ss":28,"used":true},{"PRN":135,"el":20,"az":247,"ss":0,"used":false},{"PRN":138,"el":39,"az":223,"ss":0,"used":false}]}
{"class":"TPV","device":"/dev/ttyACM0","mode":3,"time":"2019-05-16T21:18:42.000Z","ept":0.005,"lat":35.913194500,"lon":-78.960980000,"alt":86.700,"epx":9.392,"epy":13.513,"epv":47.610,"track":356.0400,"speed":20.437,"climb":0.000,"eps":27.03}
{"class":"SKY","device":"/dev/ttyACM0","xdop":0.63,"ydop":0.90,"vdop":1.70,"tdop":0.82,"hdop":1.19,"gdop":1.84,"pdop":2.08,"satellites":[{"PRN":1,"el":2,"az":50,"ss":0,"used":false},{"PRN":2,"el":26,"az":241,"ss":19,"used":true},{"PRN":3,"el":26,"az":53,"ss":26,"used":true},{"PRN":6,"el":64,"az":252,"ss":36,"used":true},{"PRN":12,"el":6,"az":319,"ss":0,"used":false},{"PRN":17,"el":62,"az":32,"ss":37,"used":true},{"PRN":19,"el":62,"az":342,"ss":35,"used":true},{"PRN":22,"el":10,"az":41,"ss":0,"used":false},{"PRN":24,"el":17,"az":292,"ss":10,"used":true},{"PRN":28,"el":48,"az":146,"ss":29,"used":true},{"PRN":135,"el":20,"az":247,"ss":0,"used":false},{"PRN":138,"el":39,"az":223,"ss":0,"used":false}]}
{"class":"TPV","device":"/dev/ttyACM0","mode":3,"time":"2019-05-16T21:18:43.000Z","ept":0.005,"lat":35.913379500,"lon":-78.960995667,"alt":86.400,"epx":9.392,"epy":13.513,"epv":47.610,"track":356.3300,"speed":20.480,"climb":0.000,"eps":27.03}
{"class":"SKY","device":"/dev/ttyACM0","xdop":0.63,"ydop":0.90,"vdop":2.07,"tdop":0.82,"hdop":1.40,"gdop":1.84,"pdop":2.50,"satellites":[{"PRN":1,"el":2,"az":50,"ss":0,"used":false},{"PRN":2,"el":26,"az":241,"ss":19,"used":true},{"PRN":3,"el":26,"az":53,"ss":23,"used":true},{"PRN":6,"el":64,"az":252,"ss":34,"used":true},{"PRN":12,"el":6,"az":319,"ss":0,"used":false},{"PRN":17,"el":62,"az":32,"ss":38,"used":true},{"PRN":19,"el":62,"az":342,"ss":35,"used":true},{"PRN":22,"el":10,"az":41,"ss":0,"used":false},{"PRN":24,"el":17,"az":292,"ss":8,"used":false},{"PRN":28,"el":48,"az":146,"ss":34,"used":true},{"PRN":135,"el":20,"az":247,"ss":0,"used":false},{"PRN":138,"el":39,"az":223,"ss":0,"used":false}]}
{"class":"TPV","device":"/dev/ttyACM0","mode":3,"time":"2019-05-16T21:18:44.000Z","ept":0.005,"lat":35.913563667,"lon":-78.961007833,"alt":85.800,"epx":9.392,"epy":13.513,"epv":39.100,"track":355.6600,"speed":20.542,"climb":0.000,"eps":27.03}
{"class":"SKY","device":"/dev/ttyACM0","xdop":0.63,"ydop":0.90,"vdop":1.70,"tdop":0.82,"hdop":1.19,"gdop":1.84,"pdop":2.08,"satellites":[{"PRN":1,"el":2,"az":50,"ss":0,"used":false},{"PRN":2,"el":26,"az":241,"ss":19,"used":true},{"PRN":3,"el":26,"az":53,"ss":22,"used":true},{"PRN":6,"el":64,"az":252,"ss":35,"used":true},{"PRN":12,"el":6,"az":319,"ss":0,"used":false},{"PRN":17,"el":62,"az":32,"ss":29,"used":true},{"PRN":19,"el":62,"az":342,"ss":36,"used":true},{"PRN":22,"el":10,"az":41,"ss":0,"used":false},{"PRN":24,"el":17,"az":292,"ss":11,"used":true},{"PRN":28,"el":48,"az":146,"ss":34,"used":true},{"PRN":135,"el":20,"az":247,"ss":0,"used":false},{"PRN":138,"el":39,"az":223,"ss":0,"used":false}]}
{"class":"TPV","device":"/dev/ttyACM0","mode":3,"time":"2019-05-16T21:18:45.000Z","ept":0.005,"lat":35.913744500,"lon":-78.961025333,"alt":87.000,"epx":9.392,"epy":13.513,"epv":47.610,"track":354.7600,"speed":20.362,"climb":0.000,"eps":27.03}
{"class":"SKY","device":"/dev/ttyACM0","xdop":0.63,"ydop":0.90,"vdop":1.70,"tdop":0.82,"hdop":1.19,"gdop":1.84,"pdop":2.08,"satellites":[{"PRN":1,"el":2,"az":50,"ss":0,"used":false},{"PRN":2,"el":26,"az":241,"ss":21,"used":true},{"PRN":3,"el":26,"az":53,"ss":21,"used":true},{"PRN":6,"el":64,"az":252,"ss":35,"used":true},{"PRN":12,"el":6,"az":319,"ss":0,"used":false},{"PRN":17,"el":62,"az":32,"ss":35,"used":true},{"PRN":19,"el":62,"az":342,"ss":36,"used":true},{"PRN":22,"el":10,"az":41,"ss":0,"used":false},{"PRN":24,"el":17,"az":292,"ss":15,"used":true},{"PRN":28,"el":48,"az":146,"ss":30,"used":true},{"PRN":135,"el":20,"az":247,"ss":0,"used":false},{"PRN":138,"el":39,"az":223,"ss":0,"used":false}]}
{"class":"TPV","device":"/dev/ttyACM0","mode":3,"time":"2019-05-16T21:18:46.000Z","ept":0.005,"lat":35.913924333,"lon":-78.961045833,"alt":85.600,"epx":9.392,"epy":13.513,"epv":39.100,"track":355.0700,"speed":19.831,"climb":0.000,"eps":27.03}
{"class":"SKY","device":"/dev/ttyACM0","xdop":0.63,"ydop":0.90,"vdop":1.70,"tdop":0.82,"hdop":1.19,"gdop":1.84,"pdop":2.08,"satellites":[{"PRN":1,"el":2,"az":50,"ss":0,"used":false},{"PRN":2,"el":26,"az":241,"ss":22,"used":true},{"PRN":3,"el":26,"az":53,"ss":21,"used":true},{"PRN":6,"el":64,"az":252,"ss":35,"used":true},{"PRN":12,"el":6,"az":319,"ss":0,"used":false},{"PRN":17,"el":62,"az":32,"ss":35,"used":true},{"PRN":19,"el":62,"az":342,"ss":36,"used":true},{"PRN":22,"el":10,"az":41,"ss":0,"used":false},{"PRN":24,"el":17,"az":292,"ss":24,"used":true},{"PRN":28,"el":48,"az":146,"ss":34,"used":true},{"PRN":135,"el":20,"az":247,"ss":0,"used":false},{"PRN":138,"el":39,"az":223,"ss":0,"used":false}]}
{"class":"TPV","device":"/dev/ttyACM0","mode":3,"time":"2019-05-16T21:18:47.000Z","ept":0.005,"lat":35.914100833,"lon":-78.961065833,"alt":86.300,"epx":9.392,"epy":13.513,"epv":39.100,"track":354.9100,"speed":19.697,"climb":0.000,"eps":27.03}
{"class":"SKY","device":"/dev/ttyACM0","xdop":0.63,"ydop":0.90,"vdop":1.70,"tdop":0.82,"hdop":1.19,"gdop":1.84,"pdop":2.08,"satellites":[{"PRN":1,"el":2,"az":50,"ss":0,"used":false},{"PRN":2,"el":26,"az":241,"ss":25,"used":true},{"PRN":3,"el":26,"az":53,"ss":23,"used":true},{"PRN":6,"el":64,"az":252,"ss":34,"used":true},{"PRN":12,"el":6,"az":319,"ss":0,"used":false},{"PRN":17,"el":62,"az":33,"ss":37,"used":true},{"PRN":19,"el":62,"az":342,"ss":36,"used":true},{"PRN":22,"el":10,"az":41,"ss":0,"used":false},{"PRN":24,"el":17,"az":292,"ss":27,"used":true},{"PRN":28,"el":48,"az":146,"ss":29,"used":true},{"PRN":135,"el":20,"az":247,"ss":0,"used":false},{"PRN":138,"el":39,"az":223,"ss":0,"used":false}]}
{"class":"TPV","device":"/dev/ttyACM0","mode":3,"time":"2019-05-16T21:18:48.000Z","ept":0.005,"lat":35.914275167,"lon":-78.961078167,"alt":89.400,"epx":9.392,"epy":13.513,"epv":39.100,"track":355.4400,"speed":19.489,"climb":0.000,"eps":27.03}
{"class":"SKY","device":"/dev/ttyACM0","xdop":0.63,"ydop":0.90,"vdop":1.70,"tdop":0.82,"hdop":1.19,"gdop":1.84,"pdop":2.08,"satellites":[{"PRN":1,"el":2,"az":50,"ss":0,"used":false},{"PRN":2,"el":26,"az":241,"ss":31,"used":true},{"PRN":3,"el":26,"az":53,"ss":25,"used":true},{"PRN":6,"el":64,"az":252,"ss":34,"used":true},{"PRN":12,"el":6,"az":319,"ss":0,"used":false},{"PRN":17,"el":62,"az":33,"ss":37,"used":true},{"PRN":19,"el":62,"az":342,"ss":36,"used":true},{"PRN":22,"el":10,"az":41,"ss":0,"used":false},{"PRN":24,"el":17,"az":292,"ss":27,"used":true},{"PRN":28,"el":48,"az":146,"ss":34,"used":true},{"PRN":135,"el":20,"az":247,"ss":0,"used":false},{"PRN":138,"el":39,"az":223,"ss":0,"used":false}]}
{"class":"TPV","device":"/dev/ttyACM0","mode":3,"time":"2019-05-16T21:18:49.000Z","ept":0.005,"lat":35.914447500,"lon":-78.961094833,"alt":91.200,"epx":9.392,"epy":13.513,"epv":39.100,"track":355.0500,"speed":19.216,"climb":0.000,"eps":27.03}
{"class":"SKY","device":"/dev/ttyACM0","xdop":0.63,"ydop":0.90,"vdop":1.70,"tdop":0.82,"hdop":1.19,"gdop":1.84,"pdop":2.08,"satellites":[{"PRN":1,"el":2,"az":50,"ss":0,"used":false},{"PRN":2,"el":26,"az":241,"ss":30,"used":true},{"PRN":3,"el":26,"az":53,"ss":21,"used":true},{"PRN":6,"el":64,"az":252,"ss":33,"used":true},{"PRN":12,"el":6,"az":319,"ss":0,"used":false},{"PRN":17,"el":62,"az":33,"ss":36,"used":true},{"PRN":19,"el":62,"az":343,"ss":35,"used":true},{"PRN":22,"el":10,"az":41,"ss":0,"used":false},{"PRN":24,"el":17,"az":292,"ss":26,"used":true},{"PRN":28,"el":48,"az":146,"ss":33,"used":true},{"PRN":135,"el":20,"az":247,"ss":0,"used":false},{"PRN":138,"el":39,"az":223,"ss":0,"used":false}]}
{"class":"TPV","device":"/dev/ttyACM0","mode":3,"time":"2019-05-16T21:18:50.000Z","ept":0.005,"lat":35.914619667,"lon":-78.961113000,"alt":92.300,"epx":9.392,"epy":13.513,"epv":39.100,"track":354.9500,"speed":19.048,"climb":0.000,"eps":27.03}
{"class":"SKY","device":"/dev/ttyACM0","xdop":0.63,"ydop":0.90,"vdop":1.70,"tdop":0.82,"hdop":1.19,"gdop":1.84,"pdop":2.08,"satellites":[{"PRN":1,"el":2,"az":50,"ss":0,"used":false},{"PRN":2,"el":26,"az":241,"ss":30,"used":true},{"PRN":3,"el":26,"az":53,"ss":17,"used":true},{"PRN":6,"el":64,"az":252,"ss":33,"used":true},{"PRN":12,"el":6,"az":319,"ss":0,"used":false},{"PRN":17,"el":62,"az":33,"ss":36,"used":true},{"PRN":19,"el":62,"az":343,"ss":35,"used":true},{"PRN":22,"el":10,"az":41,"ss":0,"used":false},{"PRN":24,"el":17,"az":292,"ss":25,"used":true},{"PRN":28,"el":48,"az":146,"ss":33,"used":true},{"PRN":135,"el":20,"az":247,"ss":0,"used":false},{"PRN":138,"el":39,"az":223,"ss":0,"used":false}]}
{"class":"TPV","device":"/dev/ttyACM0","mode":3,"time":"2019-05-16T21:18:51.000Z","ept":0.005,"lat":35.914790000,"lon":-78.961132000,"alt":92.800,"epx":9.392,"epy":13.513,"epv":39.100,"track":354.7200,"speed":18.905,"climb":0.000,"eps":27.03}
{"class":"SKY","device":"/dev/ttyACM0","xdop":0.63,"ydop":0.90,"vdop":1.70,"tdop":0.82,"hdop":1.19,"gdop":1.84,"pdop":2.08,"satellites":[{"PRN":1,"el":2,"az":50,"ss":0,"used":false},{"PRN":2,"el":26,"az":241,"ss":30,"used":true},{"PRN":3,"el":26,"az":53,"ss":17,"used":true},{"PRN":6,"el":64,"az":252,"ss":33,"used":true},{"PRN":12,"el":6,"az":319,"ss":0,"used":false},{"PRN":17,"el":62,"az":33,"ss":36,"used":true},{"PRN":19,"el":62,"az":343,"ss":36,"used":true},{"PRN":22,"el":10,"az":41,"ss":0,"used":false},{"PRN":24,"el":17,"az":292,"ss":25,"used":true},{"PRN":28,"el":48,"az":146,"ss":33,"used":true},{"PRN":135,"el":20,"az":247,"ss":0,"used":false},{"PRN":138,"el":39,"az":223,"ss":0,"used":false}]}
{"class":"TPV","device":"/dev/ttyACM0","mode":3,"time":"2019-05-16T21:18:52.000Z","ept":0.005,"lat":35.914956833,"lon":-78.961151667,"alt":94.200,"epx":9.392,"epy":13.513,"epv":39.100,"track":354.3000,"speed":18.746,"climb":0.000,"eps":27.03}
{"class":"SKY","device":"/dev/ttyACM0","xdop":0.63,"ydop":0.90,"vdop":1.70,"tdop":0.82,"hdop":1.19,"gdop":1.84,"pdop":2.08,"satellites":[{"PRN":1,"el":2,"az":50,"ss":0,"used":false},{"PRN":2,"el":26,"az":241,"ss":26,"used":true},{"PRN":3,"el":26,"az":53,"ss":15,"used":true},{"PRN":6,"el":64,"az":252,"ss":33,"used":true},{"PRN":12,"el":6,"az":319,"ss":0,"used":false},{"PRN":17,"el":62,"az":33,"ss":33,"used":true},{"PRN":19,"el":62,"az":343,"ss":35,"used":true},{"PRN":22,"el":10,"az":40,"ss":0,"used":false},{"PRN":24,"el":17,"az":292,"ss":23,"used":true},{"PRN":28,"el":48,"az":146,"ss":32,"used":true},{"PRN":135,"el":20,"az":247,"ss":0,"used":false},{"PRN":138,"el":39,"az":223,"ss":0,"used":false}]}
{"class":"TPV","device":"/dev/ttyACM0","mode":3,"time":"2019-05-16T21:18:53.000Z","ept":0.005,"lat":35.915123167,"lon":-78.961173167,"alt":95.600,"epx":9.392,"epy":13.513,"epv":39.100,"track":354.2400,"speed":18.489,"climb":0.000,"eps":27.03}
{"class":"SKY","device":"/dev/ttyACM0","xdop":0.63,"ydop":0.90,"vdop":1.70,"tdop":0.82,"hdop":1.19,"gdop":1.84,"pdop":2.08,"satellites":[{"PRN":1,"el":2,"az":50,"ss":0,"used":false},{"PRN":2,"el":26,"az":241,"ss":28,"used":true},{"PRN":3,"el":26,"az":53,"ss":13,"used":true},{"PRN":6,"el":64,"az":252,"ss":33,"used":true},{"PRN":12,"el":6,"az":319,"ss":0,"used":false},{"PRN":17,"el":62,"az":33,"ss":29,"used":true},{"PRN":19,"el":62,"az":343,"ss":35,"used":true},{"PRN":22,"el":10,"az":40,"ss":0,"used":false},{"PRN":24,"el":17,"az":292,"ss":25,"used":true},{"PRN":28,"el":48,"az":146,"ss":31,"used":true},{"PRN":135,"el":20,"az":247,"ss":0,"used":false},{"PRN":138,"el":39,"az":223,"ss":0,"used":false}]}
{"class":"TPV","device":"/dev/ttyACM0","mode":3,"time":"2019-05-16T21:18:54.000Z","ept":0.005,"lat":35.915288000,"lon":-78.961197167,"alt":97.100,"epx":9.392,"epy":13.513,"epv":39.100,"track":353.4300,"speed":18.371,"climb":0.000,"eps":27.03}
{"class":"SKY","device":"/dev/ttyACM0","xdop":0.63,"ydop":0.90,"vdop":1.70,"tdop":0.82,"hdop":1.19,"gdop":1.84,"pdop":2.08,"satellites":[{"PRN":1,"el":2,"az":50,"ss":0,"used":false},{"PRN":2,"el":26,"az":241,"ss":30,"used":true},{"PRN":3,"el":26,"az":53,"ss":10,"used":true},{"PRN":6,"el":64,"az":252,"ss":33,"used":true},{"PRN":12,"el":6,"az":319,"ss":0,"used":false},{"PRN":17,"el":62,"az":33,"ss":29,"used":true},{"PRN":19,"el":62,"az":343,"ss":35,"used":true},{"PRN":22,"el":10,"az":40,"ss":0,"used":false},{"PRN":24,"el":17,"az":291,"ss":26,"used":true},{"PRN":28,"el":48,"az":146,"ss":30,"used":true},{"PRN":135,"el":20,"az":247,"ss":0,"used":false},{"PRN":138,"el":39,"az":223,"ss":0,"used":false}]}
{"class":"TPV","device":"/dev/ttyACM0","mode":3,"time":"2019-05-16T21:18:55.000Z","ept":0.005,"lat":35.915452000,"lon":-78.961221000,"alt":98.500,"epx":9.392,"epy":13.513,"epv":39.100,"track":353.4700,"speed":18.313,"climb":0.000,"eps":27.03}
{"class":"SKY","device":"/dev/ttyACM0","xdop":0.63,"ydop":0.90,"vdop":1.70,"tdop":0.82,"hdop":1.19,"gdop":1.84,"pdop":2.08,"satellites":[{"PRN":1,"el":2,"az":50,"ss":0,"used":false},{"PRN":2,"el":26,"az":241,"ss":31,"used":true},{"PRN":3,"el":26,"az":53,"ss":12,"used":true},{"PRN":6,"el":64,"az":252,"ss":33,"used":true},{"PRN":12,"el":6,"az":319,"ss":0,"used":false},{"PRN":17,"el":62,"az":33,"ss":28,"used":true},{"PRN":19,"el":62,"az":343,"ss":35,"used":true},{"PRN":22,"el":10,"az":40,"ss":18,"used":false},{"PRN":24,"el":17,"az":291,"ss":26,"used":true},{"PRN":28,"el":48,"az":146,"ss":21,"used":true},{"PRN":135,"el":20,"az":247,"ss":0,"used":false},{"PRN":138,"el":39,"az":223,"ss":0,"used":false}]}
{"class":"TPV","device":"/dev/ttyACM0","mode":3,"time":"2019-05-16T21:18:56.000Z","ept":0.005,"lat":35.915617667,"lon":-78.961242167,"alt":99.000,"epx":9.392,"epy":13.513,"epv":39.100,"track":354.4800,"speed":18.500,"climb":0.000,"eps":27.03}
{"class":"SKY","device":"/dev/ttyACM0","xdop":0.63,"ydop":0.90,"vdop":1.38,"tdop":0.82,"hdop":1.13,"gdop":1.84,"pdop":1.78,"satellites":[{"PRN":1,"el":2,"az":50,"ss":0,"used":false},{"PRN":2,"el":26,"az":241,"ss":27,"used":true},{"PRN":3,"el":26,"az":53,"ss":17,"used":true},{"PRN":6,"el":64,"az":252,"ss":36,"used":true},{"PRN":12,"el":6,"az":319,"ss":0,"used":false},{"PRN":17,"el":62,"az":33,"ss":35,"used":true},{"PRN":19,"el":62,"az":343,"ss":35,"used":true},{"PRN":22,"el":10,"az":40,"ss":27,"used":true},{"PRN":24,"el":17,"az":291,"ss":26,"used":true},{"PRN":28,"el":48,"az":146,"ss":29,"used":true},{"PRN":135,"el":20,"az":247,"ss":0,"used":false},{"PRN":138,"el":39,"az":223,"ss":0,"used":false}]}
{"class":"TPV","device":"/dev/ttyACM0","mode":3,"time":"2019-05-16T21:18:57.000Z","ept":0.005,"lat":35.915783500,"lon":-78.961259833,"alt":99.600,"epx":9.392,"epy":13.513,"epv":39.100,"track":354.9500,"speed":18.437,"climb":0.000,"eps":27.03}
{"class":"SKY","device":"/dev/ttyACM0","xdop":0.63,"ydop":0.90,"vdop":1.38,"tdop":0.82,"hdop":1.13,"gdop":1.84,"pdop":1.78,"satellites":[{"PRN":1,"el":2,"az":50,"ss":0,"used":false},{"PRN":2,"el":26,"az":241,"ss":31,"used":true},{"PRN":3,"el":26,"az":53,"ss":20,"used":true},{"PRN":6,"el":64,"az":252,"ss":35,"used":true},{"PRN":12,"el":6,"az":319,"ss":17,"used":false},{"PRN":17,"el":62,"az":33,"ss":37,"used":true},{"PRN":19,"el":62,"az":343,"ss":36,"used":true},{"PRN":22,"el":10,"az":40,"ss":28,"used":true},{"PRN":24,"el":17,"az":291,"ss":24,"used":true},{"PRN":28,"el":48,"az":146,"ss":35,"used":true},{"PRN":135,"el":20,"az":247,"ss":0,"used":false},{"PRN":138,"el":39,"az":223,"ss":0,"used":false}]}
{"class":"TPV","device":"/dev/ttyACM0","mode":3,"time":"2019-05-16T21:18:58.000Z","ept":0.005,"lat":35.915950167,"lon":-78.961276333,"alt":99.700,"epx":9.392,"epy":13.513,"epv":31.740,"track":354.8800,"speed":18.616,"climb":0.000,"eps":27.03}
{"class":"SKY","device":"/dev/ttyACM0","xdop":0.63,"ydop":0.90,"vdop":1.38,"tdop":0.82,"hdop":1.13,"gdop":1.84,"pdop":1.78,"satellites":[{"PRN":1,"el":2,"az":50,"ss":0,"used":false},{"PRN":2,"el":26,"az":241,"ss":26,"used":true},{"PRN":3,"el":26,"az":53,"ss":21,"used":true},{"PRN":6,"el":64,"az":252,"ss":34,"used":true},{"PRN":12,"el":6,"az":319,"ss":15,"used":false},{"PRN":17,"el":62,"az":33,"ss":36,"used":true},{"PRN":19,"el":62,"az":343,"ss":36,"used":true},{"PRN":22,"el":10,"az":40,"ss":32,"used":true},{"PRN":24,"el":17,"az":291,"ss":27,"used":true},{"PRN":28,"el":48,"az":146,"ss":35,"used":true},{"PRN":135,"el":20,"az":247,"ss":0,"used":false},{"PRN":138,"el":39,"az":223,"ss":0,"used":false}]}
{"class":"TPV","device":"/dev/ttyACM0","mode":3,"time":"2019-05-16T21:18:59.000Z","ept":0.005,"lat":35.916117833,"lon":-78.961295667,"alt":100.100,"epx":9.392,"epy":13.513,"epv":31.740,"track":354.9700,"speed":18.496,"climb":0.000,"eps":27.03}
{"class":"SKY","device":"/dev/ttyACM0","xdop":0.63,"ydop":0.90,"vdop":1.38,"tdop":0.82,"hdop":1.13,"gdop":1.84,"pdop":1.78,"satellites":[{"PRN":1,"el":2,"az":50,"ss":0,"used":false},{"PRN":2,"el":26,"az":241,"ss":32,"used":true},{"PRN":3,"el":26,"az":53,"ss":22,"used":true},{"PRN":6,"el":64,"az":252,"ss":33,"used":true},{"PRN":12,"el":6,"az":319,"ss":11,"used":false},{"PRN":17,"el":62,"az":33,"ss":36,"used":true},{"PRN":19,"el":62,"az":343,"ss":36,"used":true},{"PRN":22,"el":10,"az":40,"ss":32,"used":true},{"PRN":24,"el":17,"az":291,"ss":27,"used":true},{"PRN":28,"el":48,"az":146,"ss":34,"used":true},{"PRN":135,"el":20,"az":247,"ss":0,"used":false},{"PRN":138,"el":39,"az":223,"ss":0,"used":false}]}
{"class":"TPV","device":"/dev/ttyACM0","mode":3,"time":"2019-05-16T21:19:00.000Z","ept":0.005,"lat":35.916283500,"lon":-78.961310333,"alt":99.600,"epx":9.392,"epy":13.513,"epv":31.740,"track":355.1200,"speed":18.392,"climb":0.000,"eps":27.03}
{"class":"SKY","device":"/dev/ttyACM0","xdop":0.63,"ydop":0.90,"vdop":1.38,"tdop":0.82,"hdop":1.13,"gdop":1.84,"pdop":1.78,"satellites":[{"PRN":1,"el":2,"az":50,"ss":0,"used":false},{"PRN":2,"el":26,"az":241,"ss":31,"used":true},{"PRN":3,"el":26,"az":53,"ss":23,"used":true},{"PRN":6,"el":64,"az":252,"ss":34,"used":true},{"PRN":12,"el":6,"az":319,"ss":10,"used":false},{"PRN":17,"el":62,"az":33,"ss":36,"used":true},{"PRN":19,"el":62,"az":343,"ss":36,"used":true},{"PRN":22,"el":10,"az":40,"ss":30,"used":true},{"PRN":24,"el":17,"az":291,"ss":28,"used":true},{"PRN":28,"el":48,"az":146,"ss":34,"used":true},{"PRN":135,"el":20,"az":247,"ss":0,"used":false},{"PRN":138,"el":39,"az":223,"ss":0,"used":false}]}
{"class":"TPV","device":"/dev/ttyACM0","mode":3,"time":"2019-05-16T21:19:01.000Z","ept":0.005,"lat":35.916448833,"lon":-78.961325167,"alt":99.300,"epx":9.392,"epy":13.513,"epv":31.740,"track":355.3000,"speed":18.223,"climb":0.000,"eps":27.03}
{"class":"SKY","device":"/dev/ttyACM0","xdop":0.63,"ydop":0.90,"vdop":1.38,"tdop":0.82,"hdop":1.13,"gdop":1.84,"pdop":1.78,"satellites":[{"PRN":1,"el":2,"az":50,"ss":0,"used":false},{"PRN":2,"el":26,"az":241,"ss":30,"used":true},{"PRN":3,"el":26,"az":53,"ss":23,"used":true},{"PRN":6,"el":64,"az":252,"ss":35,"used":true},{"PRN":12,"el":6,"az":319,"ss":11,"used":false},{"PRN":17,"el":62,"az":33,"ss":36,"used":true},{"PRN":19,"el":62,"az":343,"ss":36,"used":true},{"PRN":22,"el":10,"az":40,"ss":30,"used":true},{"PRN":24,"el":17,"az":291,"ss":28,"used":true},{"PRN":28,"el":48,"az":146,"ss":34,"used":true},{"PRN":135,"el":20,"az":247,"ss":0,"used":false},{"PRN":138,"el":39,"az":223,"ss":0,"used":false}]}
{"class":"TPV","device":"/dev/ttyACM0","mode":3,"time":"2019-05-16T21:19:02.000Z","ept":0.005,"lat":35.916613333,"lon":-78.961341167,"alt":99.500,"epx":9.392,"epy":13.513,"epv":31.740,"track":355.2600,"speed":18.123,"climb":0.000,"eps":27.03}
{"class":"SKY","device":"/dev/ttyACM0","xdop":0.63,"ydop":0.90,"vdop":1.38,"tdop":0.82,"hdop":1.13,"gdop":1.84,"pdop":1.78,"satellites":[{"PRN":1,"el":2,"az":50,"ss":0,"used":false},{"PRN":2,"el":26,"az":241,"ss":31,"used":true},{"PRN":3,"el":26,"az":53,"ss":24,"used":true},{"PRN":6,"el":64,"az":252,"ss":38,"used":true},{"PRN":12,"el":6,"az":319,"ss":13,"used":false},{"PRN":17,"el":62,"az":33,"ss":36,"used":true},{"PRN":19,"el":62,"az":343,"ss":36,"used":true},{"PRN":22,"el":10,"az":40,"ss":22,"used":true},{"PRN":24,"el":17,"az":291,"ss":27,"used":true},{"PRN":28,"el":48,"az":146,"ss":35,"used":true},{"PRN":135,"el":20,"az":247,"ss":0,"used":false},{"PRN":138,"el":39,"az":223,"ss":0,"used":false}]}
{"class":"TPV","device":"/dev/ttyACM0","mode":3,"time":"2019-05-16T21:19:03.000Z","ept":0.005,"lat":35.916775000,"lon":-78.961358500,"alt":100.000,"epx":9.392,"epy":13.513,"epv":31.740,"track":355.1500,"speed":17.928,"climb":0.000,"eps":27.03}
{"class":"SKY","device":"/dev/ttyACM0","xdop":0.63,"ydop":0.90,"vdop":1.38,"tdop":0.82,"hdop":1.13,"gdop":1.84,"pdop":1.78,"satellites":[{"PRN":1,"el":2,"az":50,"ss":0,"used":false},{"PRN":2,"el":26,"az":241,"ss":31,"used":true},{"PRN":3,"el":26,"az":53,"ss":24,"used":true},{"PRN":6,"el":64,"az":252,"ss":36,"used":true},{"PRN":12,"el":6,"az":319,"ss":17,"used":false},{"PRN":17,"el":62,"az":33,"ss":37,"used":true},{"PRN":19,"el":62,"az":343,"ss":37,"used":true},{"PRN":22,"el":10,"az":40,"ss":30,"used":true},{"PRN":24,"el":17,"az":291,"ss":28,"used":true},{"PRN":28,"el":48,"az":146,"ss":35,"used":true},{"PRN":135,"el":20,"az":247,"ss":0,"used":false},{"PRN":138,"el":39,"az":223,"ss":0,"used":false}]}
{"class":"TPV","device":"/dev/ttyACM0","mode":3,"time":"2019-05-16T21:19:04.000Z","ept":0.005,"lat":35.916935167,"lon":-78.961374167,"alt":100.000,"epx":9.392,"epy":13.513,"epv":31.740,"track":355.2200,"speed":17.590,"climb":0.000,"eps":27.03}
{"class":"SKY","device":"/dev/ttyACM0","xdop":0.63,"ydop":0.90,"vdop":1.38,"tdop":0.82,"hdop":1.13,"gdop":1.84,"pdop":1.78,"satellites":[{"PRN":1,"el":2,"az":50,"ss":0,"used":false},{"PRN":2,"el":26,"az":241,"ss":31,"used":true},{"PRN":3,"el":26,"az":53,"ss":23,"used":true},{"PRN":6,"el":64,"az":252,"ss":39,"used":true},{"PRN":12,"el":6,"az":319,"ss":17,"used":false},{"PRN":17,"el":62,"az":33,"ss":39,"used":true},{"PRN":19,"el":62,"az":343,"ss":39,"used":true},{"PRN":22,"el":10,"az":40,"ss":22,"used":true},{"PRN":24,"el":17,"az":291,"ss":28,"used":true},{"PRN":28,"el":48,"az":146,"ss":38,"used":true},{"PRN":135,"el":20,"az":247,"ss":0,"used":false},{"PRN":138,"el":39,"az":223,"ss":0,"used":false}]}
{"class":"TPV","device":"/dev/ttyACM0","mode":3,"time":"2019-05-16T21:19:05.000Z","ept":0.005,"lat":35.917091000,"lon":-78.961390000,"alt":100.300,"epx":9.392,"epy":13.513,"epv":31.740,"track":355.3600,"speed":17.090,"climb":0.000,"eps":27.03}
{"class":"SKY","device":"/dev/ttyACM0","xdop":0.63,"ydop":0.90,"vdop":1.38,"tdop":0.82,"hdop":1.13,"gdop":1.84,"pdop":1.78,"satellites":[{"PRN":1,"el":2,"az":50,"ss":0,"used":false},{"PRN":2,"el":26,"az":241,"ss":32,"used":true},{"PRN":3,"el":26,"az":53,"ss":23,"used":true},{"PRN":6,"el":64,"az":252,"ss":39,"used":true},{"PRN":12,"el":6,"az":319,"ss":18,"used":false},{"PRN":17,"el":62,"az":33,"ss":39,"used":true},{"PRN":19,"el":62,"az":343,"ss":38,"used":true},{"PRN":22,"el":10,"az":40,"ss":30,"used":true},{"PRN":24,"el":17,"az":291,"ss":28,"used":true},{"PRN":28,"el":48,"az":146,"ss":37,"used":true},{"PRN":135,"el":20,"az":247,"ss":0,"used":false},{"PRN":138,"el":39,"az":223,"ss":0,"used":false}]}
{"class":"TPV","device":"/dev/ttyACM0","mode":3,"time":"2019-05-16T21:19:06.000Z","ept":0.005,"lat":35.917243500,"lon":-78.961405833,"alt":100.400,"epx":9.392,"epy":13.513,"epv":31.740,"track":354.9900,"speed":16.861,"climb":0.000,"eps":27.03}
{"class":"SKY","device":"/dev/ttyACM0","xdop":0.63,"ydop":0.90,"vdop":1.38,"tdop":0.82,"hdop":1.13,"gdop":1.84,"pdop":1.78,"satellites":[{"PRN":1,"el":2,"az":50,"ss":23,"used":false},{"PRN":2,"el":26,"az":241,"ss":31,"used":true},{"PRN":3,"el":26,"az":53,"ss":23,"used":true},{"PRN":6,"el":64,"az":252,"ss":38,"used":true},{"PRN":12,"el":6,"az":319,"ss":18,"used":false},{"PRN":17,"el":62,"az":33,"ss":39,"used":true},{"PRN":19,"el":62,"az":343,"ss":37,"used":true},{"PRN":22,"el":10,"az":40,"ss":29,"used":true},{"PRN":24,"el":17,"az":291,"ss":29,"used":true},{"PRN":28,"el":48,"az":146,"ss":35,"used":true},{"PRN":135,"el":20,"az":247,"ss":0,"used":false},{"PRN":138,"el":39,"az":223,"ss":0,"used":false}]}
{"class":"TPV","device":"/dev/ttyACM0","mode":3,"time":"2019-05-16T21:19:07.000Z","ept":0.005,"lat":35.917395500,"lon":-78.961420167,"alt":100.600,"epx":9.392,"epy":13.513,"epv":31.740,"track":355.3600,"speed":16.956,"climb":0.000,"eps":27.03}
{"class":"SKY","device":"/dev/ttyACM0","xdop":0.63,"ydop":0.90,"vdop":1.38,"tdop":0.82,"hdop":1.13,"gdop":1.84,"pdop":1.78,"satellites":[{"PRN":1,"el":2,"az":50,"ss":19,"used":false},{"PRN":2,"el":26,"az":241,"ss":31,"used":true},{"PRN":3,"el":26,"az":53,"ss":21,"used":true},{"PRN":6,"el":64,"az":252,"ss":38,"used":true},{"PRN":12,"el":6,"az":319,"ss":17,"used":false},{"PRN":17,"el":62,"az":33,"ss":39,"used":true},{"PRN":19,"el":62,"az":343,"ss":36,"used":true},{"PRN":22,"el":10,"az":40,"ss":27,"used":true},{"PRN":24,"el":17,"az":291,"ss":29,"used":true},{"PRN":28,"el":48,"az":146,"ss":38,"used":true},{"PRN":135,"el":20,"az":247,"ss":0,"used":false},{"PRN":138,"el":39,"az":223,"ss":0,"used":false}]}
{"class":"TPV","device":"/dev/ttyACM0","mode":3,"time":"2019-05-16T21:19:08.000Z","ept":0.005,"lat":35.917548167,"lon":-78.961436833,"alt":100.900,"epx":9.392,"epy":13.513,"epv":31.740,"track":354.8400,"speed":16.826,"climb":0.000,"eps":27.03}
{"class":"SKY","device":"/dev/ttyACM0","xdop":0.63,"ydop":0.90,"vdop":1.38,"tdop":0.82,"hdop":1.13,"gdop":1.84,"pdop":1.78,"satellites":[{"PRN":1,"el":2,"az":50,"ss":14,"used":false},{"PRN":2,"el":26,"az":241,"ss":31,"used":true},{"PRN":3,"el":26,"az":53,"ss":21,"used":true},{"PRN":6,"el":64,"az":252,"ss":38,"used":true},{"PRN":12,"el":6,"az":319,"ss":16,"used":false},{"PRN":17,"el":62,"az":33,"ss":39,"used":true},{"PRN":19,"el":62,"az":343,"ss":35,"used":true},{"PRN":22,"el":10,"az":40,"ss":26,"used":true},{"PRN":24,"el":17,"az":291,"ss":29,"used":true},{"PRN":28,"el":48,"az":146,"ss":36,"used":true},{"PRN":135,"el":20,"az":247,"ss":0,"used":false},{"PRN":138,"el":39,"az":223,"ss":0,"used":false}]}
{"class":"TPV","device":"/dev/ttyACM0","mode":3,"time":"2019-05-16T21:19:09.000Z","ept":0.005,"lat":35.917698167,"lon":-78.961453333,"alt":100.900,"epx":9.392,"epy":13.513,"epv":31.740,"track":354.7900,"speed":16.619,"climb":0.000,"eps":27.03}
{"class":"SKY","device":"/dev/ttyACM0","xdop":0.63,"ydop":0.90,"vdop":1.38,"tdop":0.82,"hdop":1.13,"gdop":1.84,"pdop":1.78,"satellites":[{"PRN":1,"el":2,"az":50,"ss":11,"used":false},{"PRN":2,"el":26,"az":241,"ss":32,"used":true},{"PRN":3,"el":26,"az":53,"ss":24,"used":true},{"PRN":6,"el":64,"az":252,"ss":38,"used":true},{"PRN":12,"el":6,"az":319,"ss":15,"used":false},{"PRN":17,"el":62,"az":33,"ss":39,"used":true},{"PRN":19,"el":62,"az":343,"ss":35,"used":true},{"PRN":22,"el":10,"az":40,"ss":25,"used":true},{"PRN":24,"el":17,"az":291,"ss":29,"used":true},{"PRN":28,"el":48,"az":146,"ss":36,"used":true},{"PRN":135,"el":20,"az":247,"ss":0,"used":false},{"PRN":138,"el":39,"az":223,"ss":35,"used":false}]}
{"class":"TPV","device":"/dev/ttyACM0","mode":3,"time":"2019-05-16T21:19:10.000Z","ept":0.005,"lat":35.917845667,"lon":-78.961468833,"alt":100.800,"epx":9.392,"epy":13.513,"epv":31.740,"track":354.6500,"speed":16.292,"climb":0.000,"eps":27.03}
{"class":"SKY","device":"/dev/ttyACM0","xdop":0.63,"ydop":0.90,"vdop":1.38,"tdop":0.82,"hdop":1.13,"gdop":1.84,"pdop":1.78,"satellites":[{"PRN":1,"el":2,"az":50,"ss":10,"used":false},{"PRN":2,"el":26,"az":241,"ss":32,"used":true},{"PRN":3,"el":26,"az":53,"ss":26,"used":true},{"PRN":6,"el":64,"az":252,"ss":38,"used":true},{"PRN":12,"el":6,"az":319,"ss":11,"used":false},{"PRN":17,"el":62,"az":33,"ss":39,"used":true},{"PRN":19,"el":62,"az":343,"ss":34,"used":true},{"PRN":22,"el":10,"az":40,"ss":24,"used":true},{"PRN":24,"el":17,"az":291,"ss":29,"used":true},{"PRN":28,"el":48,"az":146,"ss":36,"used":true},{"PRN":135,"el":20,"az":247,"ss":0,"used":false},{"PRN":138,"el":39,"az":223,"ss":35,"used":false}]}
{"class":"TPV","device":"/dev/ttyACM0","mode":3,"time":"2019-05-16T21:19:11.000Z","ept":0.005,"lat":35.917988833,"lon":-78.961484167,"alt":100.700,"epx":9.392,"epy":13.513,"epv":31.740,"track":354.7200,"speed":15.692,"climb":0.000,"eps":27.03}
{"class":"SKY","device":"/dev/ttyACM0","xdop":0.63,"ydop":0.90,"vdop":1.38,"tdop":0.82,"hdop":1.13,"gdop":1.84,"pdop":1.78,"satellites":[{"PRN":1,"el":2,"az":50,"ss":14,"used":false},{"PRN":2,"el":26,"az":241,"ss":31,"used":true},{"PRN":3,"el":26,"az":53,"ss":25,"used":true},{"PRN":6,"el":64,"az":252,"ss":38,"used":true},{"PRN":12,"el":6,"az":319,"ss":10,"used":false},{"PRN":17,"el":62,"az":33,"ss":39,"used":true},{"PRN":19,"el":62,"az":343,"ss":36,"used":true},{"PRN":22,"el":10,"az":40,"ss":26,"used":true},{"PRN":24,"el":17,"az":291,"ss":28,"used":true},{"PRN":28,"el":48,"az":146,"ss":37,"used":true},{"PRN":135,"el":20,"az":247,"ss":0,"used":false},{"PRN":138,"el":39,"az":223,"ss":35,"used":false}]}
{"class":"TPV","device":"/dev/ttyACM0","mode":3,"time":"2019-05-16T21:19:12.000Z","ept":0.005,"lat":35.918126500,"lon":-78.961497000,"alt":100.500,"epx":9.392,"epy":13.513,"epv":31.740,"track":355.2700,"speed":15.049,"climb":0.000,"eps":27.03}
{"class":"SKY","device":"/dev/ttyACM0","xdop":0.63,"ydop":0.90,"vdop":1.38,"tdop":0.82,"hdop":1.13,"gdop":1.84,"pdop":1.78,"satellites":[{"PRN":1,"el":2,"az":50,"ss":15,"used":false},{"PRN":2,"el":26,"az":241,"ss":31,"used":true},{"PRN":3,"el":26,"az":53,"ss":26,"used":true},{"PRN":6,"el":64,"az":252,"ss":38,"used":true},{"PRN":12,"el":6,"az":319,"ss":9,"used":false},{"PRN":17,"el":62,"az":33,"ss":39,"used":true},{"PRN":19,"el":62,"az":343,"ss":36,"used":true},{"PRN":22,"el":10,"az":40,"ss":26,"used":true},{"PRN":24,"el":17,"az":291,"ss":25,"used":true},{"PRN":28,"el":48,"az":146,"ss":36,"used":true},{"PRN":135,"el":20,"az":247,"ss":0,"used":false},{"PRN":138,"el":39,"az":223,"ss":36,"used":false}]}
{"class":"TPV","device":"/dev/ttyACM0","mode":3,"time":"2019-05-16T21:19:13.000Z","ept":0.005,"lat":35.918256500,"lon":-78.961506500,"alt":100.300,"epx":9.392,"epy":13.513,"epv":31.740,"track":356.5900,"speed":14.172,"climb":0.000,"eps":27.03}
{"class":"SKY","device":"/dev/ttyACM0","xdop":0.63,"ydop":0.90,"vdop":1.38,"tdop":0.82,"hdop":1.13,"gdop":1.84,"pdop":1.78,"satellites":[{"PRN":1,"el":2,"az":50,"ss":17,"used":false},{"PRN":2,"el":26,"az":241,"ss":31,"used":true},{"PRN":3,"el":26,"az":53,"ss":31,"used":true},{"PRN":6,"el":64,"az":252,"ss":37,"used":true},{"PRN":12,"el":6,"az":319,"ss":12,"used":false},{"PRN":17,"el":62,"az":33,"ss":38,"used":true},{"PRN":19,"el":62,"az":343,"ss":32,"used":true},{"PRN":22,"el":10,"az":40,"ss":26,"used":true},{"PRN":24,"el":17,"az":291,"ss":27,"used":true},{"PRN":28,"el":48,"az":146,"ss":36,"used":true},{"PRN":135,"el":20,"az":247,"ss":0,"used":false},{"PRN":138,"el":39,"az":223,"ss":37,"used":false}]}
{"class":"TPV","device":"/dev/ttyACM0","mode":3,"time":"2019-05-16T21:19:14.000Z","ept":0.005,"lat":35.918379000,"lon":-78.961507500,"alt":99.900,"epx":9.392,"epy":13.513,"epv":31.740,"track":0.3300,"speed":13.231,"climb":0.000,"eps":27.03}
{"class":"SKY","device":"/dev/ttyACM0","xdop":0.63,"ydop":0.90,"vdop":1.38,"tdop":0.82,"hdop":1.13,"gdop":1.84,"pdop":1.78,"satellites":[{"PRN":1,"el":2,"az":50,"ss":21,"used":false},{"PRN":2,"el":26,"az":241,"ss":28,"used":true},{"PRN":3,"el":26,"az":53,"ss":24,"used":true},{"PRN":6,"el":64,"az":252,"ss":35,"used":true},{"PRN":12,"el":6,"az":319,"ss":12,"used":false},{"PRN":17,"el":62,"az":33,"ss":35,"used":true},{"PRN":19,"el":62,"az":343,"ss":30,"used":true},{"PRN":22,"el":10,"az":40,"ss":26,"used":true},{"PRN":24,"el":17,"az":291,"ss":35,"used":true},{"PRN":28,"el":48,"az":146,"ss":36,"used":true},{"PRN":135,"el":20,"az":247,"ss":0,"used":false},{"PRN":138,"el":39,"az":223,"ss":37,"used":false}]}
{"class":"TPV","device":"/dev/ttyACM0","mode":3,"time":"2019-05-16T21:19:15.000Z","ept":0.005,"lat":35.918494333,"lon":-78.961496333,"alt":99.200,"epx":9.392,"epy":13.513,"epv":31.740,"track":6.7300,"speed":12.581,"climb":0.000,"eps":27.03}
{"class":"SKY","device":"/dev/ttyACM0","xdop":0.63,"ydop":0.90,"vdop":1.38,"tdop":0.82,"hdop":1.13,"gdop":1.84,"pdop":1.78,"satellites":[{"PRN":1,"el":2,"az":50,"ss":22,"used":false},{"PRN":2,"el":26,"az":241,"ss":34,"used":true},{"PRN":3,"el":26,"az":53,"ss":32,"used":true},{"PRN":6,"el":64,"az":252,"ss":39,"used":true},{"PRN":12,"el":6,"az":319,"ss":11,"used":false},{"PRN":17,"el":62,"az":33,"ss":38,"used":true},{"PRN":19,"el":62,"az":343,"ss":39,"used":true},{"PRN":22,"el":10,"az":40,"ss":32,"used":true},{"PRN":24,"el":17,"az":291,"ss":24,"used":true},{"PRN":28,"el":48,"az":146,"ss":38,"used":true},{"PRN":135,"el":20,"az":247,"ss":0,"used":false},{"PRN":138,"el":39,"az":223,"ss":32,"used":false}]}
{"class":"TPV","device":"/dev/ttyACM0","mode":3,"time":"2019-05-16T21:19:16.000Z","ept":0.005,"lat":35.918600833,"lon":-78.961463833,"alt":98.500,"epx":9.392,"epy":13.513,"epv":31.740,"track":15.2800,"speed":12.078,"climb":0.000,"eps":27.03}
{"class":"SKY","device":"/dev/ttyACM0","xdop":0.63,"ydop":0.90,"vdop":1.38,"tdop":0.82,"hdop":1.13,"gdop":1.84,"pdop":1.78,"satellites":[{"PRN":1,"el":1,"az":50,"ss":24,"used":false},{"PRN":2,"el":26,"az":241,"ss":30,"used":true},{"PRN":3,"el":26,"az":53,"ss":32,"used":true},{"PRN":6,"el":64,"az":252,"ss":39,"used":true},{"PRN":12,"el":6,"az":319,"ss":9,"used":false},{"PRN":17,"el":62,"az":33,"ss":36,"used":true},{"PRN":19,"el":62,"az":343,"ss":39,"used":true},{"PRN":22,"el":10,"az":40,"ss":26,"used":true},{"PRN":24,"el":17,"az":291,"ss":22,"used":true},{"PRN":28,"el":48,"az":146,"ss":35,"used":true},{"PRN":135,"el":20,"az":247,"ss":0,"used":false},{"PRN":138,"el":39,"az":223,"ss":30,"used":false}]}
{"class":"TPV","device":"/dev/ttyACM0","mode":3,"time":"2019-05-16T21:19:17.000Z","ept":0.005,"lat":35.918699833,"lon":-78.961414500,"alt":98.100,"epx":9.392,"epy":13.513,"epv":31.740,"track":24.8500,"speed":11.524,"climb":0.000,"eps":27.03}
{"class":"SKY","device":"/dev/ttyACM0","xdop":0.63,"ydop":0.90,"vdop":1.38,"tdop":0.82,"hdop":1.13,"gdop":1.84,"pdop":1.78,"satellites":[{"PRN":1,"el":1,"az":50,"ss":26,"used":false},{"PRN":2,"el":26,"az":242,"ss":30,"used":true},{"PRN":3,"el":26,"az":53,"ss":35,"used":true},{"PRN":6,"el":64,"az":252,"ss":43,"used":true},{"PRN":12,"el":6,"az":319,"ss":9,"used":false},{"PRN":17,"el":62,"az":33,"ss":35,"used":true},{"PRN":19,"el":62,"az":343,"ss":38,"used":true},{"PRN":22,"el":10,"az":40,"ss":27,"used":true},{"PRN":24,"el":17,"az":291,"ss":22,"used":true},{"PRN":28,"el":48,"az":146,"ss":34,"used":true},{"PRN":135,"el":20,"az":247,"ss":0,"used":false},{"PRN":138,"el":39,"az":223,"ss":33,"used":false}]}
{"class":"TPV","device":"/dev/ttyACM0","mode":3,"time":"2019-05-16T21:19:18.000Z","ept":0.005,"lat":35.918786500,"lon":-78.961350667,"alt":97.700,"epx":9.392,"epy":13.513,"epv":31.740,"track":32.0800,"speed":11.034,"climb":0.000,"eps":27.03}
{"class":"SKY","device":"/dev/ttyACM0","xdop":0.63,"ydop":0.90,"vdop":1.38,"tdop":0.82,"hdop":1.13,"gdop":1.84,"pdop":1.78,"satellites":[{"PRN":1,"el":1,"az":50,"ss":27,"used":false},{"PRN":2,"el":26,"az":242,"ss":24,"used":true},{"PRN":3,"el":26,"az":52,"ss":35,"used":true},{"PRN":6,"el":64,"az":252,"ss":43,"used":true},{"PRN":12,"el":6,"az":319,"ss":9,"used":false},{"PRN":17,"el":62,"az":33,"ss":35,"used":true},{"PRN":19,"el":62,"az":343,"ss":36,"used":true},{"PRN":22,"el":10,"az":40,"ss":27,"used":true},{"PRN":24,"el":17,"az":291,"ss":21,"used":true},{"PRN":28,"el":48,"az":146,"ss":35,"used":true},{"PRN":135,"el":20,"az":247,"ss":0,"used":false},{"PRN":138,"el":39,"az":223,"ss":32,"used":false}]}
{"class":"TPV","device":"/dev/ttyACM0","mode":3,"time":"2019-05-16T21:19:19.000Z","ept":0.005,"lat":35.918869167,"lon":-78.961275333,"alt":97.200,"epx":9.392,"epy":13.513,"epv":31.740,"track":37.9500,"speed":11.198,"climb":0.000,"eps":27.03}
{"class":"SKY","device":"/dev/ttyACM0","xdop":0.63,"ydop":0.90,"vdop":1.38,"tdop":0.82,"hdop":1.13,"gdop":1.84,"pdop":1.78,"satellites":[{"PRN":1,"el":1,"az":50,"ss":27,"used":false},{"PRN":2,"el":26,"az":242,"ss":22,"used":true},{"PRN":3,"el":26,"az":52,"ss":31,"used":true},{"PRN":6,"el":64,"az":252,"ss":41,"used":true},{"PRN":12,"el":6,"az":319,"ss":8,"used":false},{"PRN":17,"el":62,"az":33,"ss":37,"used":true},{"PRN":19,"el":62,"az":343,"ss":35,"used":true},{"PRN":22,"el":10,"az":40,"ss":27,"used":true},{"PRN":24,"el":17,"az":291,"ss":22,"used":true},{"PRN":28,"el":48,"az":146,"ss":37,"used":true},{"PRN":135,"el":20,"az":247,"ss":0,"used":false},{"PRN":138,"el":39,"az":223,"ss":31,"used":false}]}
{"class":"TPV","device":"/dev/ttyACM0","mode":3,"time":"2019-05-16T21:19:20.000Z","ept":0.005,"lat":35.918948833,"lon":-78.961190667,"alt":96.800,"epx":9.392,"epy":13.513,"epv":31.740,"track":41.9000,"speed":11.675,"climb":0.000,"eps":27.03}
{"class":"SKY","device":"/dev/ttyACM0","xdop":0.63,"ydop":0.90,"vdop":1.38,"tdop":0.82,"hdop":1.13,"gdop":1.84,"pdop":1.78,"satellites":[{"PRN":1,"el":1,"az":50,"ss":25,"used":false},{"PRN":2,"el":26,"az":242,"ss":21,"used":true},{"PRN":3,"el":26,"az":52,"ss":31,"used":true},{"PRN":6,"el":64,"az":253,"ss":42,"used":true},{"PRN":12,"el":6,"az":319,"ss":8,"used":false},{"PRN":17,"el":62,"az":33,"ss":39,"used":true},{"PRN":19,"el":62,"az":343,"ss":35,"used":true},{"PRN":22,"el":10,"az":40,"ss":29,"used":true},{"PRN":24,"el":17,"az":291,"ss":21,"used":true},{"PRN":28,"el":48,"az":146,"ss":37,"used":true},{"PRN":135,"el":20,"az":247,"ss":0,"used":false},{"PRN":138,"el":39,"az":223,"ss":32,"used":false}]}
{"class":"TPV","device":"/dev/ttyACM0","mode":3,"time":"2019-05-16T21:19:21.000Z","ept":0.005,"lat":35.919030000,"lon":-78.961100500,"alt":96.400,"epx":9.392,"epy":13.513,"epv":31.740,"track":42.8400,"speed":12.137,"climb":0.000,"eps":27.03}
{"class":"SKY","device":"/dev/ttyACM0","xdop":0.63,"ydop":0.90,"vdop":1.38,"tdop":0.82,"hdop":1.13,"gdop":1.84,"pdop":1.78,"satellites":[{"PRN":1,"el":1,"az":50,"ss":22,"used":false},{"PRN":2,"el":26,"az":242,"ss":22,"used":true},{"PRN":3,"el":26,"az":52,"ss":30,"used":true},{"PRN":6,"el":64,"az":253,"ss":40,"used":true},{"PRN":12,"el":6,"az":319,"ss":8,"used":false},{"PRN":17,"el":62,"az":33,"ss":37,"used":true},{"PRN":19,"el":62,"az":343,"ss":31,"used":true},{"PRN":22,"el":10,"az":40,"ss":29,"used":true},{"PRN":24,"el":17,"az":291,"ss":21,"used":true},{"PRN":28,"el":48,"az":146,"ss":37,"used":true},{"PRN":135,"el":20,"az":247,"ss":0,"used":false},{"PRN":138,"el":39,"az":223,"ss":34,"used":false}]}
{"class":"TPV","device":"/dev/ttyACM0","mode":3,"time":"2019-05-16T21:19:22.000Z","ept":0.005,"lat":35.919109833,"lon":-78.961008833,"alt":96.300,"epx":9.392,"epy":13.513,"epv":31.740,"track":43.9300,"speed":11.885,"climb":0.000,"eps":27.03}
