{"class":"VERSION","release":"3.16","rev":"3.16-4","proto_major":3,"proto_minor":11}
{"class":"DEVICES","devices":[{"class":"DEVICE","path":"/dev/ttyACM0","driver":"NMEA0183","activated":"2019-05-16T21:10:54.069Z","flags":1,"native":0,"bps":9600,"parity":"N","stopbits":1,"cycle":1.00}]}
{"class":"WATCH","enable":true,"json":true,"nmea":false,"raw":0,"scaled":false,"timing":false,"split24":false,"pps":false}
{"class":"SKY","device":"/dev/ttyACM0","xdop":0.63,"ydop":0.90,"vdop":1.40,"tdop":0.82,"hdop":1.12,"gdop":1.84,"pdop":1.79,"satellites":[{"PRN":1,"el":5,"az":48,"ss":21,"used":false},{"PRN":2,"el":23,"az":239,"ss":25,"used":true},{"PRN":3,"el":28,"az":56,"ss":27,"used":true},{"PRN":6,"el":61,"az":246,"ss":31,"used":true},{"PRN":12,"el":3,"az":319,"ss":0,"used":false},{"PRN":17,"el":63,"az":25,"ss":33,"used":true},{"PRN":19,"el":60,"az":335,"ss":27,"used":true},{"PRN":22,"el":12,"az":42,"ss":18,"used":true},{"PRN":24,"el":17,"az":295,"ss":25,"used":true},{"PRN":28,"el":52,"az":144,"ss":37,"used":true},{"PRN":135,"el":20,"az":247,"ss":0,"used":false},{"PRN":138,"el":39,"az":223,"ss":0,"used":false}]}
{"class":"TPV","device":"/dev/ttyACM0","mode":3,"time":"2019-05-16T21:10:55.000Z","ept":0.005,"lat":35.927653500,"lon":-78.921606500,"alt":112.100,"epx":9.392,"epy":13.513,"epv":32.200,"track":227.9100,"speed":9.560,"climb":0.000,"eps":27.03}
{"class":"SKY","device":"/dev/ttyACM0","xdop":0.63,"ydop":0.90,"vdop":1.40,"tdop":0.82,"hdop":1.12,"gdop":1.84,"pdop":1.79,"satellites":[{"PRN":1,"el":5,"az":48,"ss":20,"used":false},{"PRN":2,"el":23,"az":239,"ss":24,"used":true},{"PRN":3,"el":28,"az":56,"ss":27,"used":true},{"PRN":6,"el":61,"az":246,"ss":34,"used":true},{"PRN":12,"el":3,"az":319,"ss":0,"used":false},{"PRN":17,"el":63,"az":25,"ss":36,"used":true},{"PRN":19,"el":60,"az":335,"ss":26,"used":true},{"PRN":22,"el":12,"az":42,"ss":17,"used":true},{"PRN":24,"el":17,"az":295,"ss":30,"used":true},{"PRN":28,"el":52,"az":144,"ss":35,"used":true},{"PRN":135,"el":20,"az":247,"ss":0,"used":false},{"PRN":138,"el":39,"az":223,"ss":0,"used":false}]}
{"class":"TPV","device":"/dev/ttyACM0","mode":3,"time":"2019-05-16T21:10:56.000Z","ept":0.005,"lat":35.927593833,"lon":-78.921691500,"alt":111.800,"epx":9.392,"epy":13.513,"epv":32.200,"track":229.0500,"speed":10.139,"climb":0.000,"eps":27.03}
{"class":"SKY","device":"/dev/ttyACM0","xdop":0.63,"ydop":0.90,"vdop":1.40,"tdop":0.82,"hdop":1.12,"gdop":1.84,"pdop":1.79,"satellites":[{"PRN":1,"el":5,"az":48,"ss":19,"used":false},{"PRN":2,"el":23,"az":239,"ss":21,"used":true},{"PRN":3,"el":28,"az":56,"ss":28,"used":true},{"PRN":6,"el":61,"az":246,"ss":33,"used":true},{"PRN":12,"el":3,"az":319,"ss":0,"used":false},{"PRN":17,"el":63,"az":25,"ss":41,"used":true},{"PRN":19,"el":60,"az":335,"ss":32,"used":true},{"PRN":22,"el":12,"az":42,"ss":18,"used":true},{"PRN":24,"el":17,"az":295,"ss":24,"used":true},{"PRN":28,"el":52,"az":144,"ss":35,"used":true},{"PRN":135,"el":20,"az":247,"ss":0,"used":false},{"PRN":138,"el":39,"az":223,"ss":0,"used":false}]}
{"class":"TPV","device":"/dev/ttyACM0","mode":3,"time":"2019-05-16T21:10:57.000Z","ept":0.005,"lat":35.927531167,"lon":-78.921780500,"alt":111.100,"epx":9.392,"epy":13.513,"epv":32.200,"track":229.6700,"speed":10.779,"climb":0.000,"eps":27.03}
{"class":"SKY","device":"/dev/ttyACM0","xdop":0.63,"ydop":0.90,"vdop":1.40,"tdop":0.82,"hdop":1.12,"gdop":1.84,"pdop":1.79,"satellites":[{"PRN":1,"el":5,"az":48,"ss":19,"used":false},{"PRN":2,"el":23,"az":239,"ss":19,"used":true},{"PRN":3,"el":28,"az":56,"ss":28,"used":true},{"PRN":6,"el":61,"az":246,"ss":33,"used":true},{"PRN":12,"el":3,"az":319,"ss":0,"used":false},{"PRN":17,"el":63,"az":25,"ss":41,"used":true},{"PRN":19,"el":60,"az":335,"ss":30,"used":true},{"PRN":22,"el":12,"az":42,"ss":17,"used":true},{"PRN":24,"el":17,"az":295,"ss":24,"used":true},{"PRN":28,"el":52,"az":144,"ss":34,"used":true},{"PRN":135,"el":20,"az":247,"ss":0,"used":false},{"PRN":138,"el":39,"az":223,"ss":0,"used":false}]}
{"class":"TPV","device":"/dev/ttyACM0","mode":3,"time":"2019-05-16T21:10:58.000Z","ept":0.005,"lat":35.927464833,"lon":-78.921873167,"alt":111.000,"epx":9.392,"epy":13.513,"epv":32.200,"track":228.4600,"speed":11.261,"climb":0.000,"eps":27.03}
{"class":"SKY","device":"/dev/ttyACM0","xdop":0.63,"ydop":0.90,"vdop":1.40,"tdop":0.82,"hdop":1.12,"gdop":1.84,"pdop":1.79,"satellites":[{"PRN":1,"el":5,"az":48,"ss":19,"used":false},{"PRN":2,"el":23,"az":239,"ss":20,"used":true},{"PRN":3,"el":28,"az":56,"ss":29,"used":true},{"PRN":6,"el":61,"az":246,"ss":28,"used":true},{"PRN":12,"el":3,"az":319,"ss":0,"used":false},{"PRN":17,"el":63,"az":25,"ss":42,"used":true},{"PRN":19,"el":60,"az":335,"ss":34,"used":true},{"PRN":22,"el":12,"az":42,"ss":19,"used":true},{"PRN":24,"el":17,"az":295,"ss":21,"used":true},{"PRN":28,"el":52,"az":144,"ss":31,"used":true},{"PRN":135,"el":20,"az":247,"ss":0,"used":false},{"PRN":138,"el":39,"az":223,"ss":0,"used":false}]}
{"class":"TPV","device":"/dev/ttyACM0","mode":3,"time":"2019-05-16T21:10:59.000Z","ept":0.005,"lat":35.927398667,"lon":-78.921969500,"alt":111.400,"epx":9.392,"epy":13.513,"epv":32.200,"track":229.2100,"speed":11.632,"climb":0.000,"eps":27.03}
{"class":"SKY","device":"/dev/ttyACM0","xdop":0.63,"ydop":0.90,"vdop":1.40,"tdop":0.82,"hdop":1.12,"gdop":1.84,"pdop":1.79,"satellites":[{"PRN":1,"el":5,"az":48,"ss":19,"used":false},{"PRN":2,"el":23,"az":239,"ss":22,"used":true},{"PRN":3,"el":28,"az":56,"ss":28,"used":true},{"PRN":6,"el":61,"az":246,"ss":28,"used":true},{"PRN":12,"el":3,"az":319,"ss":0,"used":false},{"PRN":17,"el":63,"az":25,"ss":36,"used":true},{"PRN":19,"el":60,"az":335,"ss":29,"used":true},{"PRN":22,"el":12,"az":42,"ss":18,"used":true},{"PRN":24,"el":17,"az":295,"ss":20,"used":true},{"PRN":28,"el":52,"az":144,"ss":31,"used":true},{"PRN":135,"el":20,"az":247,"ss":0,"used":false},{"PRN":138,"el":39,"az":223,"ss":0,"used":false}]}
{"class":"TPV","device":"/dev/ttyACM0","mode":3,"time":"2019-05-16T21:11:00.000Z","ept":0.005,"lat":35.927330500,"lon":-78.922070833,"alt":111.300,"epx":9.392,"epy":13.513,"epv":32.200,"track":231.0700,"speed":11.958,"climb":0.000,"eps":27.03}
{"class":"SKY","device":"/dev/ttyACM0","xdop":0.63,"ydop":0.90,"vdop":1.40,"tdop":0.82,"hdop":1.12,"gdop":1.84,"pdop":1.79,"satellites":[{"PRN":1,"el":5,"az":48,"ss":17,"used":false},{"PRN":2,"el":23,"az":239,"ss":22,"used":true},{"PRN":3,"el":28,"az":56,"ss":28,"used":true},{"PRN":6,"el":61,"az":246,"ss":35,"used":true},{"PRN":12,"el":3,"az":319,"ss":0,"used":false},{"PRN":17,"el":63,"az":25,"ss":35,"used":true},{"PRN":19,"el":60,"az":335,"ss":29,"used":true},{"PRN":22,"el":12,"az":42,"ss":17,"used":true},{"PRN":24,"el":17,"az":295,"ss":19,"used":true},{"PRN":28,"el":52,"az":144,"ss":31,"used":true},{"PRN":135,"el":20,"az":247,"ss":0,"used":false},{"PRN":138,"el":39,"az":223,"ss":0,"used":false}]}
{"class":"TPV","device":"/dev/ttyACM0","mode":3,"time":"2019-05-16T21:11:01.000Z","ept":0.005,"lat":35.927267333,"lon":-78.922178333,"alt":110.600,"epx":9.392,"epy":13.513,"epv":32.200,"track":233.7500,"speed":11.892,"climb":0.000,"eps":27.03}
{"class":"SKY","device":"/dev/ttyACM0","xdop":0.63,"ydop":0.90,"vdop":1.71,"tdop":0.82,"hdop":1.19,"gdop":1.84,"pdop":2.09,"satellites":[{"PRN":1,"el":5,"az":48,"ss":16,"used":false},{"PRN":2,"el":23,"az":239,"ss":22,"used":true},{"PRN":3,"el":28,"az":56,"ss":26,"used":true},{"PRN":6,"el":61,"az":246,"ss":31,"used":true},{"PRN":12,"el":3,"az":319,"ss":0,"used":false},{"PRN":17,"el":63,"az":25,"ss":42,"used":true},{"PRN":19,"el":60,"az":335,"ss":34,"used":true},{"PRN":22,"el":12,"az":42,"ss":16,"used":false},{"PRN":24,"el":17,"az":295,"ss":23,"used":true},{"PRN":28,"el":52,"az":144,"ss":31,"used":true},{"PRN":135,"el":20,"az":247,"ss":0,"used":false},{"PRN":138,"el":39,"az":223,"ss":0,"used":false}]}
{"class":"TPV","device":"/dev/ttyACM0","mode":3,"time":"2019-05-16T21:11:02.000Z","ept":0.005,"lat":35.927199833,"lon":-78.922278833,"alt":110.300,"epx":9.392,"epy":13.513,"epv":32.200,"track":230.7200,"speed":11.804,"climb":0.000,"eps":27.03}
{"class":"SKY","device":"/dev/ttyACM0","xdop":0.63,"ydop":0.90,"vdop":1.40,"tdop":0.82,"hdop":1.12,"gdop":1.84,"pdop":1.79,"satellites":[{"PRN":1,"el":5,"az":48,"ss":17,"used":false},{"PRN":2,"el":23,"az":239,"ss":23,"used":true},{"PRN":3,"el":28,"az":56,"ss":26,"used":true},{"PRN":6,"el":61,"az":246,"ss":27,"used":true},{"PRN":12,"el":3,"az":319,"ss":0,"used":false},{"PRN":17,"el":63,"az":25,"ss":41,"used":true},{"PRN":19,"el":60,"az":335,"ss":30,"used":true},{"PRN":22,"el":12,"az":42,"ss":15,"used":true},{"PRN":24,"el":17,"az":295,"ss":24,"used":true},{"PRN":28,"el":52,"az":144,"ss":34,"used":true},{"PRN":135,"el":20,"az":247,"ss":0,"used":false},{"PRN":138,"el":39,"az":223,"ss":0,"used":false}]}
{"class":"TPV","device":"/dev/ttyACM0","mode":3,"time":"2019-05-16T21:11:03.000Z","ept":0.005,"lat":35.927133167,"lon":-78.922379000,"alt":110.500,"epx":9.392,"epy":13.513,"epv":39.330,"track":230.3000,"speed":11.767,"climb":0.000,"eps":27.03}
{"class":"SKY","device":"/dev/ttyACM0","xdop":0.63,"ydop":0.90,"vdop":1.40,"tdop":0.82,"hdop":1.12,"gdop":1.84,"pdop":1.79,"satellites":[{"PRN":1,"el":5,"az":48,"ss":16,"used":false},{"PRN":2,"el":23,"az":239,"ss":25,"used":true},{"PRN":3,"el":28,"az":56,"ss":27,"used":true},{"PRN":6,"el":61,"az":246,"ss":31,"used":true},{"PRN":12,"el":3,"az":319,"ss":0,"used":false},{"PRN":17,"el":63,"az":25,"ss":37,"used":true},{"PRN":19,"el":60,"az":335,"ss":25,"used":true},{"PRN":22,"el":12,"az":42,"ss":15,"used":true},{"PRN":24,"el":17,"az":295,"ss":31,"used":true},{"PRN":28,"el":52,"az":144,"ss":35,"used":true},{"PRN":135,"el":20,"az":247,"ss":0,"used":false},{"PRN":138,"el":39,"az":223,"ss":0,"used":false}]}
{"class":"TPV","device":"/dev/ttyACM0","mode":3,"time":"2019-05-16T21:11:04.000Z","ept":0.005,"lat":35.927062333,"lon":-78.922482833,"alt":108.700,"epx":9.392,"epy":13.513,"epv":32.200,"track":228.1800,"speed":12.259,"climb":0.000,"eps":27.03}
{"class":"SKY","device":"/dev/ttyACM0","xdop":0.63,"ydop":0.90,"vdop":1.40,"tdop":0.82,"hdop":1.12,"gdop":1.84,"pdop":1.79,"satellites":[{"PRN":1,"el":5,"az":48,"ss":17,"used":false},{"PRN":2,"el":23,"az":239,"ss":26,"used":true},{"PRN":3,"el":28,"az":56,"ss":27,"used":true},{"PRN":6,"el":61,"az":246,"ss":30,"used":true},{"PRN":12,"el":3,"az":319,"ss":0,"used":false},{"PRN":17,"el":63,"az":25,"ss":42,"used":true},{"PRN":19,"el":60,"az":335,"ss":34,"used":true},{"PRN":22,"el":12,"az":42,"ss":15,"used":true},{"PRN":24,"el":17,"az":295,"ss":30,"used":true},{"PRN":28,"el":52,"az":144,"ss":34,"used":true},{"PRN":135,"el":20,"az":247,"ss":0,"used":false},{"PRN":138,"el":39,"az":223,"ss":0,"used":false}]}
{"class":"TPV","device":"/dev/ttyACM0","mode":3,"time":"2019-05-16T21:11:05.000Z","ept":0.005,"lat":35.926989333,"lon":-78.922587833,"alt":107.400,"epx":9.392,"epy":13.513,"epv":32.200,"track":228.3300,"speed":12.281,"climb":0.000,"eps":27.03}
{"class":"SKY","device":"/dev/ttyACM0","xdop":0.63,"ydop":0.90,"vdop":1.40,"tdop":0.82,"hdop":1.12,"gdop":1.84,"pdop":1.79,"satellites":[{"PRN":1,"el":5,"az":48,"ss":17,"used":false},{"PRN":2,"el":23,"az":239,"ss":25,"used":true},{"PRN":3,"el":28,"az":56,"ss":28,"used":true},{"PRN":6,"el":61,"az":246,"ss":34,"used":true},{"PRN":12,"el":3,"az":319,"ss":0,"used":false},{"PRN":17,"el":63,"az":25,"ss":31,"used":true},{"PRN":19,"el":60,"az":335,"ss":30,"used":true},{"PRN":22,"el":12,"az":42,"ss":16,"used":true},{"PRN":24,"el":17,"az":295,"ss":30,"used":true},{"PRN":28,"el":52,"az":144,"ss":31,"used":true},{"PRN":135,"el":20,"az":247,"ss":0,"used":false},{"PRN":138,"el":39,"az":223,"ss":0,"used":false}]}
{"class":"TPV","device":"/dev/ttyACM0","mode":3,"time":"2019-05-16T21:11:06.000Z","ept":0.005,"lat":35.926917833,"lon":-78.922694333,"alt":107.200,"epx":9.392,"epy":13.513,"epv":32.200,"track":230.3100,"speed":12.437,"climb":0.000,"eps":27.03}
{"class":"SKY","device":"/dev/ttyACM0","xdop":0.63,"ydop":0.90,"vdop":1.40,"tdop":0.82,"hdop":1.12,"gdop":1.84,"pdop":1.79,"satellites":[{"PRN":1,"el":5,"az":48,"ss":17,"used":false},{"PRN":2,"el":23,"az":239,"ss":24,"used":true},{"PRN":3,"el":28,"az":56,"ss":28,"used":true},{"PRN":6,"el":61,"az":246,"ss":34,"used":true},{"PRN":12,"el":3,"az":319,"ss":0,"used":false},{"PRN":17,"el":63,"az":25,"ss":42,"used":true},{"PRN":19,"el":60,"az":335,"ss":34,"used":true},{"PRN":22,"el":12,"az":42,"ss":14,"used":true},{"PRN":24,"el":17,"az":295,"ss":21,"used":true},{"PRN":28,"el":52,"az":144,"ss":35,"used":true},{"PRN":135,"el":20,"az":247,"ss":0,"used":false},{"PRN":138,"el":39,"az":223,"ss":0,"used":false}]}
{"class":"TPV","device":"/dev/ttyACM0","mode":3,"time":"2019-05-16T21:11:07.000Z","ept":0.005,"lat":35.926845667,"lon":-78.922801333,"alt":107.100,"epx":9.392,"epy":13.513,"epv":32.200,"track":229.7900,"speed":12.586,"climb":0.000,"eps":27.03}
{"class":"SKY","device":"/dev/ttyACM0","xdop":0.63,"ydop":0.90,"vdop":1.40,"tdop":0.82,"hdop":1.12,"gdop":1.84,"pdop":1.79,"satellites":[{"PRN":1,"el":5,"az":48,"ss":15,"used":false},{"PRN":2,"el":23,"az":239,"ss":23,"used":true},{"PRN":3,"el":28,"az":56,"ss":28,"used":true},{"PRN":6,"el":61,"az":246,"ss":28,"used":true},{"PRN":12,"el":3,"az":319,"ss":0,"used":false},{"PRN":17,"el":63,"az":25,"ss":42,"used":true},{"PRN":19,"el":60,"az":335,"ss":29,"used":true},{"PRN":22,"el":12,"az":42,"ss":17,"used":true},{"PRN":24,"el":17,"az":295,"ss":21,"used":true},{"PRN":28,"el":52,"az":144,"ss":31,"used":true},{"PRN":135,"el":20,"az":247,"ss":0,"used":false},{"PRN":138,"el":39,"az":223,"ss":0,"used":false}]}
{"class":"TPV","device":"/dev/ttyACM0","mode":3,"time":"2019-05-16T21:11:08.000Z","ept":0.005,"lat":35.926775000,"lon":-78.922909500,"alt":106.800,"epx":9.392,"epy":13.513,"epv":32.200,"track":232.1500,"speed":12.367,"climb":0.000,"eps":27.03}
{"class":"SKY","device":"/dev/ttyACM0","xdop":0.63,"ydop":0.90,"vdop":1.40,"tdop":0.82,"hdop":1.12,"gdop":1.84,"pdop":1.79,"satellites":[{"PRN":1,"el":5,"az":48,"ss":13,"used":false},{"PRN":2,"el":23,"az":239,"ss":22,"used":true},{"PRN":3,"el":28,"az":56,"ss":27,"used":true},{"PRN":6,"el":61,"az":246,"ss":33,"used":true},{"PRN":12,"el":3,"az":319,"ss":0,"used":false},{"PRN":17,"el":63,"az":25,"ss":41,"used":true},{"PRN":19,"el":60,"az":335,"ss":29,"used":true},{"PRN":22,"el":12,"az":42,"ss":17,"used":true},{"PRN":24,"el":17,"az":295,"ss":21,"used":true},{"PRN":28,"el":52,"az":144,"ss":37,"used":true},{"PRN":135,"el":20,"az":247,"ss":0,"used":false},{"PRN":138,"el":39,"az":223,"ss":0,"used":false}]}
{"class":"TPV","device":"/dev/ttyACM0","mode":3,"time":"2019-05-16T21:11:09.000Z","ept":0.005,"lat":35.926701167,"lon":-78.923016500,"alt":106.200,"epx":9.392,"epy":13.513,"epv":32.200,"track":229.2900,"speed":12.424,"climb":0.000,"eps":27.03}
{"class":"SKY","device":"/dev/ttyACM0","xdop":0.63,"ydop":0.90,"vdop":1.40,"tdop":0.82,"hdop":1.12,"gdop":1.84,"pdop":1.79,"satellites":[{"PRN":1,"el":5,"az":48,"ss":11,"used":false},{"PRN":2,"el":23,"az":239,"ss":20,"used":true},{"PRN":3,"el":28,"az":56,"ss":25,"used":true},{"PRN":6,"el":61,"az":246,"ss":29,"used":true},{"PRN":12,"el":3,"az":319,"ss":0,"used":false},{"PRN":17,"el":63,"az":25,"ss":39,"used":true},{"PRN":19,"el":60,"az":335,"ss":28,"used":true},{"PRN":22,"el":12,"az":42,"ss":17,"used":true},{"PRN":24,"el":17,"az":295,"ss":20,"used":true},{"PRN":28,"el":52,"az":144,"ss":36,"used":true},{"PRN":135,"el":20,"az":247,"ss":0,"used":false},{"PRN":138,"el":39,"az":223,"ss":0,"used":false}]}
{"class":"TPV","device":"/dev/ttyACM0","mode":3,"time":"2019-05-16T21:11:10.000Z","ept":0.005,"lat":35.926627167,"lon":-78.923118833,"alt":104.900,"epx":9.392,"epy":13.513,"epv":32.200,"track":227.7500,"speed":12.174,"climb":0.000,"eps":27.03}
{"class":"SKY","device":"/dev/ttyACM0","xdop":0.63,"ydop":0.90,"vdop":1.40,"tdop":0.82,"hdop":1.12,"gdop":1.84,"pdop":1.79,"satellites":[{"PRN":1,"el":5,"az":48,"ss":10,"used":false},{"PRN":2,"el":23,"az":239,"ss":19,"used":true},{"PRN":3,"el":28,"az":56,"ss":25,"used":true},{"PRN":6,"el":61,"az":246,"ss":34,"used":true},{"PRN":12,"el":3,"az":319,"ss":0,"used":false},{"PRN":17,"el":63,"az":25,"ss":34,"used":true},{"PRN":19,"el":60,"az":335,"ss":23,"used":true},{"PRN":22,"el":12,"az":42,"ss":17,"used":true},{"PRN":24,"el":17,"az":295,"ss":19,"used":true},{"PRN":28,"el":52,"az":144,"ss":35,"used":true},{"PRN":135,"el":20,"az":247,"ss":0,"used":false},{"PRN":138,"el":39,"az":223,"ss":0,"used":false}]}
{"class":"TPV","device":"/dev/ttyACM0","mode":3,"time":"2019-05-16T21:11:11.000Z","ept":0.005,"lat":35.926554833,"lon":-78.923224000,"alt":104.100,"epx":9.392,"epy":13.513,"epv":32.200,"track":229.4300,"speed":12.097,"climb":0.000,"eps":27.03}
{"class":"SKY","device":"/dev/ttyACM0","xdop":0.63,"ydop":0.90,"vdop":1.40,"tdop":0.82,"hdop":1.12,"gdop":1.84,"pdop":1.79,"satellites":[{"PRN":1,"el":5,"az":48,"ss":12,"used":false},{"PRN":2,"el":23,"az":239,"ss":19,"used":true},{"PRN":3,"el":28,"az":56,"ss":22,"used":true},{"PRN":6,"el":61,"az":246,"ss":25,"used":true},{"PRN":12,"el":3,"az":319,"ss":0,"used":false},{"PRN":17,"el":63,"az":25,"ss":41,"used":true},{"PRN":19,"el":60,"az":335,"ss":28,"used":true},{"PRN":22,"el":12,"az":42,"ss":16,"used":true},{"PRN":24,"el":17,"az":295,"ss":19,"used":true},{"PRN":28,"el":52,"az":144,"ss":29,"used":true},{"PRN":135,"el":20,"az":247,"ss":0,"used":false},{"PRN":138,"el":39,"az":223,"ss":0,"used":false}]}
{"class":"TPV","device":"/dev/ttyACM0","mode":3,"time":"2019-05-16T21:11:12.000Z","ept":0.005,"lat":35.926484667,"lon":-78.923328333,"alt":102.600,"epx":9.392,"epy":13.513,"epv":32.200,"track":231.3900,"speed":12.125,"climb":0.000,"eps":27.03}
{"class":"SKY","device":"/dev/ttyACM0","xdop":0.63,"ydop":0.90,"vdop":1.40,"tdop":0.82,"hdop":1.12,"gdop":1.84,"pdop":1.79,"satellites":[{"PRN":1,"el":4,"az":49,"ss":15,"used":false},{"PRN":2,"el":23,"az":239,"ss":21,"used":true},{"PRN":3,"el":28,"az":56,"ss":21,"used":true},{"PRN":6,"el":61,"az":246,"ss":26,"used":true},{"PRN":12,"el":3,"az":319,"ss":0,"used":false},{"PRN":17,"el":63,"az":25,"ss":37,"used":true},{"PRN":19,"el":60,"az":335,"ss":28,"used":true},{"PRN":22,"el":12,"az":42,"ss":15,"used":true},{"PRN":24,"el":17,"az":295,"ss":16,"used":true},{"PRN":28,"el":52,"az":144,"ss":28,"used":true},{"PRN":135,"el":20,"az":247,"ss":0,"used":false},{"PRN":138,"el":39,"az":223,"ss":0,"used":false}]}
{"class":"TPV","device":"/dev/ttyACM0","mode":3,"time":"2019-05-16T21:11:13.000Z","ept":0.005,"lat":35.926414667,"lon":-78.923419000,"alt":101.100,"epx":9.392,"epy":13.513,"epv":32.200,"track":226.4500,"speed":11.369,"climb":0.000,"eps":27.03}
{"class":"SKY","device":"/dev/ttyACM0","xdop":0.63,"ydop":0.90,"vdop":1.40,"tdop":0.82,"hdop":1.12,"gdop":1.84,"pdop":1.79,"satellites":[{"PRN":1,"el":4,"az":49,"ss":15,"used":false},{"PRN":2,"el":23,"az":239,"ss":20,"used":true},{"PRN":3,"el":28,"az":56,"ss":21,"used":true},{"PRN":6,"el":61,"az":246,"ss":31,"used":true},{"PRN":12,"el":3,"az":319,"ss":0,"used":false},{"PRN":17,"el":63,"az":25,"ss":35,"used":true},{"PRN":19,"el":60,"az":335,"ss":28,"used":true},{"PRN":22,"el":12,"az":42,"ss":15,"used":true},{"PRN":24,"el":17,"az":295,"ss":17,"used":true},{"PRN":28,"el":52,"az":144,"ss":35,"used":true},{"PRN":135,"el":20,"az":247,"ss":0,"used":false},{"PRN":138,"el":39,"az":223,"ss":0,"used":false}]}
{"class":"TPV","device":"/dev/ttyACM0","mode":3,"time":"2019-05-16T21:11:14.000Z","ept":0.005,"lat":35.926343333,"lon":-78.923521000,"alt":99.000,"epx":9.392,"epy":13.513,"epv":32.200,"track":230.3200,"speed":11.708,"climb":0.000,"eps":27.03}
{"class":"SKY","device":"/dev/ttyACM0","xdop":0.63,"ydop":0.90,"vdop":1.53,"tdop":0.82,"hdop":1.36,"gdop":1.84,"pdop":2.05,"satellites":[{"PRN":1,"el":4,"az":49,"ss":15,"used":false},{"PRN":2,"el":23,"az":239,"ss":19,"used":true},{"PRN":3,"el":28,"az":56,"ss":21,"used":true},{"PRN":6,"el":61,"az":246,"ss":32,"used":true},{"PRN":12,"el":3,"az":319,"ss":0,"used":false},{"PRN":17,"el":63,"az":25,"ss":37,"used":true},{"PRN":19,"el":60,"az":335,"ss":26,"used":true},{"PRN":22,"el":12,"az":42,"ss":15,"used":true},{"PRN":24,"el":17,"az":295,"ss":16,"used":true},{"PRN":28,"el":52,"az":144,"ss":35,"used":true},{"PRN":135,"el":20,"az":247,"ss":0,"used":false},{"PRN":138,"el":39,"az":223,"ss":0,"used":false}]}
{"class":"TPV","device":"/dev/ttyACM0","mode":3,"time":"2019-05-16T21:11:15.000Z","ept":0.005,"lat":35.926274833,"lon":-78.923620500,"alt":97.700,"epx":9.392,"epy":13.513,"epv":32.200,"track":230.0400,"speed":11.741,"climb":0.000,"eps":27.03}
{"class":"SKY","device":"/dev/ttyACM0","xdop":0.63,"ydop":0.90,"vdop":1.53,"tdop":0.82,"hdop":1.35,"gdop":1.84,"pdop":2.05,"satellites":[{"PRN":1,"el":4,"az":49,"ss":16,"used":false},{"PRN":2,"el":23,"az":239,"ss":17,"used":true},{"PRN":3,"el":28,"az":56,"ss":19,"used":true},{"PRN":6,"el":61,"az":246,"ss":28,"used":true},{"PRN":12,"el":3,"az":319,"ss":0,"used":false},{"PRN":17,"el":63,"az":25,"ss":33,"used":true},{"PRN":19,"el":60,"az":335,"ss":25,"used":true},{"PRN":22,"el":12,"az":42,"ss":14,"used":true},{"PRN":24,"el":17,"az":295,"ss":0,"used":false},{"PRN":28,"el":52,"az":144,"ss":35,"used":true},{"PRN":135,"el":20,"az":247,"ss":0,"used":false},{"PRN":138,"el":39,"az":223,"ss":0,"used":false}]}
{"class":"TPV","device":"/dev/ttyACM0","mode":3,"time":"2019-05-16T21:11:16.000Z","ept":0.005,"lat":35.926202000,"lon":-78.923726167,"alt":95.500,"epx":9.392,"epy":13.513,"epv":35.190,"track":230.4400,"speed":12.690,"climb":0.000,"eps":27.03}
{"class":"SKY","device":"/dev/ttyACM0","xdop":0.63,"ydop":0.90,"vdop":1.53,"tdop":0.82,"hdop":1.35,"gdop":1.84,"pdop":2.05,"satellites":[{"PRN":1,"el":4,"az":49,"ss":15,"used":false},{"PRN":2,"el":23,"az":239,"ss":16,"used":true},{"PRN":3,"el":28,"az":56,"ss":20,"used":true},{"PRN":6,"el":62,"az":247,"ss":27,"used":true},{"PRN":12,"el":3,"az":319,"ss":0,"used":false},{"PRN":17,"el":63,"az":25,"ss":34,"used":true},{"PRN":19,"el":60,"az":335,"ss":27,"used":true},{"PRN":22,"el":12,"az":42,"ss":15,"used":true},{"PRN":24,"el":17,"az":295,"ss":0,"used":false},{"PRN":28,"el":52,"az":144,"ss":35,"used":true},{"PRN":135,"el":20,"az":247,"ss":0,"used":false},{"PRN":138,"el":39,"az":223,"ss":0,"used":false}]}
{"class":"TPV","device":"/dev/ttyACM0","mode":3,"time":"2019-05-16T21:11:17.000Z","ept":0.005,"lat":35.926127333,"lon":-78.923831333,"alt":93.700,"epx":9.392,"epy":13.513,"epv":35.190,"track":229.3300,"speed":12.784,"climb":0.000,"eps":27.03}
{"class":"SKY","device":"/dev/ttyACM0","xdop":0.63,"ydop":0.90,"vdop":1.53,"tdop":0.82,"hdop":1.35,"gdop":1.84,"pdop":2.05,"satellites":[{"PRN":1,"el":4,"az":49,"ss":17,"used":false},{"PRN":2,"el":23,"az":239,"ss":20,"used":true},{"PRN":3,"el":28,"az":56,"ss":21,"used":true},{"PRN":6,"el":62,"az":247,"ss":26,"used":true},{"PRN":12,"el":3,"az":319,"ss":0,"used":false},{"PRN":17,"el":63,"az":25,"ss":30,"used":true},{"PRN":19,"el":60,"az":335,"ss":33,"used":true},{"PRN":22,"el":12,"az":42,"ss":15,"used":true},{"PRN":24,"el":17,"az":295,"ss":4,"used":false},{"PRN":28,"el":52,"az":144,"ss":35,"used":true},{"PRN":135,"el":20,"az":247,"ss":0,"used":false},{"PRN":138,"el":39,"az":223,"ss":0,"used":false}]}
{"class":"TPV","device":"/dev/ttyACM0","mode":3,"time":"2019-05-16T21:11:18.000Z","ept":0.005,"lat":35.926056000,"lon":-78.923919167,"alt":89.700,"epx":9.392,"epy":13.513,"epv":35.190,"track":225.8900,"speed":11.523,"climb":0.000,"eps":27.03}
{"class":"SKY","device":"/dev/ttyACM0","xdop":0.63,"ydop":0.90,"vdop":1.53,"tdop":0.82,"hdop":1.35,"gdop":1.84,"pdop":2.05,"satellites":[{"PRN":1,"el":4,"az":49,"ss":16,"used":false},{"PRN":2,"el":23,"az":239,"ss":23,"used":true},{"PRN":3,"el":28,"az":56,"ss":23,"used":true},{"PRN":6,"el":62,"az":247,"ss":26,"used":true},{"PRN":12,"el":3,"az":319,"ss":0,"used":false},{"PRN":17,"el":63,"az":25,"ss":34,"used":true},{"PRN":19,"el":60,"az":335,"ss":27,"used":true},{"PRN":22,"el":12,"az":42,"ss":14,"used":true},{"PRN":24,"el":17,"az":295,"ss":7,"used":false},{"PRN":28,"el":52,"az":144,"ss":32,"used":true},{"PRN":135,"el":20,"az":247,"ss":0,"used":false},{"PRN":138,"el":39,"az":223,"ss":0,"used":false}]}
{"class":"TPV","device":"/dev/ttyACM0","mode":3,"time":"2019-05-16T21:11:19.000Z","ept":0.005,"lat":35.925984667,"lon":-78.924017667,"alt":88.000,"epx":9.392,"epy":13.513,"epv":35.190,"track":227.9400,"speed":11.844,"climb":0.000,"eps":27.03}
{"class":"SKY","device":"/dev/ttyACM0","xdop":0.63,"ydop":0.90,"vdop":1.53,"tdop":0.82,"hdop":1.35,"gdop":1.84,"pdop":2.05,"satellites":[{"PRN":1,"el":4,"az":49,"ss":16,"used":false},{"PRN":2,"el":23,"az":239,"ss":24,"used":true},{"PRN":3,"el":28,"az":56,"ss":23,"used":true},{"PRN":6,"el":62,"az":247,"ss":33,"used":true},{"PRN":12,"el":3,"az":319,"ss":0,"used":false},{"PRN":17,"el":63,"az":25,"ss":33,"used":true},{"PRN":19,"el":60,"az":335,"ss":26,"used":true},{"PRN":22,"el":12,"az":42,"ss":10,"used":true},{"PRN":24,"el":17,"az":295,"ss":10,"used":false},{"PRN":28,"el":52,"az":144,"ss":35,"used":true},{"PRN":135,"el":20,"az":247,"ss":0,"used":false},{"PRN":138,"el":39,"az":223,"ss":0,"used":false}]}
{"class":"TPV","device":"/dev/ttyACM0","mode":3,"time":"2019-05-16T21:11:20.000Z","ept":0.005,"lat":35.925905333,"lon":-78.924137667,"alt":86.800,"epx":9.392,"epy":13.513,"epv":35.190,"track":230.1200,"speed":13.218,"climb":0.000,"eps":27.03}
{"class":"SKY","device":"/dev/ttyACM0","xdop":0.63,"ydop":0.90,"vdop":1.53,"tdop":0.82,"hdop":1.35,"gdop":1.84,"pdop":2.05,"satellites":[{"PRN":1,"el":4,"az":49,"ss":15,"used":false},{"PRN":2,"el":23,"az":239,"ss":22,"used":true},{"PRN":3,"el":28,"az":56,"ss":24,"used":true},{"PRN":6,"el":62,"az":247,"ss":34,"used":true},{"PRN":12,"el":3,"az":319,"ss":0,"used":false},{"PRN":17,"el":63,"az":25,"ss":38,"used":true},{"PRN":19,"el":60,"az":335,"ss":26,"used":true},{"PRN":22,"el":12,"az":42,"ss":10,"used":true},{"PRN":24,"el":17,"az":295,"ss":11,"used":false},{"PRN":28,"el":52,"az":144,"ss":35,"used":true},{"PRN":135,"el":20,"az":247,"ss":0,"used":false},{"PRN":138,"el":39,"az":223,"ss":0,"used":false}]}
{"class":"TPV","device":"/dev/ttyACM0","mode":3,"time":"2019-05-16T21:11:21.000Z","ept":0.005,"lat":35.925824500,"lon":-78.924256333,"alt":84.500,"epx":9.392,"epy":13.513,"epv":35.190,"track":230.1000,"speed":13.371,"climb":0.000,"eps":27.03}
{"class":"SKY","device":"/dev/ttyACM0","xdop":0.63,"ydop":0.90,"vdop":1.53,"tdop":0.82,"hdop":1.35,"gdop":1.84,"pdop":2.05,"satellites":[{"PRN":1,"el":4,"az":49,"ss":14,"used":false},{"PRN":2,"el":23,"az":239,"ss":20,"used":true},{"PRN":3,"el":28,"az":56,"ss":26,"used":true},{"PRN":6,"el":62,"az":247,"ss":33,"used":true},{"PRN":12,"el":3,"az":319,"ss":0,"used":false},{"PRN":17,"el":63,"az":25,"ss":39,"used":true},{"PRN":19,"el":60,"az":335,"ss":30,"used":true},{"PRN":22,"el":12,"az":42,"ss":10,"used":true},{"PRN":24,"el":17,"az":295,"ss":11,"used":false},{"PRN":28,"el":52,"az":144,"ss":36,"used":true},{"PRN":135,"el":20,"az":247,"ss":0,"used":false},{"PRN":138,"el":39,"az":223,"ss":0,"used":false}]}
{"class":"TPV","device":"/dev/ttyACM0","mode":3,"time":"2019-05-16T21:11:22.000Z","ept":0.005,"lat":35.925736333,"lon":-78.924372000,"alt":83.800,"epx":9.392,"epy":13.513,"epv":35.190,"track":228.9200,"speed":13.233,"climb":0.000,"eps":27.03}
{"class":"SKY","device":"/dev/ttyACM0","xdop":0.63,"ydop":0.90,"vdop":1.53,"tdop":0.82,"hdop":1.35,"gdop":1.84,"pdop":2.05,"satellites":[{"PRN":1,"el":4,"az":49,"ss":15,"used":false},{"PRN":2,"el":23,"az":239,"ss":20,"used":true},{"PRN":3,"el":28,"az":56,"ss":27,"used":true},{"PRN":6,"el":62,"az":247,"ss":37,"used":true},{"PRN":12,"el":3,"az":319,"ss":0,"used":false},{"PRN":17,"el":63,"az":25,"ss":40,"used":true},{"PRN":19,"el":60,"az":335,"ss":29,"used":true},{"PRN":22,"el":12,"az":42,"ss":10,"used":true},{"PRN":24,"el":17,"az":295,"ss":9,"used":false},{"PRN":28,"el":52,"az":144,"ss":35,"used":true},{"PRN":135,"el":20,"az":247,"ss":0,"used":false},{"PRN":138,"el":39,"az":223,"ss":0,"used":false}]}
{"class":"TPV","device":"/dev/ttyACM0","mode":3,"time":"2019-05-16T21:11:23.000Z","ept":0.005,"lat":35.925653000,"lon":-78.924495500,"alt":84.000,"epx":9.392,"epy":13.513,"epv":35.190,"track":230.1100,"speed":13.265,"climb":0.000,"eps":27.03}
{"class":"SKY","device":"/dev/ttyACM0","xdop":0.63,"ydop":0.90,"vdop":1.53,"tdop":0.82,"hdop":1.35,"gdop":1.84,"pdop":2.05,"satellites":[{"PRN":1,"el":4,"az":49,"ss":15,"used":false},{"PRN":2,"el":23,"az":239,"ss":24,"used":true},{"PRN":3,"el":28,"az":56,"ss":25,"used":true},{"PRN":6,"el":62,"az":247,"ss":36,"used":true},{"PRN":12,"el":3,"az":319,"ss":0,"used":false},{"PRN":17,"el":63,"az":25,"ss":38,"used":true},{"PRN":19,"el":60,"az":335,"ss":27,"used":true},{"PRN":22,"el":12,"az":42,"ss":10,"used":true},{"PRN":24,"el":17,"az":295,"ss":0,"used":false},{"PRN":28,"el":52,"az":144,"ss":35,"used":true},{"PRN":135,"el":20,"az":247,"ss":0,"used":false},{"PRN":138,"el":39,"az":223,"ss":0,"used":false}]}
{"class":"TPV","device":"/dev/ttyACM0","mode":3,"time":"2019-05-16T21:11:24.000Z","ept":0.005,"lat":35.925574000,"lon":-78.924615667,"alt":83.000,"epx":9.392,"epy":13.513,"epv":35.190,"track":230.2100,"speed":13.139,"climb":0.000,"eps":27.03}
{"class":"SKY","device":"/dev/ttyACM0","xdop":0.63,"ydop":0.90,"vdop":1.53,"tdop":0.82,"hdop":1.35,"gdop":1.84,"pdop":2.05,"satellites":[{"PRN":1,"el":4,"az":49,"ss":15,"used":false},{"PRN":2,"el":23,"az":239,"ss":24,"used":true},{"PRN":3,"el":28,"az":56,"ss":25,"used":true},{"PRN":6,"el":62,"az":247,"ss":35,"used":true},{"PRN":12,"el":3,"az":319,"ss":0,"used":false},{"PRN":17,"el":63,"az":25,"ss":40,"used":true},{"PRN":19,"el":60,"az":335,"ss":36,"used":true},{"PRN":22,"el":12,"az":42,"ss":10,"used":true},{"PRN":24,"el":17,"az":295,"ss":0,"used":false},{"PRN":28,"el":52,"az":144,"ss":34,"used":true},{"PRN":135,"el":20,"az":247,"ss":0,"used":false},{"PRN":138,"el":39,"az":223,"ss":0,"used":false}]}
{"class":"TPV","device":"/dev/ttyACM0","mode":3,"time":"2019-05-16T21:11:25.000Z","ept":0.005,"lat":35.925494000,"lon":-78.924733333,"alt":81.600,"epx":9.392,"epy":13.513,"epv":35.190,"track":229.7600,"speed":13.213,"climb":0.000,"eps":27.03}
{"class":"SKY","device":"/dev/ttyACM0","xdop":0.63,"ydop":0.90,"vdop":2.05,"tdop":0.82,"hdop":1.42,"gdop":1.84,"pdop":2.50,"satellites":[{"PRN":1,"el":4,"az":49,"ss":15,"used":false},{"PRN":2,"el":23,"az":239,"ss":24,"used":true},{"PRN":3,"el":28,"az":56,"ss":23,"used":true},{"PRN":6,"el":62,"az":247,"ss":36,"used":true},{"PRN":12,"el":3,"az":319,"ss":0,"used":false},{"PRN":17,"el":63,"az":25,"ss":39,"used":true},{"PRN":19,"el":60,"az":335,"ss":36,"used":true},{"PRN":22,"el":12,"az":42,"ss":0,"used":false},{"PRN":24,"el":17,"az":295,"ss":0,"used":false},{"PRN":28,"el":52,"az":144,"ss":34,"used":true},{"PRN":135,"el":20,"az":247,"ss":0,"used":false},{"PRN":138,"el":39,"az":223,"ss":0,"used":false}]}
{"class":"TPV","device":"/dev/ttyACM0","mode":3,"time":"2019-05-16T21:11:26.000Z","ept":0.005,"lat":35.925413500,"lon":-78.924849333,"alt":82.600,"epx":9.392,"epy":13.513,"epv":35.190,"track":229.2800,"speed":13.280,"climb":0.000,"eps":27.03}
{"class":"SKY","device":"/dev/ttyACM0","xdop":0.63,"ydop":0.90,"vdop":2.05,"tdop":0.82,"hdop":1.42,"gdop":1.84,"pdop":2.50,"satellites":[{"PRN":1,"el":4,"az":49,"ss":15,"used":false},{"PRN":2,"el":23,"az":239,"ss":23,"used":true},{"PRN":3,"el":28,"az":56,"ss":22,"used":true},{"PRN":6,"el":62,"az":247,"ss":37,"used":true},{"PRN":12,"el":3,"az":319,"ss":0,"used":false},{"PRN":17,"el":63,"az":25,"ss":38,"used":true},{"PRN":19,"el":60,"az":335,"ss":35,"used":true},{"PRN":22,"el":12,"az":42,"ss":17,"used":false},{"PRN":24,"el":17,"az":295,"ss":0,"used":false},{"PRN":28,"el":52,"az":144,"ss":35,"used":true},{"PRN":135,"el":20,"az":247,"ss":0,"used":false},{"PRN":138,"el":39,"az":223,"ss":0,"used":false}]}
{"class":"TPV","device":"/dev/ttyACM0","mode":3,"time":"2019-05-16T21:11:27.000Z","ept":0.005,"lat":35.925330333,"lon":-78.924968833,"alt":83.100,"epx":9.392,"epy":13.513,"epv":47.150,"track":228.2000,"speed":13.417,"climb":0.000,"eps":27.03}
{"class":"SKY","device":"/dev/ttyACM0","xdop":0.63,"ydop":0.90,"vdop":2.05,"tdop":0.82,"hdop":1.42,"gdop":1.84,"pdop":2.50,"satellites":[{"PRN":1,"el":4,"az":49,"ss":16,"used":false},{"PRN":2,"el":23,"az":239,"ss":25,"used":true},{"PRN":3,"el":28,"az":56,"ss":23,"used":true},{"PRN":6,"el":62,"az":247,"ss":37,"used":true},{"PRN":12,"el":3,"az":319,"ss":0,"used":false},{"PRN":17,"el":62,"az":26,"ss":38,"used":true},{"PRN":19,"el":60,"az":335,"ss":32,"used":true},{"PRN":22,"el":12,"az":42,"ss":16,"used":false},{"PRN":24,"el":17,"az":295,"ss":0,"used":false},{"PRN":28,"el":52,"az":144,"ss":35,"used":true},{"PRN":135,"el":20,"az":247,"ss":0,"used":false},{"PRN":138,"el":39,"az":223,"ss":0,"used":false}]}
{"class":"TPV","device":"/dev/ttyACM0","mode":3,"time":"2019-05-16T21:11:28.000Z","ept":0.005,"lat":35.925244500,"lon":-78.925081167,"alt":85.400,"epx":9.392,"epy":13.513,"epv":47.150,"track":227.3000,"speed":13.515,"climb":0.000,"eps":27.03}
{"class":"SKY","device":"/dev/ttyACM0","xdop":0.63,"ydop":0.90,"vdop":1.53,"tdop":0.82,"hdop":1.35,"gdop":1.84,"pdop":2.05,"satellites":[{"PRN":1,"el":4,"az":49,"ss":16,"used":false},{"PRN":2,"el":23,"az":239,"ss":26,"used":true},{"PRN":3,"el":28,"az":56,"ss":24,"used":true},{"PRN":6,"el":62,"az":247,"ss":37,"used":true},{"PRN":12,"el":3,"az":319,"ss":0,"used":false},{"PRN":17,"el":62,"az":26,"ss":39,"used":true},{"PRN":19,"el":60,"az":335,"ss":30,"used":true},{"PRN":22,"el":12,"az":42,"ss":26,"used":true},{"PRN":24,"el":17,"az":295,"ss":0,"used":false},{"PRN":28,"el":52,"az":144,"ss":35,"used":true},{"PRN":135,"el":20,"az":247,"ss":0,"used":false},{"PRN":138,"el":39,"az":223,"ss":0,"used":false}]}
{"class":"TPV","device":"/dev/ttyACM0","mode":3,"time":"2019-05-16T21:11:29.000Z","ept":0.005,"lat":35.925153333,"lon":-78.925196500,"alt":88.800,"epx":9.392,"epy":13.513,"epv":47.150,"track":226.3100,"speed":13.876,"climb":0.000,"eps":27.03}
{"class":"SKY","device":"/dev/ttyACM0","xdop":0.63,"ydop":0.90,"vdop":1.53,"tdop":0.82,"hdop":1.35,"gdop":1.84,"pdop":2.05,"satellites":[{"PRN":1,"el":4,"az":49,"ss":14,"used":false},{"PRN":2,"el":23,"az":239,"ss":29,"used":true},{"PRN":3,"el":28,"az":56,"ss":26,"used":true},{"PRN":6,"el":62,"az":247,"ss":34,"used":true},{"PRN":12,"el":3,"az":319,"ss":0,"used":false},{"PRN":17,"el":62,"az":26,"ss":40,"used":true},{"PRN":19,"el":60,"az":336,"ss":31,"used":true},{"PRN":22,"el":12,"az":42,"ss":27,"used":true},{"PRN":24,"el":17,"az":295,"ss":0,"used":false},{"PRN":28,"el":52,"az":144,"ss":35,"used":true},{"PRN":135,"el":20,"az":247,"ss":0,"used":false},{"PRN":138,"el":39,"az":223,"ss":0,"used":false}]}
{"class":"TPV","device":"/dev/ttyACM0","mode":3,"time":"2019-05-16T21:11:30.000Z","ept":0.005,"lat":35.925058667,"lon":-78.925311667,"alt":90.800,"epx":9.392,"epy":13.513,"epv":35.190,"track":225.0300,"speed":14.339,"climb":0.000,"eps":27.03}
{"class":"SKY","device":"/dev/ttyACM0","xdop":0.63,"ydop":0.90,"vdop":1.53,"tdop":0.82,"hdop":1.35,"gdop":1.84,"pdop":2.05,"satellites":[{"PRN":1,"el":4,"az":49,"ss":16,"used":false},{"PRN":2,"el":23,"az":239,"ss":32,"used":true},{"PRN":3,"el":28,"az":56,"ss":26,"used":true},{"PRN":6,"el":62,"az":247,"ss":33,"used":true},{"PRN":12,"el":3,"az":319,"ss":0,"used":false},{"PRN":17,"el":62,"az":26,"ss":41,"used":true},{"PRN":19,"el":60,"az":336,"ss":33,"used":true},{"PRN":22,"el":12,"az":42,"ss":26,"used":true},{"PRN":24,"el":17,"az":295,"ss":0,"used":false},{"PRN":28,"el":52,"az":144,"ss":35,"used":true},{"PRN":135,"el":20,"az":247,"ss":0,"used":false},{"PRN":138,"el":39,"az":223,"ss":0,"used":false}]}
{"class":"TPV","device":"/dev/ttyACM0","mode":3,"time":"2019-05-16T21:11:31.000Z","ept":0.005,"lat":35.924961000,"lon":-78.925427500,"alt":91.200,"epx":9.392,"epy":13.513,"epv":35.190,"track":223.7600,"speed":14.690,"climb":0.000,"eps":27.03}
{"class":"SKY","device":"/dev/ttyACM0","xdop":0.63,"ydop":0.90,"vdop":1.53,"tdop":0.82,"hdop":1.35,"gdop":1.84,"pdop":2.05,"satellites":[{"PRN":1,"el":4,"az":49,"ss":21,"used":false},{"PRN":2,"el":23,"az":239,"ss":32,"used":true},{"PRN":3,"el":28,"az":56,"ss":26,"used":true},{"PRN":6,"el":62,"az":247,"ss":33,"used":true},{"PRN":12,"el":3,"az":319,"ss":0,"used":false},{"PRN":17,"el":62,"az":26,"ss":41,"used":true},{"PRN":19,"el":60,"az":336,"ss":34,"used":true},{"PRN":22,"el":12,"az":42,"ss":27,"used":true},{"PRN":24,"el":17,"az":295,"ss":14,"used":false},{"PRN":28,"el":52,"az":144,"ss":35,"used":true},{"PRN":135,"el":20,"az":247,"ss":0,"used":false},{"PRN":138,"el":39,"az":223,"ss":0,"used":false}]}
{"class":"TPV","device":"/dev/ttyACM0","mode":3,"time":"2019-05-16T21:11:32.000Z","ept":0.005,"lat":35.924860000,"lon":-78.925543333,"alt":92.300,"epx":9.392,"epy":13.513,"epv":35.190,"track":223.4000,"speed":15.070,"climb":0.000,"eps":27.03}
{"class":"SKY","device":"/dev/ttyACM0","xdop":0.63,"ydop":0.90,"vdop":1.53,"tdop":0.82,"hdop":1.35,"gdop":1.84,"pdop":2.05,"satellites":[{"PRN":1,"el":4,"az":49,"ss":25,"used":false},{"PRN":2,"el":23,"az":239,"ss":32,"used":true},{"PRN":3,"el":28,"az":56,"ss":28,"used":true},{"PRN":6,"el":62,"az":247,"ss":34,"used":true},{"PRN":12,"el":3,"az":319,"ss":0,"used":false},{"PRN":17,"el":62,"az":26,"ss":42,"used":true},{"PRN":19,"el":60,"az":336,"ss":35,"used":true},{"PRN":22,"el":12,"az":42,"ss":27,"used":true},{"PRN":24,"el":17,"az":295,"ss":13,"used":false},{"PRN":28,"el":52,"az":144,"ss":36,"used":true},{"PRN":135,"el":20,"az":247,"ss":0,"used":false},{"PRN":138,"el":39,"az":223,"ss":0,"used":false}]}
{"class":"TPV","device":"/dev/ttyACM0","mode":3,"time":"2019-05-16T21:11:33.000Z","ept":0.005,"lat":35.924756833,"lon":-78.925660167,"alt":92.900,"epx":9.392,"epy":13.513,"epv":35.190,"track":223.0300,"speed":15.263,"climb":0.000,"eps":27.03}
{"class":"SKY","device":"/dev/ttyACM0","xdop":0.63,"ydop":0.90,"vdop":1.53,"tdop":0.82,"hdop":1.35,"gdop":1.84,"pdop":2.05,"satellites":[{"PRN":1,"el":4,"az":49,"ss":28,"used":false},{"PRN":2,"el":23,"az":239,"ss":33,"used":true},{"PRN":3,"el":28,"az":56,"ss":30,"used":true},{"PRN":6,"el":62,"az":247,"ss":34,"used":true},{"PRN":12,"el":3,"az":319,"ss":0,"used":false},{"PRN":17,"el":62,"az":26,"ss":42,"used":true},{"PRN":19,"el":60,"az":336,"ss":35,"used":true},{"PRN":22,"el":12,"az":42,"ss":27,"used":true},{"PRN":24,"el":17,"az":295,"ss":14,"used":false},{"PRN":28,"el":52,"az":144,"ss":36,"used":true},{"PRN":135,"el":20,"az":247,"ss":0,"used":false},{"PRN":138,"el":39,"az":223,"ss":0,"used":false}]}
{"class":"TPV","device":"/dev/ttyACM0","mode":3,"time":"2019-05-16T21:11:34.000Z","ept":0.005,"lat":35.924652500,"lon":-78.925777333,"alt":93.600,"epx":9.392,"epy":13.513,"epv":35.190,"track":222.2400,"speed":15.378,"climb":0.000,"eps":27.03}
{"class":"SKY","device":"/dev/ttyACM0","xdop":0.63,"ydop":0.90,"vdop":1.53,"tdop":0.82,"hdop":1.35,"gdop":1.84,"pdop":2.05,"satellites":[{"PRN":1,"el":4,"az":49,"ss":31,"used":false},{"PRN":2,"el":23,"az":239,"ss":32,"used":true},{"PRN":3,"el":28,"az":56,"ss":30,"used":true},{"PRN":6,"el":62,"az":247,"ss":33,"used":true},{"PRN":12,"el":3,"az":319,"ss":0,"used":false},{"PRN":17,"el":62,"az":26,"ss":42,"used":true},{"PRN":19,"el":60,"az":336,"ss":28,"used":true},{"PRN":22,"el":12,"az":42,"ss":26,"used":true},{"PRN":24,"el":17,"az":295,"ss":14,"used":false},{"PRN":28,"el":52,"az":144,"ss":36,"used":true},{"PRN":135,"el":20,"az":247,"ss":0,"used":false},{"PRN":138,"el":39,"az":223,"ss":0,"used":false}]}
{"class":"TPV","device":"/dev/ttyACM0","mode":3,"time":"2019-05-16T21:11:35.000Z","ept":0.005,"lat":35.924546500,"lon":-78.925892833,"alt":93.700,"epx":9.392,"epy":13.513,"epv":35.190,"track":221.3200,"speed":15.618,"climb":0.000,"eps":27.03}
{"class":"SKY","device":"/dev/ttyACM0","xdop":0.63,"ydop":0.90,"vdop":1.40,"tdop":0.82,"hdop":1.12,"gdop":1.84,"pdop":1.79,"satellites":[{"PRN":1,"el":4,"az":49,"ss":30,"used":false},{"PRN":2,"el":23,"az":239,"ss":31,"used":true},{"PRN":3,"el":28,"az":56,"ss":31,"used":true},{"PRN":6,"el":62,"az":247,"ss":33,"used":true},{"PRN":12,"el":3,"az":319,"ss":0,"used":false},{"PRN":17,"el":62,"az":26,"ss":42,"used":true},{"PRN":19,"el":60,"az":336,"ss":29,"used":true},{"PRN":22,"el":12,"az":42,"ss":26,"used":true},{"PRN":24,"el":17,"az":295,"ss":19,"used":true},{"PRN":28,"el":52,"az":144,"ss":35,"used":true},{"PRN":135,"el":20,"az":247,"ss":0,"used":false},{"PRN":138,"el":39,"az":223,"ss":0,"used":false}]}
{"class":"TPV","device":"/dev/ttyACM0","mode":3,"time":"2019-05-16T21:11:36.000Z","ept":0.005,"lat":35.924437000,"lon":-78.926009833,"alt":94.200,"epx":9.392,"epy":13.513,"epv":35.190,"track":220.5000,"speed":15.796,"climb":0.000,"eps":27.03}
{"class":"SKY","device":"/dev/ttyACM0","xdop":0.63,"ydop":0.90,"vdop":1.40,"tdop":0.82,"hdop":1.12,"gdop":1.84,"pdop":1.79,"satellites":[{"PRN":1,"el":4,"az":49,"ss":28,"used":false},{"PRN":2,"el":23,"az":239,"ss":31,"used":true},{"PRN":3,"el":28,"az":56,"ss":30,"used":true},{"PRN":6,"el":62,"az":247,"ss":33,"used":true},{"PRN":12,"el":3,"az":319,"ss":0,"used":false},{"PRN":17,"el":62,"az":26,"ss":43,"used":true},{"PRN":19,"el":60,"az":336,"ss":31,"used":true},{"PRN":22,"el":12,"az":42,"ss":27,"used":true},{"PRN":24,"el":17,"az":295,"ss":23,"used":true},{"PRN":28,"el":52,"az":144,"ss":36,"used":true},{"PRN":135,"el":20,"az":247,"ss":0,"used":false},{"PRN":138,"el":39,"az":223,"ss":0,"used":false}]}
{"class":"TPV","device":"/dev/ttyACM0","mode":3,"time":"2019-05-16T21:11:37.000Z","ept":0.005,"lat":35.924327667,"lon":-78.926122333,"alt":94.300,"epx":9.392,"epy":13.513,"epv":32.200,"track":219.8300,"speed":15.525,"climb":0.000,"eps":27.03}
{"class":"SKY","device":"/dev/ttyACM0","xdop":0.63,"ydop":0.90,"vdop":1.40,"tdop":0.82,"hdop":1.12,"gdop":1.84,"pdop":1.79,"satellites":[{"PRN":1,"el":4,"az":49,"ss":26,"used":false},{"PRN":2,"el":23,"az":239,"ss":32,"used":true},{"PRN":3,"el":28,"az":56,"ss":30,"used":true},{"PRN":6,"el":62,"az":247,"ss":34,"used":true},{"PRN":12,"el":3,"az":319,"ss":0,"used":false},{"PRN":17,"el":62,"az":26,"ss":43,"used":true},{"PRN":19,"el":60,"az":336,"ss":31,"used":true},{"PRN":22,"el":12,"az":42,"ss":28,"used":true},{"PRN":24,"el":17,"az":295,"ss":23,"used":true},{"PRN":28,"el":52,"az":144,"ss":36,"used":true},{"PRN":135,"el":20,"az":247,"ss":0,"used":false},{"PRN":138,"el":39,"az":223,"ss":0,"used":false}]}
{"class":"TPV","device":"/dev/ttyACM0","mode":3,"time":"2019-05-16T21:11:38.000Z","ept":0.005,"lat":35.924221000,"lon":-78.926231833,"alt":95.400,"epx":9.392,"epy":13.513,"epv":32.200,"track":220.1400,"speed":14.844,"climb":0.000,"eps":27.03}
{"class":"SKY","device":"/dev/ttyACM0","xdop":0.63,"ydop":0.90,"vdop":1.40,"tdop":0.82,"hdop":1.12,"gdop":1.84,"pdop":1.79,"satellites":[{"PRN":1,"el":4,"az":49,"ss":22,"used":false},{"PRN":2,"el":23,"az":239,"ss":32,"used":true},{"PRN":3,"el":28,"az":56,"ss":31,"used":true},{"PRN":6,"el":62,"az":247,"ss":34,"used":true},{"PRN":12,"el":3,"az":319,"ss":0,"used":false},{"PRN":17,"el":62,"az":26,"ss":43,"used":true},{"PRN":19,"el":60,"az":336,"ss":32,"used":true},{"PRN":22,"el":12,"az":42,"ss":27,"used":true},{"PRN":24,"el":17,"az":295,"ss":21,"used":true},{"PRN":28,"el":51,"az":144,"ss":36,"used":true},{"PRN":135,"el":20,"az":247,"ss":0,"used":false},{"PRN":138,"el":39,"az":223,"ss":0,"used":false}]}
{"class":"TPV","device":"/dev/ttyACM0","mode":3,"time":"2019-05-16T21:11:39.000Z","ept":0.005,"lat":35.924121000,"lon":-78.926336000,"alt":96.000,"epx":9.392,"epy":13.513,"epv":32.200,"track":220.4600,"speed":13.912,"climb":0.000,"eps":27.03}
{"class":"SKY","device":"/dev/ttyACM0","xdop":0.63,"ydop":0.90,"vdop":1.40,"tdop":0.82,"hdop":1.12,"gdop":1.84,"pdop":1.79,"satellites":[{"PRN":1,"el":4,"az":49,"ss":17,"used":false},{"PRN":2,"el":23,"az":239,"ss":32,"used":true},{"PRN":3,"el":28,"az":56,"ss":30,"used":true},{"PRN":6,"el":62,"az":247,"ss":34,"used":true},{"PRN":12,"el":3,"az":319,"ss":0,"used":false},{"PRN":17,"el":62,"az":26,"ss":42,"used":true},{"PRN":19,"el":60,"az":336,"ss":30,"used":true},{"PRN":22,"el":12,"az":42,"ss":26,"used":true},{"PRN":24,"el":17,"az":295,"ss":18,"used":true},{"PRN":28,"el":51,"az":144,"ss":36,"used":true},{"PRN":135,"el":20,"az":247,"ss":0,"used":false},{"PRN":138,"el":39,"az":223,"ss":0,"used":false}]}
{"class":"TPV","device":"/dev/ttyACM0","mode":3,"time":"2019-05-16T21:11:40.000Z","ept":0.005,"lat":35.924028667,"lon":-78.926432333,"alt":96.300,"epx":9.392,"epy":13.513,"epv":32.200,"track":220.1000,"speed":12.862,"climb":0.000,"eps":27.03}
{"class":"SKY","device":"/dev/ttyACM0","xdop":0.63,"ydop":0.90,"vdop":1.40,"tdop":0.82,"hdop":1.12,"gdop":1.84,"pdop":1.79,"satellites":[{"PRN":1,"el":4,"az":49,"ss":16,"used":false},{"PRN":2,"el":23,"az":239,"ss":32,"used":true},{"PRN":3,"el":28,"az":56,"ss":28,"used":true},{"PRN":6,"el":62,"az":247,"ss":34,"used":true},{"PRN":12,"el":3,"az":319,"ss":0,"used":false},{"PRN":17,"el":62,"az":26,"ss":42,"used":true},{"PRN":19,"el":60,"az":336,"ss":29,"used":true},{"PRN":22,"el":12,"az":42,"ss":25,"used":true},{"PRN":24,"el":17,"az":295,"ss":29,"used":true},{"PRN":28,"el":51,"az":144,"ss":35,"used":true},{"PRN":135,"el":20,"az":247,"ss":0,"used":false},{"PRN":138,"el":39,"az":223,"ss":0,"used":false}]}
{"class":"TPV","device":"/dev/ttyACM0","mode":3,"time":"2019-05-16T21:11:41.000Z","ept":0.005,"lat":35.923944833,"lon":-78.926514833,"alt":96.700,"epx":9.392,"epy":13.513,"epv":32.200,"track":217.8200,"speed":11.275,"climb":0.000,"eps":27.03}
{"class":"SKY","device":"/dev/ttyACM0","xdop":0.63,"ydop":0.90,"vdop":1.40,"tdop":0.82,"hdop":1.12,"gdop":1.84,"pdop":1.79,"satellites":[{"PRN":1,"el":4,"az":49,"ss":14,"used":false},{"PRN":2,"el":23,"az":239,"ss":32,"used":true},{"PRN":3,"el":28,"az":56,"ss":26,"used":true},{"PRN":6,"el":62,"az":247,"ss":34,"used":true},{"PRN":12,"el":3,"az":319,"ss":0,"used":false},{"PRN":17,"el":62,"az":26,"ss":41,"used":true},{"PRN":19,"el":60,"az":336,"ss":31,"used":true},{"PRN":22,"el":12,"az":42,"ss":26,"used":true},{"PRN":24,"el":17,"az":295,"ss":31,"used":true},{"PRN":28,"el":51,"az":144,"ss":35,"used":true},{"PRN":135,"el":20,"az":247,"ss":0,"used":false},{"PRN":138,"el":39,"az":223,"ss":0,"used":false}]}
{"class":"TPV","device":"/dev/ttyACM0","mode":3,"time":"2019-05-16T21:11:42.000Z","ept":0.005,"lat":35.923871667,"lon":-78.926583000,"alt":96.800,"epx":9.392,"epy":13.513,"epv":32.200,"track":216.3000,"speed":9.487,"climb":0.000,"eps":27.03}
{"class":"SKY","device":"/dev/ttyACM0","xdop":0.63,"ydop":0.90,"vdop":1.40,"tdop":0.82,"hdop":1.12,"gdop":1.84,"pdop":1.79,"satellites":[{"PRN":1,"el":4,"az":49,"ss":14,"used":false},{"PRN":2,"el":23,"az":239,"ss":33,"used":true},{"PRN":3,"el":28,"az":56,"ss":25,"used":true},{"PRN":6,"el":62,"az":247,"ss":35,"used":true},{"PRN":12,"el":3,"az":319,"ss":0,"used":false},{"PRN":17,"el":62,"az":26,"ss":42,"used":true},{"PRN":19,"el":60,"az":336,"ss":33,"used":true},{"PRN":22,"el":12,"az":42,"ss":29,"used":true},{"PRN":24,"el":17,"az":295,"ss":29,"used":true},{"PRN":28,"el":51,"az":144,"ss":35,"used":true},{"PRN":135,"el":20,"az":247,"ss":0,"used":false},{"PRN":138,"el":39,"az":223,"ss":0,"used":false}]}
{"class":"TPV","device":"/dev/ttyACM0","mode":3,"time":"2019-05-16T21:11:43.000Z","ept":0.005,"lat":35.923809667,"lon":-78.926638500,"alt":97.300,"epx":9.392,"epy":13.513,"epv":32.200,"track":215.4900,"speed":7.862,"climb":0.000,"eps":27.03}
{"class":"SKY","device":"/dev/ttyACM0","xdop":0.63,"ydop":0.90,"vdop":1.40,"tdop":0.82,"hdop":1.12,"gdop":1.84,"pdop":1.79,"satellites":[{"PRN":1,"el":4,"az":49,"ss":13,"used":false},{"PRN":2,"el":23,"az":239,"ss":32,"used":true},{"PRN":3,"el":28,"az":56,"ss":25,"used":true},{"PRN":6,"el":62,"az":247,"ss":35,"used":true},{"PRN":12,"el":3,"az":319,"ss":0,"used":false},{"PRN":17,"el":62,"az":26,"ss":40,"used":true},{"PRN":19,"el":60,"az":336,"ss":33,"used":true},{"PRN":22,"el":12,"az":42,"ss":30,"used":true},{"PRN":24,"el":17,"az":295,"ss":29,"used":true},{"PRN":28,"el":51,"az":144,"ss":35,"used":true},{"PRN":135,"el":20,"az":247,"ss":0,"used":false},{"PRN":138,"el":39,"az":223,"ss":0,"used":false}]}
{"class":"TPV","device":"/dev/ttyACM0","mode":3,"time":"2019-05-16T21:11:44.000Z","ept":0.005,"lat":35.923758500,"lon":-78.926683833,"alt":97.800,"epx":9.392,"epy":13.513,"epv":32.200,"track":215.1000,"speed":6.462,"climb":0.000,"eps":27.03}
{"class":"SKY","device":"/dev/ttyACM0","xdop":0.63,"ydop":0.90,"vdop":1.40,"tdop":0.82,"hdop":1.12,"gdop":1.84,"pdop":1.79,"satellites":[{"PRN":1,"el":4,"az":49,"ss":12,"used":false},{"PRN":2,"el":23,"az":239,"ss":33,"used":true},{"PRN":3,"el":28,"az":56,"ss":26,"used":true},{"PRN":6,"el":62,"az":247,"ss":36,"used":true},{"PRN":12,"el":3,"az":319,"ss":0,"used":false},{"PRN":17,"el":62,"az":26,"ss":42,"used":true},{"PRN":19,"el":60,"az":336,"ss":33,"used":true},{"PRN":22,"el":12,"az":42,"ss":32,"used":true},{"PRN":24,"el":17,"az":295,"ss":30,"used":true},{"PRN":28,"el":51,"az":144,"ss":36,"used":true},{"PRN":135,"el":20,"az":247,"ss":0,"used":false},{"PRN":138,"el":39,"az":223,"ss":0,"used":false}]}
{"class":"TPV","device":"/dev/ttyACM0","mode":3,"time":"2019-05-16T21:11:45.000Z","ept":0.005,"lat":35.923714833,"lon":-78.926722333,"alt":98.500,"epx":9.392,"epy":13.513,"epv":32.200,"track":214.4900,"speed":5.303,"climb":0.000,"eps":27.03}
{"class":"SKY","device":"/dev/ttyACM0","xdop":0.63,"ydop":0.90,"vdop":1.40,"tdop":0.82,"hdop":1.12,"gdop":1.84,"pdop":1.79,"satellites":[{"PRN":1,"el":4,"az":49,"ss":12,"used":false},{"PRN":2,"el":23,"az":239,"ss":35,"used":true},{"PRN":3,"el":28,"az":56,"ss":26,"used":true},{"PRN":6,"el":62,"az":247,"ss":37,"used":true},{"PRN":12,"el":3,"az":319,"ss":0,"used":false},{"PRN":17,"el":62,"az":26,"ss":42,"used":true},{"PRN":19,"el":60,"az":336,"ss":33,"used":true},{"PRN":22,"el":12,"az":42,"ss":32,"used":true},{"PRN":24,"el":17,"az":295,"ss":31,"used":true},{"PRN":28,"el":51,"az":144,"ss":36,"used":true},{"PRN":135,"el":20,"az":247,"ss":0,"used":false},{"PRN":138,"el":39,"az":223,"ss":0,"used":false}]}
{"class":"TPV","device":"/dev/ttyACM0","mode":3,"time":"2019-05-16T21:11:46.000Z","ept":0.005,"lat":35.923680333,"lon":-78.926751667,"alt":98.700,"epx":9.392,"epy":13.513,"epv":32.200,"track":213.9300,"speed":4.024,"climb":0.000,"eps":27.03}
{"class":"SKY","device":"/dev/ttyACM0","xdop":0.63,"ydop":0.90,"vdop":1.40,"tdop":0.82,"hdop":1.12,"gdop":1.84,"pdop":1.79,"satellites":[{"PRN":1,"el":4,"az":49,"ss":11,"used":false},{"PRN":2,"el":23,"az":239,"ss":34,"used":true},{"PRN":3,"el":28,"az":56,"ss":25,"used":true},{"PRN":6,"el":62,"az":247,"ss":38,"used":true},{"PRN":12,"el":3,"az":319,"ss":0,"used":false},{"PRN":17,"el":62,"az":26,"ss":41,"used":true},{"PRN":19,"el":60,"az":336,"ss":34,"used":true},{"PRN":22,"el":12,"az":42,"ss":32,"used":true},{"PRN":24,"el":17,"az":295,"ss":31,"used":true},{"PRN":28,"el":51,"az":144,"ss":36,"used":true},{"PRN":135,"el":20,"az":247,"ss":0,"used":false},{"PRN":138,"el":39,"az":223,"ss":0,"used":false}]}
{"class":"TPV","device":"/dev/ttyACM0","mode":3,"time":"2019-05-16T21:11:47.000Z","ept":0.005,"lat":35.923655500,"lon":-78.926773333,"alt":99.200,"epx":9.392,"epy":13.513,"epv":32.200,"track":213.7500,"speed":2.794,"climb":0.000,"eps":27.03}
{"class":"SKY","device":"/dev/ttyACM0","xdop":0.63,"ydop":0.90,"vdop":1.40,"tdop":0.82,"hdop":1.12,"gdop":1.84,"pdop":1.79,"satellites":[{"PRN":1,"el":4,"az":49,"ss":12,"used":false},{"PRN":2,"el":23,"az":239,"ss":34,"used":true},{"PRN":3,"el":28,"az":56,"ss":24,"used":true},{"PRN":6,"el":62,"az":247,"ss":38,"used":true},{"PRN":12,"el":3,"az":319,"ss":0,"used":false},{"PRN":17,"el":62,"az":26,"ss":41,"used":true},{"PRN":19,"el":60,"az":336,"ss":33,"used":true},{"PRN":22,"el":12,"az":42,"ss":33,"used":true},{"PRN":24,"el":17,"az":295,"ss":30,"used":true},{"PRN":28,"el":51,"az":144,"ss":36,"used":true},{"PRN":135,"el":20,"az":247,"ss":0,"used":false},{"PRN":138,"el":39,"az":223,"ss":0,"used":false}]}
{"class":"TPV","device":"/dev/ttyACM0","mode":3,"time":"2019-05-16T21:11:48.000Z","ept":0.005,"lat":35.923637500,"lon":-78.926788833,"alt":100.000,"epx":9.392,"epy":13.513,"epv":32.200,"track":214.1000,"speed":1.950,"climb":0.000,"eps":27.03}
{"class":"SKY","device":"/dev/ttyACM0","xdop":0.63,"ydop":0.90,"vdop":1.40,"tdop":0.82,"hdop":1.12,"gdop":1.84,"pdop":1.79,"satellites":[{"PRN":1,"el":4,"az":49,"ss":12,"used":false},{"PRN":2,"el":23,"az":239,"ss":34,"used":true},{"PRN":3,"el":28,"az":56,"ss":25,"used":true},{"PRN":6,"el":62,"az":247,"ss":37,"used":true},{"PRN":12,"el":3,"az":319,"ss":0,"used":false},{"PRN":17,"el":62,"az":26,"ss":41,"used":true},{"PRN":19,"el":60,"az":336,"ss":36,"used":true},{"PRN":22,"el":12,"az":42,"ss":33,"used":true},{"PRN":24,"el":17,"az":295,"ss":30,"used":true},{"PRN":28,"el":51,"az":144,"ss":36,"used":true},{"PRN":135,"el":20,"az":247,"ss":0,"used":false},{"PRN":138,"el":39,"az":223,"ss":0,"used":false}]}
{"class":"TPV","device":"/dev/ttyACM0","mode":3,"time":"2019-05-16T21:11:49.000Z","ept":0.005,"lat":35.923625667,"lon":-78.926798833,"alt":100.500,"epx":9.392,"epy":13.513,"epv":32.200,"track":213.6700,"speed":1.247,"climb":0.000,"eps":27.03}
{"class":"SKY","device":"/dev/ttyACM0","xdop":0.63,"ydop":0.90,"vdop":1.40,"tdop":0.82,"hdop":1.12,"gdop":1.84,"pdop":1.79,"satellites":[{"PRN":1,"el":4,"az":49,"ss":11,"used":false},{"PRN":2,"el":23,"az":239,"ss":33,"used":true},{"PRN":3,"el":28,"az":56,"ss":25,"used":true},{"PRN":6,"el":62,"az":247,"ss":37,"used":true},{"PRN":12,"el":3,"az":319,"ss":0,"used":false},{"PRN":17,"el":62,"az":26,"ss":42,"used":true},{"PRN":19,"el":60,"az":336,"ss":33,"used":true},{"PRN":22,"el":12,"az":42,"ss":34,"used":true},{"PRN":24,"el":17,"az":295,"ss":31,"used":true},{"PRN":28,"el":51,"az":144,"ss":36,"used":true},{"PRN":135,"el":20,"az":247,"ss":0,"used":false},{"PRN":138,"el":39,"az":223,"ss":0,"used":false}]}
{"class":"TPV","device":"/dev/ttyACM0","mode":3,"time":"2019-05-16T21:11:50.000Z","ept":0.005,"lat":35.923619333,"lon":-78.926805333,"alt":101.100,"epx":9.392,"epy":13.513,"epv":32.200,"track":213.7600,"speed":0.582,"climb":0.000,"eps":27.03}
{"class":"SKY","device":"/dev/ttyACM0","xdop":0.63,"ydop":0.90,"vdop":1.40,"tdop":0.82,"hdop":1.12,"gdop":1.84,"pdop":1.79,"satellites":[{"PRN":1,"el":4,"az":49,"ss":11,"used":false},{"PRN":2,"el":23,"az":239,"ss":32,"used":true},{"PRN":3,"el":28,"az":56,"ss":27,"used":true},{"PRN":6,"el":62,"az":247,"ss":36,"used":true},{"PRN":12,"el":3,"az":319,"ss":0,"used":false},{"PRN":17,"el":62,"az":26,"ss":42,"used":true},{"PRN":19,"el":60,"az":336,"ss":33,"used":true},{"PRN":22,"el":12,"az":42,"ss":34,"used":true},{"PRN":24,"el":17,"az":295,"ss":30,"used":true},{"PRN":28,"el":51,"az":144,"ss":36,"used":true},{"PRN":135,"el":20,"az":247,"ss":0,"used":false},{"PRN":138,"el":39,"az":223,"ss":0,"used":false}]}
{"class":"TPV","device":"/dev/ttyACM0","mode":3,"time":"2019-05-16T21:11:51.000Z","ept":0.005,"lat":35.923616833,"lon":-78.926808000,"alt":101.700,"epx":9.392,"epy":13.513,"epv":32.200,"track":0.0000,"speed":0.057,"climb":0.000,"eps":27.03}
{"class":"SKY","device":"/dev/ttyACM0","xdop":0.63,"ydop":0.90,"vdop":1.40,"tdop":0.82,"hdop":1.12,"gdop":1.84,"pdop":1.79,"satellites":[{"PRN":1,"el":4,"az":49,"ss":10,"used":false},{"PRN":2,"el":23,"az":239,"ss":34,"used":true},{"PRN":3,"el":28,"az":56,"ss":28,"used":true},{"PRN":6,"el":62,"az":247,"ss":36,"used":true},{"PRN":12,"el":3,"az":319,"ss":0,"used":false},{"PRN":17,"el":62,"az":26,"ss":42,"used":true},{"PRN":19,"el":60,"az":336,"ss":33,"used":true},{"PRN":22,"el":12,"az":42,"ss":33,"used":true},{"PRN":24,"el":17,"az":295,"ss":31,"used":true},{"PRN":28,"el":51,"az":144,"ss":35,"used":true},{"PRN":135,"el":20,"az":247,"ss":0,"used":false},{"PRN":138,"el":39,"az":223,"ss":0,"used":false}]}
{"class":"TPV","device":"/dev/ttyACM0","mode":3,"time":"2019-05-16T21:11:52.000Z","ept":0.005,"lat":35.923615833,"lon":-78.926809000,"alt":102.200,"epx":9.392,"epy":13.513,"epv":32.200,"track":0.0000,"speed":0.015,"climb":0.000,"eps":27.03}
{"class":"SKY","device":"/dev/ttyACM0","xdop":0.63,"ydop":0.90,"vdop":1.40,"tdop":0.82,"hdop":1.12,"gdop":1.84,"pdop":1.79,"satellites":[{"PRN":1,"el":4,"az":49,"ss":10,"used":false},{"PRN":2,"el":23,"az":239,"ss":34,"used":true},{"PRN":3,"el":28,"az":56,"ss":28,"used":true},{"PRN":6,"el":62,"az":247,"ss":36,"used":true},{"PRN":12,"el":3,"az":319,"ss":0,"used":false},{"PRN":17,"el":62,"az":26,"ss":42,"used":true},{"PRN":19,"el":60,"az":336,"ss":33,"used":true},{"PRN":22,"el":12,"az":42,"ss":34,"used":true},{"PRN":24,"el":17,"az":295,"ss":31,"used":true},{"PRN":28,"el":51,"az":144,"ss":35,"used":true},{"PRN":135,"el":20,"az":247,"ss":0,"used":false},{"PRN":138,"el":39,"az":223,"ss":0,"used":false}]}
{"class":"TPV","device":"/dev/ttyACM0","mode":3,"time":"2019-05-16T21:11:53.000Z","ept":0.005,"lat":35.923614667,"lon":-78.926810333,"alt":102.900,"epx":9.392,"epy":13.513,"epv":32.200,"track":0.0000,"speed":0.025,"climb":0.000,"eps":27.03}
{"class":"SKY","device":"/dev/ttyACM0","xdop":0.63,"ydop":0.90,"vdop":1.43,"tdop":0.82,"hdop":1.18,"gdop":1.84,"pdop":1.85,"satellites":[{"PRN":1,"el":4,"az":49,"ss":12,"used":false},{"PRN":2,"el":23,"az":239,"ss":34,"used":true},{"PRN":3,"el":28,"az":56,"ss":28,"used":true},{"PRN":6,"el":62,"az":247,"ss":36,"used":true},{"PRN":12,"el":3,"az":319,"ss":0,"used":false},{"PRN":17,"el":62,"az":26,"ss":42,"used":true},{"PRN":19,"el":60,"az":336,"ss":33,"used":true},{"PRN":22,"el":12,"az":42,"ss":34,"used":true},{"PRN":24,"el":17,"az":295,"ss":31,"used":true},{"PRN":28,"el":51,"az":144,"ss":35,"used":true},{"PRN":135,"el":20,"az":247,"ss":0,"used":false},{"PRN":138,"el":39,"az":223,"ss":0,"used":false}]}
{"class":"TPV","device":"/dev/ttyACM0","mode":3,"time":"2019-05-16T21:11:54.000Z","ept":0.005,"lat":35.923614167,"lon":-78.926812000,"alt":103.200,"epx":9.392,"epy":13.513,"epv":32.200,"track":0.0000,"speed":0.014,"climb":0.000,"eps":27.03}
{"class":"SKY","device":"/dev/ttyACM0","xdop":0.63,"ydop":0.90,"vdop":1.40,"tdop":0.82,"hdop":1.12,"gdop":1.84,"pdop":1.79,"satellites":[{"PRN":1,"el":4,"az":49,"ss":14,"used":false},{"PRN":2,"el":23,"az":239,"ss":34,"used":true},{"PRN":3,"el":28,"az":56,"ss":28,"used":true},{"PRN":6,"el":62,"az":247,"ss":36,"used":true},{"PRN":12,"el":3,"az":319,"ss":0,"used":false},{"PRN":17,"el":62,"az":26,"ss":42,"used":true},{"PRN":19,"el":60,"az":336,"ss":33,"used":true},{"PRN":22,"el":12,"az":42,"ss":34,"used":true},{"PRN":24,"el":17,"az":295,"ss":30,"used":true},{"PRN":28,"el":51,"az":144,"ss":35,"used":true},{"PRN":135,"el":20,"az":247,"ss":0,"used":false},{"PRN":138,"el":39,"az":223,"ss":0,"used":false}]}
{"class":"TPV","device":"/dev/ttyACM0","mode":3,"time":"2019-05-16T21:11:55.000Z","ept":0.005,"lat":35.923613500,"lon":-78.926813333,"alt":103.600,"epx":9.392,"epy":13.513,"epv":32.890,"track":0.0000,"speed":0.012,"climb":0.000,"eps":27.03}
{"class":"SKY","device":"/dev/ttyACM0","xdop":0.63,"ydop":0.90,"vdop":1.40,"tdop":0.82,"hdop":1.12,"gdop":1.84,"pdop":1.79,"satellites":[{"PRN":1,"el":4,"az":49,"ss":14,"used":false},{"PRN":2,"el":23,"az":239,"ss":34,"used":true},{"PRN":3,"el":28,"az":56,"ss":27,"used":true},{"PRN":6,"el":62,"az":247,"ss":36,"used":true},{"PRN":12,"el":3,"az":319,"ss":0,"used":false},{"PRN":17,"el":62,"az":26,"ss":42,"used":true},{"PRN":19,"el":60,"az":336,"ss":33,"used":true},{"PRN":22,"el":12,"az":42,"ss":34,"used":true},{"PRN":24,"el":17,"az":295,"ss":31,"used":true},{"PRN":28,"el":51,"az":144,"ss":35,"used":true},{"PRN":135,"el":20,"az":247,"ss":0,"used":false},{"PRN":138,"el":39,"az":223,"ss":0,"used":false}]}
{"class":"TPV","device":"/dev/ttyACM0","mode":3,"time":"2019-05-16T21:11:56.000Z","ept":0.005,"lat":35.923612833,"lon":-78.926814333,"alt":103.900,"epx":9.392,"epy":13.513,"epv":32.200,"track":0.0000,"speed":0.018,"climb":0.000,"eps":27.03}
