{"class":"VERSION","release":"3.16","rev":"3.16-4","proto_major":3,"proto_minor":11}
{"class":"DEVICES","devices":[{"class":"DEVICE","path":"/dev/ttyACM0","driver":"NMEA0183","activated":"2019-05-16T21:24:08.797Z","flags":1,"native":0,"bps":9600,"parity":"N","stopbits":1,"cycle":1.00}]}
{"class":"WATCH","enable":true,"json":true,"nmea":false,"raw":0,"scaled":false,"timing":false,"split24":false,"pps":false}
{"class":"SKY","device":"/dev/ttyACM0","xdop":0.63,"ydop":0.90,"vdop":1.36,"tdop":0.82,"hdop":1.13,"gdop":1.84,"pdop":1.76,"satellites":[{"PRN":1,"el":0,"az":51,"ss":0,"used":false},{"PRN":2,"el":28,"az":243,"ss":22,"used":true},{"PRN":3,"el":25,"az":51,"ss":30,"used":true},{"PRN":6,"el":66,"az":257,"ss":30,"used":true},{"PRN":12,"el":8,"az":320,"ss":26,"used":false},{"PRN":17,"el":61,"az":38,"ss":40,"used":true},{"PRN":19,"el":62,"az":348,"ss":41,"used":true},{"PRN":22,"el":8,"az":39,"ss":16,"used":true},{"PRN":24,"el":17,"az":289,"ss":23,"used":true},{"PRN":28,"el":46,"az":148,"ss":33,"used":true},{"PRN":135,"el":20,"az":247,"ss":0,"used":false},{"PRN":138,"el":39,"az":223,"ss":33,"used":false}]}
{"class":"TPV","device":"/dev/ttyACM0","mode":3,"time":"2019-05-16T21:24:09.000Z","ept":0.005,"lat":35.935248833,"lon":-78.932734833,"alt":98.700,"epx":9.392,"epy":13.513,"epv":34.730,"track":131.2900,"speed":6.747,"climb":0.000,"eps":0.73}
{"class":"SKY","device":"/dev/ttyACM0","xdop":0.63,"ydop":0.90,"vdop":1.36,"tdop":0.82,"hdop":1.13,"gdop":1.84,"pdop":1.76,"satellites":[{"PRN":1,"el":0,"az":51,"ss":0,"used":false},{"PRN":2,"el":28,"az":243,"ss":20,"used":true},{"PRN":3,"el":25,"az":51,"ss":35,"used":true},{"PRN":6,"el":66,"az":257,"ss":32,"used":true},{"PRN":12,"el":8,"az":320,"ss":26,"used":false},{"PRN":17,"el":61,"az":38,"ss":39,"used":true},{"PRN":19,"el":62,"az":348,"ss":39,"used":true},{"PRN":22,"el":8,"az":39,"ss":15,"used":true},{"PRN":24,"el":17,"az":289,"ss":22,"used":true},{"PRN":28,"el":46,"az":148,"ss":33,"used":true},{"PRN":135,"el":20,"az":247,"ss":0,"used":false},{"PRN":138,"el":39,"az":223,"ss":31,"used":false}]}
{"class":"TPV","device":"/dev/ttyACM0","mode":3,"time":"2019-05-16T21:24:10.000Z","ept":0.005,"lat":35.935211833,"lon":-78.932670667,"alt":98.700,"epx":9.392,"epy":13.513,"epv":31.280,"track":126.6900,"speed":6.994,"climb":0.000,"eps":27.03}
{"class":"SKY","device":"/dev/ttyACM0","xdop":0.63,"ydop":0.90,"vdop":1.36,"tdop":0.82,"hdop":1.13,"gdop":1.84,"pdop":1.76,"satellites":[{"PRN":1,"el":0,"az":51,"ss":0,"used":false},{"PRN":2,"el":28,"az":243,"ss":23,"used":true},{"PRN":3,"el":25,"az":51,"ss":41,"used":true},{"PRN":6,"el":66,"az":257,"ss":36,"used":true},{"PRN":12,"el":8,"az":320,"ss":25,"used":false},{"PRN":17,"el":61,"az":38,"ss":40,"used":true},{"PRN":19,"el":62,"az":348,"ss":38,"used":true},{"PRN":22,"el":8,"az":39,"ss":15,"used":true},{"PRN":24,"el":17,"az":289,"ss":22,"used":true},{"PRN":28,"el":46,"az":148,"ss":34,"used":true},{"PRN":135,"el":20,"az":247,"ss":0,"used":false},{"PRN":138,"el":39,"az":223,"ss":29,"used":false}]}
{"class":"TPV","device":"/dev/ttyACM0","mode":3,"time":"2019-05-16T21:24:11.000Z","ept":0.005,"lat":35.935175000,"lon":-78.932603167,"alt":99.300,"epx":9.392,"epy":13.513,"epv":31.280,"track":123.1300,"speed":7.268,"climb":0.000,"eps":27.03}
{"class":"SKY","device":"/dev/ttyACM0","xdop":0.63,"ydop":0.90,"vdop":1.36,"tdop":0.82,"hdop":1.13,"gdop":1.84,"pdop":1.76,"satellites":[{"PRN":1,"el":0,"az":51,"ss":0,"used":false},{"PRN":2,"el":28,"az":243,"ss":22,"used":true},{"PRN":3,"el":25,"az":51,"ss":25,"used":true},{"PRN":6,"el":66,"az":257,"ss":35,"used":true},{"PRN":12,"el":8,"az":320,"ss":23,"used":false},{"PRN":17,"el":61,"az":38,"ss":38,"used":true},{"PRN":19,"el":62,"az":348,"ss":41,"used":true},{"PRN":22,"el":8,"az":39,"ss":15,"used":true},{"PRN":24,"el":17,"az":289,"ss":29,"used":true},{"PRN":28,"el":46,"az":148,"ss":34,"used":true},{"PRN":135,"el":20,"az":247,"ss":0,"used":false},{"PRN":138,"el":39,"az":223,"ss":28,"used":false}]}
{"class":"TPV","device":"/dev/ttyACM0","mode":3,"time":"2019-05-16T21:24:12.000Z","ept":0.005,"lat":35.935141333,"lon":-78.932531000,"alt":99.600,"epx":9.392,"epy":13.513,"epv":31.280,"track":119.7900,"speed":7.376,"climb":0.000,"eps":27.03}
{"class":"SKY","device":"/dev/ttyACM0","xdop":0.63,"ydop":0.90,"vdop":1.36,"tdop":0.82,"hdop":1.13,"gdop":1.84,"pdop":1.76,"satellites":[{"PRN":1,"el":0,"az":51,"ss":0,"used":false},{"PRN":2,"el":28,"az":243,"ss":24,"used":true},{"PRN":3,"el":25,"az":51,"ss":24,"used":true},{"PRN":6,"el":66,"az":257,"ss":36,"used":true},{"PRN":12,"el":8,"az":320,"ss":21,"used":false},{"PRN":17,"el":61,"az":38,"ss":38,"used":true},{"PRN":19,"el":62,"az":348,"ss":41,"used":true},{"PRN":22,"el":8,"az":39,"ss":15,"used":true},{"PRN":24,"el":17,"az":289,"ss":23,"used":true},{"PRN":28,"el":46,"az":148,"ss":37,"used":true},{"PRN":135,"el":20,"az":247,"ss":0,"used":false},{"PRN":138,"el":39,"az":223,"ss":27,"used":false}]}
{"class":"TPV","device":"/dev/ttyACM0","mode":3,"time":"2019-05-16T21:24:13.000Z","ept":0.005,"lat":35.935112833,"lon":-78.932454667,"alt":99.400,"epx":9.392,"epy":13.513,"epv":31.280,"track":115.9500,"speed":7.821,"climb":0.000,"eps":27.03}
{"class":"SKY","device":"/dev/ttyACM0","xdop":0.63,"ydop":0.90,"vdop":1.36,"tdop":0.82,"hdop":1.13,"gdop":1.84,"pdop":1.76,"satellites":[{"PRN":1,"el":0,"az":51,"ss":0,"used":false},{"PRN":2,"el":28,"az":243,"ss":30,"used":true},{"PRN":3,"el":25,"az":51,"ss":30,"used":true},{"PRN":6,"el":66,"az":257,"ss":36,"used":true},{"PRN":12,"el":8,"az":320,"ss":19,"used":false},{"PRN":17,"el":61,"az":38,"ss":33,"used":true},{"PRN":19,"el":62,"az":348,"ss":37,"used":true},{"PRN":22,"el":8,"az":39,"ss":17,"used":true},{"PRN":24,"el":17,"az":289,"ss":31,"used":true},{"PRN":28,"el":46,"az":148,"ss":38,"used":true},{"PRN":135,"el":20,"az":247,"ss":0,"used":false},{"PRN":138,"el":39,"az":223,"ss":29,"used":false}]}
{"class":"TPV","device":"/dev/ttyACM0","mode":3,"time":"2019-05-16T21:24:14.000Z","ept":0.005,"lat":35.935086667,"lon":-78.932373167,"alt":99.100,"epx":9.392,"epy":13.513,"epv":31.280,"track":111.4400,"speed":8.283,"climb":0.000,"eps":27.03}
{"class":"SKY","device":"/dev/ttyACM0","xdop":0.63,"ydop":0.90,"vdop":1.36,"tdop":0.82,"hdop":1.13,"gdop":1.84,"pdop":1.76,"satellites":[{"PRN":1,"el":0,"az":51,"ss":0,"used":false},{"PRN":2,"el":28,"az":243,"ss":29,"used":true},{"PRN":3,"el":25,"az":51,"ss":22,"used":true},{"PRN":6,"el":66,"az":257,"ss":38,"used":true},{"PRN":12,"el":8,"az":320,"ss":20,"used":false},{"PRN":17,"el":61,"az":38,"ss":29,"used":true},{"PRN":19,"el":62,"az":348,"ss":37,"used":true},{"PRN":22,"el":8,"az":39,"ss":16,"used":true},{"PRN":24,"el":17,"az":289,"ss":30,"used":true},{"PRN":28,"el":46,"az":148,"ss":38,"used":true},{"PRN":135,"el":20,"az":247,"ss":0,"used":false},{"PRN":138,"el":39,"az":223,"ss":27,"used":false}]}
{"class":"TPV","device":"/dev/ttyACM0","mode":3,"time":"2019-05-16T21:24:15.000Z","ept":0.005,"lat":35.935061000,"lon":-78.932283333,"alt":99.600,"epx":9.392,"epy":13.513,"epv":31.280,"track":108.0200,"speed":8.562,"climb":0.000,"eps":27.03}
{"class":"SKY","device":"/dev/ttyACM0","xdop":0.63,"ydop":0.90,"vdop":1.36,"tdop":0.82,"hdop":1.13,"gdop":1.84,"pdop":1.76,"satellites":[{"PRN":1,"el":0,"az":51,"ss":0,"used":false},{"PRN":2,"el":28,"az":243,"ss":29,"used":true},{"PRN":3,"el":25,"az":51,"ss":21,"used":true},{"PRN":6,"el":66,"az":257,"ss":38,"used":true},{"PRN":12,"el":8,"az":320,"ss":16,"used":false},{"PRN":17,"el":61,"az":38,"ss":27,"used":true},{"PRN":19,"el":62,"az":348,"ss":35,"used":true},{"PRN":22,"el":8,"az":39,"ss":15,"used":true},{"PRN":24,"el":17,"az":289,"ss":28,"used":true},{"PRN":28,"el":46,"az":148,"ss":38,"used":true},{"PRN":135,"el":20,"az":247,"ss":0,"used":false},{"PRN":138,"el":39,"az":223,"ss":0,"used":false}]}
{"class":"TPV","device":"/dev/ttyACM0","mode":3,"time":"2019-05-16T21:24:16.000Z","ept":0.005,"lat":35.935035833,"lon":-78.932188333,"alt":99.800,"epx":9.392,"epy":13.513,"epv":31.280,"track":106.5200,"speed":9.057,"climb":0.000,"eps":27.03}
{"class":"SKY","device":"/dev/ttyACM0","xdop":0.63,"ydop":0.90,"vdop":1.36,"tdop":0.82,"hdop":1.13,"gdop":1.84,"pdop":1.76,"satellites":[{"PRN":1,"el":0,"az":51,"ss":0,"used":false},{"PRN":2,"el":28,"az":243,"ss":31,"used":true},{"PRN":3,"el":25,"az":51,"ss":35,"used":true},{"PRN":6,"el":66,"az":257,"ss":40,"used":true},{"PRN":12,"el":8,"az":320,"ss":14,"used":false},{"PRN":17,"el":61,"az":38,"ss":27,"used":true},{"PRN":19,"el":62,"az":348,"ss":36,"used":true},{"PRN":22,"el":8,"az":39,"ss":13,"used":true},{"PRN":24,"el":17,"az":289,"ss":30,"used":true},{"PRN":28,"el":46,"az":148,"ss":31,"used":true},{"PRN":135,"el":20,"az":247,"ss":0,"used":false},{"PRN":138,"el":39,"az":223,"ss":35,"used":false}]}
{"class":"TPV","device":"/dev/ttyACM0","mode":3,"time":"2019-05-16T21:24:17.000Z","ept":0.005,"lat":35.935015167,"lon":-78.932088167,"alt":100.300,"epx":9.392,"epy":13.513,"epv":31.280,"track":103.1600,"speed":9.505,"climb":0.000,"eps":27.03}
{"class":"SKY","device":"/dev/ttyACM0","xdop":0.63,"ydop":0.90,"vdop":1.36,"tdop":0.82,"hdop":1.13,"gdop":1.84,"pdop":1.76,"satellites":[{"PRN":1,"el":0,"az":51,"ss":0,"used":false},{"PRN":2,"el":28,"az":243,"ss":33,"used":true},{"PRN":3,"el":25,"az":51,"ss":34,"used":true},{"PRN":6,"el":66,"az":257,"ss":40,"used":true},{"PRN":12,"el":8,"az":320,"ss":10,"used":false},{"PRN":17,"el":61,"az":38,"ss":35,"used":true},{"PRN":19,"el":62,"az":348,"ss":36,"used":true},{"PRN":22,"el":8,"az":39,"ss":14,"used":true},{"PRN":24,"el":17,"az":289,"ss":32,"used":true},{"PRN":28,"el":46,"az":148,"ss":31,"used":true},{"PRN":135,"el":20,"az":247,"ss":0,"used":false},{"PRN":138,"el":39,"az":223,"ss":32,"used":false}]}
{"class":"TPV","device":"/dev/ttyACM0","mode":3,"time":"2019-05-16T21:24:18.000Z","ept":0.005,"lat":35.935001500,"lon":-78.931980833,"alt":100.100,"epx":9.392,"epy":13.513,"epv":31.280,"track":98.5300,"speed":9.854,"climb":0.000,"eps":27.03}
{"class":"SKY","device":"/dev/ttyACM0","xdop":0.63,"ydop":0.90,"vdop":1.36,"tdop":0.82,"hdop":1.13,"gdop":1.84,"pdop":1.76,"satellites":[{"PRN":1,"el":0,"az":51,"ss":0,"used":false},{"PRN":2,"el":28,"az":243,"ss":29,"used":true},{"PRN":3,"el":25,"az":51,"ss":34,"used":true},{"PRN":6,"el":66,"az":257,"ss":40,"used":true},{"PRN":12,"el":8,"az":320,"ss":12,"used":false},{"PRN":17,"el":61,"az":38,"ss":36,"used":true},{"PRN":19,"el":62,"az":348,"ss":37,"used":true},{"PRN":22,"el":8,"az":39,"ss":14,"used":true},{"PRN":24,"el":17,"az":289,"ss":26,"used":true},{"PRN":28,"el":46,"az":148,"ss":30,"used":true},{"PRN":135,"el":20,"az":247,"ss":0,"used":false},{"PRN":138,"el":39,"az":223,"ss":34,"used":false}]}
{"class":"TPV","device":"/dev/ttyACM0","mode":3,"time":"2019-05-16T21:24:19.000Z","ept":0.005,"lat":35.934993167,"lon":-78.931872167,"alt":100.700,"epx":9.392,"epy":13.513,"epv":31.280,"track":94.5300,"speed":9.924,"climb":0.000,"eps":27.03}
{"class":"SKY","device":"/dev/ttyACM0","xdop":0.63,"ydop":0.90,"vdop":1.36,"tdop":0.82,"hdop":1.13,"gdop":1.84,"pdop":1.76,"satellites":[{"PRN":1,"el":0,"az":51,"ss":0,"used":false},{"PRN":2,"el":28,"az":243,"ss":29,"used":true},{"PRN":3,"el":25,"az":51,"ss":34,"used":true},{"PRN":6,"el":66,"az":257,"ss":40,"used":true},{"PRN":12,"el":8,"az":320,"ss":13,"used":false},{"PRN":17,"el":61,"az":38,"ss":38,"used":true},{"PRN":19,"el":62,"az":348,"ss":38,"used":true},{"PRN":22,"el":8,"az":39,"ss":19,"used":true},{"PRN":24,"el":17,"az":289,"ss":25,"used":true},{"PRN":28,"el":46,"az":148,"ss":34,"used":true},{"PRN":135,"el":20,"az":247,"ss":0,"used":false},{"PRN":138,"el":39,"az":223,"ss":28,"used":false}]}
{"class":"TPV","device":"/dev/ttyACM0","mode":3,"time":"2019-05-16T21:24:20.000Z","ept":0.005,"lat":35.934991167,"lon":-78.931763667,"alt":101.300,"epx":9.392,"epy":13.513,"epv":31.280,"track":90.3000,"speed":9.885,"climb":0.000,"eps":27.03}
{"class":"SKY","device":"/dev/ttyACM0","xdop":0.63,"ydop":0.90,"vdop":1.36,"tdop":0.82,"hdop":1.13,"gdop":1.84,"pdop":1.76,"satellites":[{"PRN":1,"el":0,"az":51,"ss":0,"used":false},{"PRN":2,"el":28,"az":243,"ss":29,"used":true},{"PRN":3,"el":25,"az":51,"ss":34,"used":true},{"PRN":6,"el":66,"az":257,"ss":40,"used":true},{"PRN":12,"el":8,"az":320,"ss":17,"used":false},{"PRN":17,"el":61,"az":38,"ss":39,"used":true},{"PRN":19,"el":62,"az":348,"ss":37,"used":true},{"PRN":22,"el":8,"az":39,"ss":20,"used":true},{"PRN":24,"el":17,"az":289,"ss":26,"used":true},{"PRN":28,"el":46,"az":148,"ss":34,"used":true},{"PRN":135,"el":20,"az":247,"ss":0,"used":false},{"PRN":138,"el":39,"az":223,"ss":33,"used":false}]}
{"class":"TPV","device":"/dev/ttyACM0","mode":3,"time":"2019-05-16T21:24:21.000Z","ept":0.005,"lat":35.934995000,"lon":-78.931655500,"alt":101.900,"epx":9.392,"epy":13.513,"epv":31.280,"track":86.8000,"speed":9.896,"climb":0.000,"eps":27.03}
{"class":"SKY","device":"/dev/ttyACM0","xdop":0.63,"ydop":0.90,"vdop":1.36,"tdop":0.82,"hdop":1.13,"gdop":1.84,"pdop":1.76,"satellites":[{"PRN":1,"el":0,"az":51,"ss":0,"used":false},{"PRN":2,"el":28,"az":243,"ss":29,"used":true},{"PRN":3,"el":25,"az":51,"ss":31,"used":true},{"PRN":6,"el":66,"az":257,"ss":40,"used":true},{"PRN":12,"el":8,"az":320,"ss":18,"used":false},{"PRN":17,"el":61,"az":38,"ss":39,"used":true},{"PRN":19,"el":62,"az":348,"ss":37,"used":true},{"PRN":22,"el":8,"az":39,"ss":20,"used":true},{"PRN":24,"el":17,"az":289,"ss":26,"used":true},{"PRN":28,"el":46,"az":148,"ss":39,"used":true},{"PRN":135,"el":20,"az":247,"ss":0,"used":false},{"PRN":138,"el":39,"az":223,"ss":37,"used":false}]}
{"class":"TPV","device":"/dev/ttyACM0","mode":3,"time":"2019-05-16T21:24:22.000Z","ept":0.005,"lat":35.935005167,"lon":-78.931543000,"alt":102.400,"epx":9.392,"epy":13.513,"epv":31.280,"track":83.1700,"speed":10.054,"climb":0.000,"eps":27.03}
{"class":"SKY","device":"/dev/ttyACM0","xdop":0.63,"ydop":0.90,"vdop":1.36,"tdop":0.82,"hdop":1.13,"gdop":1.84,"pdop":1.76,"satellites":[{"PRN":1,"el":0,"az":51,"ss":0,"used":false},{"PRN":2,"el":28,"az":243,"ss":34,"used":true},{"PRN":3,"el":25,"az":51,"ss":25,"used":true},{"PRN":6,"el":66,"az":257,"ss":40,"used":true},{"PRN":12,"el":8,"az":320,"ss":16,"used":false},{"PRN":17,"el":61,"az":38,"ss":39,"used":true},{"PRN":19,"el":62,"az":348,"ss":37,"used":true},{"PRN":22,"el":8,"az":39,"ss":19,"used":true},{"PRN":24,"el":17,"az":289,"ss":27,"used":true},{"PRN":28,"el":46,"az":148,"ss":34,"used":true},{"PRN":135,"el":20,"az":247,"ss":0,"used":false},{"PRN":138,"el":39,"az":223,"ss":37,"used":false}]}
{"class":"TPV","device":"/dev/ttyACM0","mode":3,"time":"2019-05-16T21:24:23.000Z","ept":0.005,"lat":35.935020333,"lon":-78.931433500,"alt":102.800,"epx":9.392,"epy":13.513,"epv":31.280,"track":79.5300,"speed":9.941,"climb":0.000,"eps":27.03}
{"class":"SKY","device":"/dev/ttyACM0","xdop":0.63,"ydop":0.90,"vdop":1.36,"tdop":0.82,"hdop":1.13,"gdop":1.84,"pdop":1.76,"satellites":[{"PRN":1,"el":0,"az":51,"ss":0,"used":false},{"PRN":2,"el":28,"az":243,"ss":33,"used":true},{"PRN":3,"el":25,"az":51,"ss":26,"used":true},{"PRN":6,"el":66,"az":257,"ss":37,"used":true},{"PRN":12,"el":8,"az":320,"ss":15,"used":false},{"PRN":17,"el":61,"az":38,"ss":39,"used":true},{"PRN":19,"el":62,"az":348,"ss":38,"used":true},{"PRN":22,"el":8,"az":39,"ss":17,"used":true},{"PRN":24,"el":17,"az":289,"ss":27,"used":true},{"PRN":28,"el":46,"az":148,"ss":26,"used":true},{"PRN":135,"el":20,"az":247,"ss":0,"used":false},{"PRN":138,"el":39,"az":223,"ss":38,"used":false}]}
{"class":"TPV","device":"/dev/ttyACM0","mode":3,"time":"2019-05-16T21:24:24.000Z","ept":0.005,"lat":35.935040500,"lon":-78.931327000,"alt":102.800,"epx":9.392,"epy":13.513,"epv":31.280,"track":76.0700,"speed":9.798,"climb":0.000,"eps":27.03}
{"class":"SKY","device":"/dev/ttyACM0","xdop":0.63,"ydop":0.90,"vdop":1.36,"tdop":0.82,"hdop":1.13,"gdop":1.84,"pdop":1.76,"satellites":[{"PRN":1,"el":0,"az":51,"ss":0,"used":false},{"PRN":2,"el":28,"az":243,"ss":31,"used":true},{"PRN":3,"el":25,"az":51,"ss":33,"used":true},{"PRN":6,"el":66,"az":257,"ss":38,"used":true},{"PRN":12,"el":8,"az":320,"ss":22,"used":false},{"PRN":17,"el":61,"az":38,"ss":37,"used":true},{"PRN":19,"el":62,"az":348,"ss":38,"used":true},{"PRN":22,"el":8,"az":39,"ss":20,"used":true},{"PRN":24,"el":17,"az":289,"ss":28,"used":true},{"PRN":28,"el":46,"az":148,"ss":38,"used":true},{"PRN":135,"el":20,"az":247,"ss":0,"used":false},{"PRN":138,"el":39,"az":223,"ss":31,"used":false}]}
{"class":"TPV","device":"/dev/ttyACM0","mode":3,"time":"2019-05-16T21:24:25.000Z","ept":0.005,"lat":35.935064500,"lon":-78.931221000,"alt":102.500,"epx":9.392,"epy":13.513,"epv":31.280,"track":74.0600,"speed":9.951,"climb":0.000,"eps":27.03}
{"class":"SKY","device":"/dev/ttyACM0","xdop":0.63,"ydop":0.90,"vdop":1.36,"tdop":0.82,"hdop":1.13,"gdop":1.84,"pdop":1.76,"satellites":[{"PRN":1,"el":0,"az":51,"ss":0,"used":false},{"PRN":2,"el":28,"az":243,"ss":29,"used":true},{"PRN":3,"el":25,"az":51,"ss":36,"used":true},{"PRN":6,"el":66,"az":257,"ss":39,"used":true},{"PRN":12,"el":8,"az":320,"ss":21,"used":false},{"PRN":17,"el":61,"az":38,"ss":39,"used":true},{"PRN":19,"el":62,"az":348,"ss":36,"used":true},{"PRN":22,"el":8,"az":39,"ss":22,"used":true},{"PRN":24,"el":17,"az":289,"ss":29,"used":true},{"PRN":28,"el":46,"az":148,"ss":29,"used":true},{"PRN":135,"el":20,"az":247,"ss":0,"used":false},{"PRN":138,"el":39,"az":223,"ss":37,"used":false}]}
{"class":"TPV","device":"/dev/ttyACM0","mode":3,"time":"2019-05-16T21:24:26.000Z","ept":0.005,"lat":35.935091500,"lon":-78.931115000,"alt":102.100,"epx":9.392,"epy":13.513,"epv":31.280,"track":72.0600,"speed":10.015,"climb":0.000,"eps":27.03}
{"class":"SKY","device":"/dev/ttyACM0","xdop":0.63,"ydop":0.90,"vdop":1.35,"tdop":0.82,"hdop":1.13,"gdop":1.84,"pdop":1.76,"satellites":[{"PRN":1,"el":0,"az":51,"ss":0,"used":false},{"PRN":2,"el":28,"az":243,"ss":18,"used":true},{"PRN":3,"el":25,"az":50,"ss":33,"used":true},{"PRN":6,"el":66,"az":257,"ss":40,"used":true},{"PRN":12,"el":8,"az":320,"ss":19,"used":false},{"PRN":17,"el":61,"az":38,"ss":41,"used":true},{"PRN":19,"el":62,"az":348,"ss":36,"used":true},{"PRN":22,"el":8,"az":39,"ss":30,"used":true},{"PRN":24,"el":17,"az":289,"ss":28,"used":true},{"PRN":28,"el":46,"az":148,"ss":36,"used":true},{"PRN":135,"el":20,"az":247,"ss":0,"used":false},{"PRN":138,"el":39,"az":223,"ss":31,"used":false}]}
{"class":"TPV","device":"/dev/ttyACM0","mode":3,"time":"2019-05-16T21:24:27.000Z","ept":0.005,"lat":35.935122500,"lon":-78.931012167,"alt":102.000,"epx":9.392,"epy":13.513,"epv":31.280,"track":68.1200,"speed":9.892,"climb":0.000,"eps":27.03}
{"class":"SKY","device":"/dev/ttyACM0","xdop":0.63,"ydop":0.90,"vdop":1.35,"tdop":0.82,"hdop":1.13,"gdop":1.84,"pdop":1.76,"satellites":[{"PRN":1,"el":0,"az":51,"ss":0,"used":false},{"PRN":2,"el":28,"az":243,"ss":27,"used":true},{"PRN":3,"el":25,"az":50,"ss":40,"used":true},{"PRN":6,"el":66,"az":257,"ss":41,"used":true},{"PRN":12,"el":8,"az":320,"ss":18,"used":false},{"PRN":17,"el":61,"az":38,"ss":38,"used":true},{"PRN":19,"el":62,"az":348,"ss":34,"used":true},{"PRN":22,"el":8,"az":39,"ss":30,"used":true},{"PRN":24,"el":17,"az":289,"ss":27,"used":true},{"PRN":28,"el":46,"az":148,"ss":37,"used":true},{"PRN":135,"el":20,"az":247,"ss":0,"used":false},{"PRN":138,"el":39,"az":223,"ss":29,"used":false}]}
{"class":"TPV","device":"/dev/ttyACM0","mode":3,"time":"2019-05-16T21:24:28.000Z","ept":0.005,"lat":35.935156833,"lon":-78.930913167,"alt":101.800,"epx":9.392,"epy":13.513,"epv":31.050,"track":65.1800,"speed":9.686,"climb":0.000,"eps":27.03}
{"class":"SKY","device":"/dev/ttyACM0","xdop":0.63,"ydop":0.90,"vdop":1.35,"tdop":0.82,"hdop":1.13,"gdop":1.84,"pdop":1.76,"satellites":[{"PRN":1,"el":0,"az":51,"ss":0,"used":false},{"PRN":2,"el":28,"az":243,"ss":22,"used":true},{"PRN":3,"el":25,"az":50,"ss":38,"used":true},{"PRN":6,"el":66,"az":258,"ss":41,"used":true},{"PRN":12,"el":8,"az":320,"ss":21,"used":false},{"PRN":17,"el":61,"az":38,"ss":40,"used":true},{"PRN":19,"el":62,"az":348,"ss":35,"used":true},{"PRN":22,"el":8,"az":39,"ss":22,"used":true},{"PRN":24,"el":17,"az":289,"ss":24,"used":true},{"PRN":28,"el":46,"az":148,"ss":37,"used":true},{"PRN":135,"el":20,"az":247,"ss":0,"used":false},{"PRN":138,"el":39,"az":223,"ss":33,"used":false}]}
{"class":"TPV","device":"/dev/ttyACM0","mode":3,"time":"2019-05-16T21:24:29.000Z","ept":0.005,"lat":35.935196500,"lon":-78.930817333,"alt":101.200,"epx":9.392,"epy":13.513,"epv":31.050,"track":62.5300,"speed":9.747,"climb":0.000,"eps":27.03}
{"class":"SKY","device":"/dev/ttyACM0","xdop":0.63,"ydop":0.90,"vdop":1.35,"tdop":0.82,"hdop":1.13,"gdop":1.84,"pdop":1.76,"satellites":[{"PRN":1,"el":0,"az":51,"ss":0,"used":false},{"PRN":2,"el":28,"az":243,"ss":21,"used":true},{"PRN":3,"el":25,"az":50,"ss":35,"used":true},{"PRN":6,"el":66,"az":258,"ss":40,"used":true},{"PRN":12,"el":8,"az":320,"ss":19,"used":false},{"PRN":17,"el":61,"az":38,"ss":36,"used":true},{"PRN":19,"el":62,"az":348,"ss":31,"used":true},{"PRN":22,"el":8,"az":39,"ss":22,"used":true},{"PRN":24,"el":17,"az":289,"ss":21,"used":true},{"PRN":28,"el":46,"az":148,"ss":34,"used":true},{"PRN":135,"el":20,"az":247,"ss":0,"used":false},{"PRN":138,"el":39,"az":223,"ss":35,"used":false}]}
{"class":"TPV","device":"/dev/ttyACM0","mode":3,"time":"2019-05-16T21:24:30.000Z","ept":0.005,"lat":35.935240500,"lon":-78.930722833,"alt":100.900,"epx":9.392,"epy":13.513,"epv":31.050,"track":59.3600,"speed":9.915,"climb":0.000,"eps":27.03}
{"class":"SKY","device":"/dev/ttyACM0","xdop":0.63,"ydop":0.90,"vdop":1.35,"tdop":0.82,"hdop":1.13,"gdop":1.84,"pdop":1.76,"satellites":[{"PRN":1,"el":0,"az":51,"ss":0,"used":false},{"PRN":2,"el":28,"az":243,"ss":20,"used":true},{"PRN":3,"el":25,"az":50,"ss":34,"used":true},{"PRN":6,"el":66,"az":258,"ss":41,"used":true},{"PRN":12,"el":8,"az":320,"ss":18,"used":false},{"PRN":17,"el":61,"az":38,"ss":27,"used":true},{"PRN":19,"el":62,"az":348,"ss":29,"used":true},{"PRN":22,"el":8,"az":39,"ss":23,"used":true},{"PRN":24,"el":17,"az":289,"ss":19,"used":true},{"PRN":28,"el":46,"az":148,"ss":34,"used":true},{"PRN":135,"el":20,"az":247,"ss":0,"used":false},{"PRN":138,"el":39,"az":223,"ss":35,"used":false}]}
{"class":"TPV","device":"/dev/ttyACM0","mode":3,"time":"2019-05-16T21:24:31.000Z","ept":0.005,"lat":35.935288167,"lon":-78.930626167,"alt":100.800,"epx":9.392,"epy":13.513,"epv":31.050,"track":58.6600,"speed":10.285,"climb":0.000,"eps":27.03}
{"class":"SKY","device":"/dev/ttyACM0","xdop":0.63,"ydop":0.90,"vdop":1.35,"tdop":0.82,"hdop":1.13,"gdop":1.84,"pdop":1.76,"satellites":[{"PRN":1,"el":0,"az":51,"ss":0,"used":false},{"PRN":2,"el":28,"az":243,"ss":19,"used":true},{"PRN":3,"el":25,"az":50,"ss":33,"used":true},{"PRN":6,"el":66,"az":258,"ss":43,"used":true},{"PRN":12,"el":8,"az":320,"ss":17,"used":false},{"PRN":17,"el":61,"az":38,"ss":38,"used":true},{"PRN":19,"el":62,"az":348,"ss":27,"used":true},{"PRN":22,"el":8,"az":39,"ss":20,"used":true},{"PRN":24,"el":17,"az":289,"ss":19,"used":true},{"PRN":28,"el":46,"az":148,"ss":37,"used":true},{"PRN":135,"el":20,"az":247,"ss":0,"used":false},{"PRN":138,"el":39,"az":223,"ss":39,"used":false}]}
{"class":"TPV","device":"/dev/ttyACM0","mode":3,"time":"2019-05-16T21:24:32.000Z","ept":0.005,"lat":35.935337667,"lon":-78.930528167,"alt":100.600,"epx":9.392,"epy":13.513,"epv":31.050,"track":56.8500,"speed":10.557,"climb":0.000,"eps":27.03}
{"class":"SKY","device":"/dev/ttyACM0","xdop":0.63,"ydop":0.90,"vdop":1.35,"tdop":0.82,"hdop":1.13,"gdop":1.84,"pdop":1.76,"satellites":[{"PRN":1,"el":0,"az":51,"ss":0,"used":false},{"PRN":2,"el":28,"az":243,"ss":20,"used":true},{"PRN":3,"el":25,"az":50,"ss":32,"used":true},{"PRN":6,"el":66,"az":258,"ss":42,"used":true},{"PRN":12,"el":8,"az":320,"ss":18,"used":false},{"PRN":17,"el":61,"az":38,"ss":37,"used":true},{"PRN":19,"el":62,"az":348,"ss":27,"used":true},{"PRN":22,"el":8,"az":39,"ss":21,"used":true},{"PRN":24,"el":17,"az":289,"ss":20,"used":true},{"PRN":28,"el":46,"az":148,"ss":38,"used":true},{"PRN":135,"el":20,"az":247,"ss":0,"used":false},{"PRN":138,"el":39,"az":223,"ss":36,"used":false}]}
{"class":"TPV","device":"/dev/ttyACM0","mode":3,"time":"2019-05-16T21:24:33.000Z","ept":0.005,"lat":35.935392833,"lon":-78.930429333,"alt":100.800,"epx":9.392,"epy":13.513,"epv":31.050,"track":54.8200,"speed":10.814,"climb":0.000,"eps":27.03}
{"class":"SKY","device":"/dev/ttyACM0","xdop":0.63,"ydop":0.90,"vdop":1.35,"tdop":0.82,"hdop":1.13,"gdop":1.84,"pdop":1.76,"satellites":[{"PRN":1,"el":0,"az":51,"ss":0,"used":false},{"PRN":2,"el":28,"az":243,"ss":30,"used":true},{"PRN":3,"el":25,"az":50,"ss":31,"used":true},{"PRN":6,"el":66,"az":258,"ss":44,"used":true},{"PRN":12,"el":8,"az":320,"ss":28,"used":false},{"PRN":17,"el":61,"az":38,"ss":40,"used":true},{"PRN":19,"el":62,"az":348,"ss":25,"used":true},{"PRN":22,"el":8,"az":39,"ss":24,"used":true},{"PRN":24,"el":17,"az":289,"ss":20,"used":true},{"PRN":28,"el":46,"az":148,"ss":32,"used":true},{"PRN":135,"el":20,"az":247,"ss":0,"used":false},{"PRN":138,"el":39,"az":223,"ss":36,"used":false}]}
{"class":"TPV","device":"/dev/ttyACM0","mode":3,"time":"2019-05-16T21:24:34.000Z","ept":0.005,"lat":35.935451167,"lon":-78.930333667,"alt":100.900,"epx":9.392,"epy":13.513,"epv":31.050,"track":52.6300,"speed":10.791,"climb":0.000,"eps":27.03}
{"class":"SKY","device":"/dev/ttyACM0","xdop":0.63,"ydop":0.90,"vdop":1.35,"tdop":0.82,"hdop":1.13,"gdop":1.84,"pdop":1.76,"satellites":[{"PRN":1,"el":0,"az":51,"ss":0,"used":false},{"PRN":2,"el":28,"az":243,"ss":31,"used":true},{"PRN":3,"el":25,"az":50,"ss":29,"used":true},{"PRN":6,"el":66,"az":258,"ss":44,"used":true},{"PRN":12,"el":8,"az":320,"ss":20,"used":false},{"PRN":17,"el":61,"az":38,"ss":37,"used":true},{"PRN":19,"el":62,"az":348,"ss":31,"used":true},{"PRN":22,"el":8,"az":39,"ss":31,"used":true},{"PRN":24,"el":17,"az":289,"ss":20,"used":true},{"PRN":28,"el":46,"az":148,"ss":37,"used":true},{"PRN":135,"el":20,"az":247,"ss":0,"used":false},{"PRN":138,"el":39,"az":223,"ss":36,"used":false}]}
{"class":"TPV","device":"/dev/ttyACM0","mode":3,"time":"2019-05-16T21:24:35.000Z","ept":0.005,"lat":35.935512500,"lon":-78.930241333,"alt":100.900,"epx":9.392,"epy":13.513,"epv":31.050,"track":51.4900,"speed":10.750,"climb":0.000,"eps":27.03}
{"class":"SKY","device":"/dev/ttyACM0","xdop":0.63,"ydop":0.90,"vdop":1.35,"tdop":0.82,"hdop":1.13,"gdop":1.84,"pdop":1.76,"satellites":[{"PRN":1,"el":0,"az":51,"ss":0,"used":false},{"PRN":2,"el":28,"az":243,"ss":30,"used":true},{"PRN":3,"el":25,"az":50,"ss":28,"used":true},{"PRN":6,"el":66,"az":258,"ss":44,"used":true},{"PRN":12,"el":8,"az":320,"ss":22,"used":false},{"PRN":17,"el":61,"az":38,"ss":39,"used":true},{"PRN":19,"el":62,"az":348,"ss":27,"used":true},{"PRN":22,"el":8,"az":39,"ss":31,"used":true},{"PRN":24,"el":17,"az":289,"ss":22,"used":true},{"PRN":28,"el":46,"az":148,"ss":36,"used":true},{"PRN":135,"el":20,"az":247,"ss":0,"used":false},{"PRN":138,"el":39,"az":223,"ss":35,"used":false}]}
{"class":"TPV","device":"/dev/ttyACM0","mode":3,"time":"2019-05-16T21:24:36.000Z","ept":0.005,"lat":35.935572333,"lon":-78.930148000,"alt":100.600,"epx":9.392,"epy":13.513,"epv":31.050,"track":51.1900,"speed":10.828,"climb":0.000,"eps":27.03}
{"class":"SKY","device":"/dev/ttyACM0","xdop":0.63,"ydop":0.90,"vdop":1.35,"tdop":0.82,"hdop":1.13,"gdop":1.84,"pdop":1.76,"satellites":[{"PRN":1,"el":0,"az":51,"ss":0,"used":false},{"PRN":2,"el":28,"az":243,"ss":30,"used":true},{"PRN":3,"el":25,"az":50,"ss":28,"used":true},{"PRN":6,"el":66,"az":258,"ss":42,"used":true},{"PRN":12,"el":8,"az":320,"ss":21,"used":false},{"PRN":17,"el":61,"az":38,"ss":36,"used":true},{"PRN":19,"el":62,"az":348,"ss":27,"used":true},{"PRN":22,"el":8,"az":39,"ss":31,"used":true},{"PRN":24,"el":17,"az":289,"ss":22,"used":true},{"PRN":28,"el":46,"az":148,"ss":37,"used":true},{"PRN":135,"el":20,"az":247,"ss":0,"used":false},{"PRN":138,"el":39,"az":223,"ss":34,"used":false}]}
{"class":"TPV","device":"/dev/ttyACM0","mode":3,"time":"2019-05-16T21:24:37.000Z","ept":0.005,"lat":35.935632500,"lon":-78.930053667,"alt":100.700,"epx":9.392,"epy":13.513,"epv":31.050,"track":51.4000,"speed":10.752,"climb":0.000,"eps":27.03}
{"class":"SKY","device":"/dev/ttyACM0","xdop":0.63,"ydop":0.90,"vdop":1.35,"tdop":0.82,"hdop":1.13,"gdop":1.84,"pdop":1.76,"satellites":[{"PRN":1,"el":0,"az":51,"ss":0,"used":false},{"PRN":2,"el":28,"az":243,"ss":29,"used":true},{"PRN":3,"el":25,"az":50,"ss":28,"used":true},{"PRN":6,"el":66,"az":258,"ss":41,"used":true},{"PRN":12,"el":8,"az":320,"ss":20,"used":false},{"PRN":17,"el":61,"az":38,"ss":35,"used":true},{"PRN":19,"el":62,"az":348,"ss":16,"used":true},{"PRN":22,"el":8,"az":39,"ss":30,"used":true},{"PRN":24,"el":17,"az":289,"ss":23,"used":true},{"PRN":28,"el":46,"az":148,"ss":38,"used":true},{"PRN":135,"el":20,"az":247,"ss":0,"used":false},{"PRN":138,"el":39,"az":223,"ss":34,"used":false}]}
{"class":"TPV","device":"/dev/ttyACM0","mode":3,"time":"2019-05-16T21:24:38.000Z","ept":0.005,"lat":35.935691833,"lon":-78.929959833,"alt":100.500,"epx":9.392,"epy":13.513,"epv":31.050,"track":51.7600,"speed":10.701,"climb":0.000,"eps":27.03}
{"class":"SKY","device":"/dev/ttyACM0","xdop":0.63,"ydop":0.90,"vdop":1.35,"tdop":0.82,"hdop":1.13,"gdop":1.84,"pdop":1.76,"satellites":[{"PRN":1,"el":0,"az":51,"ss":0,"used":false},{"PRN":2,"el":28,"az":243,"ss":26,"used":true},{"PRN":3,"el":25,"az":50,"ss":29,"used":true},{"PRN":6,"el":66,"az":258,"ss":40,"used":true},{"PRN":12,"el":8,"az":320,"ss":19,"used":false},{"PRN":17,"el":61,"az":38,"ss":35,"used":true},{"PRN":19,"el":62,"az":348,"ss":20,"used":true},{"PRN":22,"el":8,"az":39,"ss":20,"used":true},{"PRN":24,"el":17,"az":289,"ss":22,"used":true},{"PRN":28,"el":46,"az":148,"ss":38,"used":true},{"PRN":135,"el":20,"az":247,"ss":0,"used":false},{"PRN":138,"el":39,"az":223,"ss":33,"used":false}]}
{"class":"TPV","device":"/dev/ttyACM0","mode":3,"time":"2019-05-16T21:24:39.000Z","ept":0.005,"lat":35.935749167,"lon":-78.929862667,"alt":100.300,"epx":9.392,"epy":13.513,"epv":31.050,"track":53.5900,"speed":10.816,"climb":0.000,"eps":27.03}
{"class":"SKY","device":"/dev/ttyACM0","xdop":0.63,"ydop":0.90,"vdop":1.35,"tdop":0.82,"hdop":1.13,"gdop":1.84,"pdop":1.76,"satellites":[{"PRN":1,"el":0,"az":51,"ss":0,"used":false},{"PRN":2,"el":28,"az":243,"ss":24,"used":true},{"PRN":3,"el":25,"az":50,"ss":29,"used":true},{"PRN":6,"el":66,"az":258,"ss":40,"used":true},{"PRN":12,"el":8,"az":320,"ss":17,"used":false},{"PRN":17,"el":61,"az":38,"ss":34,"used":true},{"PRN":19,"el":62,"az":348,"ss":23,"used":true},{"PRN":22,"el":8,"az":39,"ss":20,"used":true},{"PRN":24,"el":17,"az":289,"ss":21,"used":true},{"PRN":28,"el":46,"az":148,"ss":35,"used":true},{"PRN":135,"el":20,"az":247,"ss":0,"used":false},{"PRN":138,"el":39,"az":223,"ss":34,"used":false}]}
{"class":"TPV","device":"/dev/ttyACM0","mode":3,"time":"2019-05-16T21:24:40.000Z","ept":0.005,"lat":35.935804333,"lon":-78.929764500,"alt":99.700,"epx":9.392,"epy":13.513,"epv":31.050,"track":55.5500,"speed":10.780,"climb":0.000,"eps":27.03}
{"class":"SKY","device":"/dev/ttyACM0","xdop":0.63,"ydop":0.90,"vdop":1.35,"tdop":0.82,"hdop":1.13,"gdop":1.84,"pdop":1.76,"satellites":[{"PRN":1,"el":0,"az":51,"ss":0,"used":false},{"PRN":2,"el":28,"az":243,"ss":23,"used":true},{"PRN":3,"el":25,"az":50,"ss":33,"used":true},{"PRN":6,"el":66,"az":258,"ss":40,"used":true},{"PRN":12,"el":8,"az":320,"ss":17,"used":false},{"PRN":17,"el":61,"az":38,"ss":30,"used":true},{"PRN":19,"el":62,"az":348,"ss":25,"used":true},{"PRN":22,"el":8,"az":39,"ss":20,"used":true},{"PRN":24,"el":17,"az":289,"ss":19,"used":true},{"PRN":28,"el":46,"az":148,"ss":35,"used":true},{"PRN":135,"el":20,"az":247,"ss":0,"used":false},{"PRN":138,"el":39,"az":223,"ss":37,"used":false}]}
{"class":"TPV","device":"/dev/ttyACM0","mode":3,"time":"2019-05-16T21:24:41.000Z","ept":0.005,"lat":35.935854333,"lon":-78.929664333,"alt":99.300,"epx":9.392,"epy":13.513,"epv":31.050,"track":59.4000,"speed":10.561,"climb":0.000,"eps":27.03}
{"class":"SKY","device":"/dev/ttyACM0","xdop":0.63,"ydop":0.90,"vdop":1.35,"tdop":0.82,"hdop":1.13,"gdop":1.84,"pdop":1.76,"satellites":[{"PRN":1,"el":0,"az":51,"ss":0,"used":false},{"PRN":2,"el":28,"az":243,"ss":22,"used":true},{"PRN":3,"el":25,"az":50,"ss":39,"used":true},{"PRN":6,"el":66,"az":258,"ss":41,"used":true},{"PRN":12,"el":8,"az":320,"ss":18,"used":false},{"PRN":17,"el":61,"az":38,"ss":37,"used":true},{"PRN":19,"el":63,"az":348,"ss":33,"used":true},{"PRN":22,"el":8,"az":39,"ss":21,"used":true},{"PRN":24,"el":17,"az":289,"ss":20,"used":true},{"PRN":28,"el":46,"az":148,"ss":35,"used":true},{"PRN":135,"el":20,"az":247,"ss":0,"used":false},{"PRN":138,"el":39,"az":223,"ss":37,"used":false}]}
{"class":"TPV","device":"/dev/ttyACM0","mode":3,"time":"2019-05-16T21:24:42.000Z","ept":0.005,"lat":35.935901000,"lon":-78.929563167,"alt":99.100,"epx":9.392,"epy":13.513,"epv":31.050,"track":61.8500,"speed":10.483,"climb":0.000,"eps":27.03}
{"class":"SKY","device":"/dev/ttyACM0","xdop":0.63,"ydop":0.90,"vdop":1.35,"tdop":0.82,"hdop":1.13,"gdop":1.84,"pdop":1.76,"satellites":[{"PRN":1,"el":0,"az":51,"ss":0,"used":false},{"PRN":2,"el":28,"az":243,"ss":24,"used":true},{"PRN":3,"el":25,"az":50,"ss":40,"used":true},{"PRN":6,"el":66,"az":258,"ss":43,"used":true},{"PRN":12,"el":8,"az":320,"ss":18,"used":false},{"PRN":17,"el":61,"az":38,"ss":36,"used":true},{"PRN":19,"el":63,"az":348,"ss":33,"used":true},{"PRN":22,"el":8,"az":39,"ss":20,"used":true},{"PRN":24,"el":17,"az":289,"ss":19,"used":true},{"PRN":28,"el":46,"az":148,"ss":31,"used":true},{"PRN":135,"el":20,"az":247,"ss":0,"used":false},{"PRN":138,"el":39,"az":223,"ss":39,"used":false}]}
{"class":"TPV","device":"/dev/ttyACM0","mode":3,"time":"2019-05-16T21:24:43.000Z","ept":0.005,"lat":35.935942500,"lon":-78.929461833,"alt":99.200,"epx":9.392,"epy":13.513,"epv":31.050,"track":63.4700,"speed":10.344,"climb":0.000,"eps":27.03}
{"class":"SKY","device":"/dev/ttyACM0","xdop":0.63,"ydop":0.90,"vdop":1.35,"tdop":0.82,"hdop":1.13,"gdop":1.84,"pdop":1.76,"satellites":[{"PRN":1,"el":0,"az":51,"ss":0,"used":false},{"PRN":2,"el":28,"az":243,"ss":27,"used":true},{"PRN":3,"el":25,"az":50,"ss":38,"used":true},{"PRN":6,"el":66,"az":258,"ss":44,"used":true},{"PRN":12,"el":8,"az":320,"ss":26,"used":false},{"PRN":17,"el":61,"az":38,"ss":37,"used":true},{"PRN":19,"el":63,"az":348,"ss":34,"used":true},{"PRN":22,"el":8,"az":39,"ss":20,"used":true},{"PRN":24,"el":17,"az":289,"ss":17,"used":true},{"PRN":28,"el":46,"az":148,"ss":34,"used":true},{"PRN":135,"el":20,"az":247,"ss":0,"used":false},{"PRN":138,"el":39,"az":223,"ss":37,"used":false}]}
{"class":"TPV","device":"/dev/ttyACM0","mode":3,"time":"2019-05-16T21:24:44.000Z","ept":0.005,"lat":35.935984833,"lon":-78.929362667,"alt":99.100,"epx":9.392,"epy":13.513,"epv":31.050,"track":62.1400,"speed":10.064,"climb":0.000,"eps":27.03}
{"class":"SKY","device":"/dev/ttyACM0","xdop":0.63,"ydop":0.90,"vdop":1.35,"tdop":0.82,"hdop":1.13,"gdop":1.84,"pdop":1.76,"satellites":[{"PRN":1,"el":0,"az":51,"ss":0,"used":false},{"PRN":2,"el":28,"az":243,"ss":28,"used":true},{"PRN":3,"el":25,"az":50,"ss":38,"used":true},{"PRN":6,"el":66,"az":258,"ss":44,"used":true},{"PRN":12,"el":8,"az":320,"ss":22,"used":false},{"PRN":17,"el":61,"az":38,"ss":35,"used":true},{"PRN":19,"el":63,"az":348,"ss":35,"used":true},{"PRN":22,"el":8,"az":39,"ss":19,"used":true},{"PRN":24,"el":17,"az":289,"ss":19,"used":true},{"PRN":28,"el":46,"az":148,"ss":37,"used":true},{"PRN":135,"el":20,"az":247,"ss":0,"used":false},{"PRN":138,"el":39,"az":223,"ss":37,"used":false}]}
{"class":"TPV","device":"/dev/ttyACM0","mode":3,"time":"2019-05-16T21:24:45.000Z","ept":0.005,"lat":35.936019667,"lon":-78.929259667,"alt":99.600,"epx":9.392,"epy":13.513,"epv":31.050,"track":67.4800,"speed":9.860,"climb":0.000,"eps":27.03}
{"class":"SKY","device":"/dev/ttyACM0","xdop":0.63,"ydop":0.90,"vdop":1.35,"tdop":0.82,"hdop":1.13,"gdop":1.84,"pdop":1.76,"satellites":[{"PRN":1,"el":0,"az":51,"ss":0,"used":false},{"PRN":2,"el":28,"az":243,"ss":25,"used":true},{"PRN":3,"el":25,"az":50,"ss":37,"used":true},{"PRN":6,"el":66,"az":258,"ss":43,"used":true},{"PRN":12,"el":8,"az":320,"ss":21,"used":false},{"PRN":17,"el":61,"az":38,"ss":38,"used":true},{"PRN":19,"el":63,"az":348,"ss":35,"used":true},{"PRN":22,"el":8,"az":39,"ss":16,"used":true},{"PRN":24,"el":17,"az":289,"ss":23,"used":true},{"PRN":28,"el":46,"az":148,"ss":31,"used":true},{"PRN":135,"el":20,"az":247,"ss":0,"used":false},{"PRN":138,"el":39,"az":223,"ss":36,"used":false}]}
{"class":"TPV","device":"/dev/ttyACM0","mode":3,"time":"2019-05-16T21:24:46.000Z","ept":0.005,"lat":35.936050167,"lon":-78.929161333,"alt":99.900,"epx":9.392,"epy":13.513,"epv":31.050,"track":68.9000,"speed":9.421,"climb":0.000,"eps":27.03}
{"class":"SKY","device":"/dev/ttyACM0","xdop":0.63,"ydop":0.90,"vdop":1.35,"tdop":0.82,"hdop":1.13,"gdop":1.84,"pdop":1.76,"satellites":[{"PRN":1,"el":0,"az":51,"ss":0,"used":false},{"PRN":2,"el":28,"az":243,"ss":30,"used":true},{"PRN":3,"el":25,"az":50,"ss":36,"used":true},{"PRN":6,"el":66,"az":258,"ss":41,"used":true},{"PRN":12,"el":8,"az":320,"ss":19,"used":false},{"PRN":17,"el":61,"az":38,"ss":40,"used":true},{"PRN":19,"el":63,"az":348,"ss":35,"used":true},{"PRN":22,"el":8,"az":39,"ss":13,"used":true},{"PRN":24,"el":17,"az":289,"ss":25,"used":true},{"PRN":28,"el":46,"az":148,"ss":41,"used":true},{"PRN":135,"el":20,"az":247,"ss":0,"used":false},{"PRN":138,"el":39,"az":223,"ss":33,"used":false}]}
{"class":"TPV","device":"/dev/ttyACM0","mode":3,"time":"2019-05-16T21:24:47.000Z","ept":0.005,"lat":35.936077833,"lon":-78.929068833,"alt":100.300,"epx":9.392,"epy":13.513,"epv":31.050,"track":72.2100,"speed":8.839,"climb":0.000,"eps":27.03}
{"class":"SKY","device":"/dev/ttyACM0","xdop":0.63,"ydop":0.90,"vdop":1.68,"tdop":0.82,"hdop":1.18,"gdop":1.84,"pdop":2.05,"satellites":[{"PRN":1,"el":0,"az":51,"ss":0,"used":false},{"PRN":2,"el":28,"az":243,"ss":30,"used":true},{"PRN":3,"el":25,"az":50,"ss":35,"used":true},{"PRN":6,"el":66,"az":258,"ss":41,"used":true},{"PRN":12,"el":8,"az":320,"ss":19,"used":false},{"PRN":17,"el":61,"az":38,"ss":38,"used":true},{"PRN":19,"el":63,"az":348,"ss":36,"used":true},{"PRN":22,"el":8,"az":39,"ss":9,"used":false},{"PRN":24,"el":17,"az":289,"ss":27,"used":true},{"PRN":28,"el":46,"az":148,"ss":34,"used":true},{"PRN":135,"el":20,"az":247,"ss":0,"used":false},{"PRN":138,"el":39,"az":223,"ss":32,"used":false}]}
{"class":"TPV","device":"/dev/ttyACM0","mode":3,"time":"2019-05-16T21:24:48.000Z","ept":0.005,"lat":35.936099667,"lon":-78.928977333,"alt":100.700,"epx":9.392,"epy":13.513,"epv":31.050,"track":73.5200,"speed":8.552,"climb":0.000,"eps":27.03}
{"class":"SKY","device":"/dev/ttyACM0","xdop":0.63,"ydop":0.90,"vdop":1.68,"tdop":0.82,"hdop":1.18,"gdop":1.84,"pdop":2.05,"satellites":[{"PRN":1,"el":0,"az":51,"ss":0,"used":false},{"PRN":2,"el":28,"az":243,"ss":30,"used":true},{"PRN":3,"el":25,"az":50,"ss":35,"used":true},{"PRN":6,"el":66,"az":258,"ss":39,"used":true},{"PRN":12,"el":8,"az":320,"ss":20,"used":false},{"PRN":17,"el":61,"az":38,"ss":38,"used":true},{"PRN":19,"el":63,"az":348,"ss":35,"used":true},{"PRN":22,"el":8,"az":39,"ss":8,"used":false},{"PRN":24,"el":17,"az":289,"ss":28,"used":true},{"PRN":28,"el":46,"az":148,"ss":29,"used":true},{"PRN":135,"el":20,"az":247,"ss":0,"used":false},{"PRN":138,"el":39,"az":223,"ss":28,"used":false}]}
{"class":"TPV","device":"/dev/ttyACM0","mode":3,"time":"2019-05-16T21:24:49.000Z","ept":0.005,"lat":35.936119500,"lon":-78.928886000,"alt":101.300,"epx":9.392,"epy":13.513,"epv":38.640,"track":75.2200,"speed":8.559,"climb":0.000,"eps":27.03}
{"class":"SKY","device":"/dev/ttyACM0","xdop":0.63,"ydop":0.90,"vdop":1.68,"tdop":0.82,"hdop":1.18,"gdop":1.84,"pdop":2.05,"satellites":[{"PRN":1,"el":0,"az":51,"ss":0,"used":false},{"PRN":2,"el":28,"az":243,"ss":29,"used":true},{"PRN":3,"el":25,"az":50,"ss":34,"used":true},{"PRN":6,"el":66,"az":258,"ss":39,"used":true},{"PRN":12,"el":8,"az":320,"ss":21,"used":false},{"PRN":17,"el":61,"az":38,"ss":38,"used":true},{"PRN":19,"el":63,"az":348,"ss":35,"used":true},{"PRN":22,"el":8,"az":39,"ss":8,"used":false},{"PRN":24,"el":17,"az":289,"ss":28,"used":true},{"PRN":28,"el":46,"az":148,"ss":33,"used":true},{"PRN":135,"el":20,"az":247,"ss":0,"used":false},{"PRN":138,"el":39,"az":223,"ss":29,"used":false}]}
{"class":"TPV","device":"/dev/ttyACM0","mode":3,"time":"2019-05-16T21:24:50.000Z","ept":0.005,"lat":35.936136833,"lon":-78.928792833,"alt":102.000,"epx":9.392,"epy":13.513,"epv":38.640,"track":77.1500,"speed":8.662,"climb":0.000,"eps":27.03}
{"class":"SKY","device":"/dev/ttyACM0","xdop":0.63,"ydop":0.90,"vdop":1.68,"tdop":0.82,"hdop":1.18,"gdop":1.84,"pdop":2.05,"satellites":[{"PRN":1,"el":0,"az":51,"ss":0,"used":false},{"PRN":2,"el":28,"az":243,"ss":29,"used":true},{"PRN":3,"el":25,"az":50,"ss":33,"used":true},{"PRN":6,"el":66,"az":258,"ss":40,"used":true},{"PRN":12,"el":8,"az":320,"ss":22,"used":false},{"PRN":17,"el":61,"az":38,"ss":39,"used":true},{"PRN":19,"el":63,"az":348,"ss":36,"used":true},{"PRN":22,"el":8,"az":39,"ss":9,"used":false},{"PRN":24,"el":17,"az":289,"ss":29,"used":true},{"PRN":28,"el":45,"az":148,"ss":39,"used":true},{"PRN":135,"el":20,"az":247,"ss":0,"used":false},{"PRN":138,"el":39,"az":223,"ss":33,"used":false}]}
{"class":"TPV","device":"/dev/ttyACM0","mode":3,"time":"2019-05-16T21:24:51.000Z","ept":0.005,"lat":35.936154833,"lon":-78.928709167,"alt":102.500,"epx":9.392,"epy":13.513,"epv":38.640,"track":77.9300,"speed":7.856,"climb":0.000,"eps":27.03}
{"class":"SKY","device":"/dev/ttyACM0","xdop":0.63,"ydop":0.90,"vdop":1.68,"tdop":0.82,"hdop":1.18,"gdop":1.84,"pdop":2.05,"satellites":[{"PRN":1,"el":0,"az":51,"ss":0,"used":false},{"PRN":2,"el":28,"az":243,"ss":30,"used":true},{"PRN":3,"el":25,"az":50,"ss":34,"used":true},{"PRN":6,"el":66,"az":258,"ss":40,"used":true},{"PRN":12,"el":8,"az":320,"ss":20,"used":false},{"PRN":17,"el":61,"az":38,"ss":39,"used":true},{"PRN":19,"el":63,"az":348,"ss":36,"used":true},{"PRN":22,"el":8,"az":39,"ss":11,"used":true},{"PRN":24,"el":17,"az":289,"ss":30,"used":true},{"PRN":28,"el":45,"az":148,"ss":39,"used":true},{"PRN":135,"el":20,"az":247,"ss":0,"used":false},{"PRN":138,"el":39,"az":223,"ss":36,"used":false}]}
{"class":"TPV","device":"/dev/ttyACM0","mode":3,"time":"2019-05-16T21:24:52.000Z","ept":0.005,"lat":35.936173500,"lon":-78.928626500,"alt":103.100,"epx":9.392,"epy":13.513,"epv":38.640,"track":76.8800,"speed":7.997,"climb":0.000,"eps":27.03}
{"class":"SKY","device":"/dev/ttyACM0","xdop":0.63,"ydop":0.90,"vdop":1.68,"tdop":0.82,"hdop":1.18,"gdop":1.84,"pdop":2.05,"satellites":[{"PRN":1,"el":0,"az":51,"ss":0,"used":false},{"PRN":2,"el":28,"az":243,"ss":31,"used":true},{"PRN":3,"el":25,"az":50,"ss":35,"used":true},{"PRN":6,"el":66,"az":258,"ss":41,"used":true},{"PRN":12,"el":8,"az":320,"ss":20,"used":false},{"PRN":17,"el":61,"az":38,"ss":39,"used":true},{"PRN":19,"el":63,"az":348,"ss":36,"used":true},{"PRN":22,"el":8,"az":39,"ss":13,"used":true},{"PRN":24,"el":17,"az":289,"ss":31,"used":true},{"PRN":28,"el":45,"az":148,"ss":42,"used":true},{"PRN":135,"el":20,"az":247,"ss":0,"used":false},{"PRN":138,"el":39,"az":223,"ss":36,"used":false}]}
{"class":"TPV","device":"/dev/ttyACM0","mode":3,"time":"2019-05-16T21:24:53.000Z","ept":0.005,"lat":35.936188500,"lon":-78.928539500,"alt":103.900,"epx":9.392,"epy":13.513,"epv":38.640,"track":75.0600,"speed":7.894,"climb":0.000,"eps":27.03}
{"class":"SKY","device":"/dev/ttyACM0","xdop":0.63,"ydop":0.90,"vdop":1.68,"tdop":0.82,"hdop":1.18,"gdop":1.84,"pdop":2.05,"satellites":[{"PRN":1,"el":0,"az":51,"ss":0,"used":false},{"PRN":2,"el":28,"az":243,"ss":31,"used":true},{"PRN":3,"el":25,"az":50,"ss":34,"used":true},{"PRN":6,"el":66,"az":258,"ss":41,"used":true},{"PRN":12,"el":8,"az":320,"ss":21,"used":false},{"PRN":17,"el":61,"az":38,"ss":40,"used":true},{"PRN":19,"el":63,"az":348,"ss":35,"used":true},{"PRN":22,"el":8,"az":39,"ss":13,"used":true},{"PRN":24,"el":17,"az":289,"ss":30,"used":true},{"PRN":28,"el":45,"az":148,"ss":38,"used":true},{"PRN":135,"el":20,"az":247,"ss":0,"used":false},{"PRN":138,"el":39,"az":223,"ss":35,"used":false}]}
{"class":"TPV","device":"/dev/ttyACM0","mode":3,"time":"2019-05-16T21:24:54.000Z","ept":0.005,"lat":35.936209000,"lon":-78.928460167,"alt":104.500,"epx":9.392,"epy":13.513,"epv":38.640,"track":72.2900,"speed":7.393,"climb":0.000,"eps":27.03}
{"class":"SKY","device":"/dev/ttyACM0","xdop":0.63,"ydop":0.90,"vdop":1.35,"tdop":0.82,"hdop":1.13,"gdop":1.84,"pdop":1.76,"satellites":[{"PRN":1,"el":0,"az":51,"ss":0,"used":false},{"PRN":2,"el":28,"az":243,"ss":34,"used":true},{"PRN":3,"el":25,"az":50,"ss":37,"used":true},{"PRN":6,"el":66,"az":258,"ss":43,"used":true},{"PRN":12,"el":8,"az":320,"ss":28,"used":false},{"PRN":17,"el":61,"az":38,"ss":41,"used":true},{"PRN":19,"el":63,"az":348,"ss":26,"used":true},{"PRN":22,"el":8,"az":39,"ss":15,"used":true},{"PRN":24,"el":17,"az":289,"ss":23,"used":true},{"PRN":28,"el":45,"az":148,"ss":40,"used":true},{"PRN":135,"el":20,"az":247,"ss":0,"used":false},{"PRN":138,"el":39,"az":223,"ss":36,"used":false}]}
{"class":"TPV","device":"/dev/ttyACM0","mode":3,"time":"2019-05-16T21:24:55.000Z","ept":0.005,"lat":35.936231667,"lon":-78.928387167,"alt":105.200,"epx":9.392,"epy":13.513,"epv":38.640,"track":68.4600,"speed":7.067,"climb":0.000,"eps":27.03}
{"class":"SKY","device":"/dev/ttyACM0","xdop":0.63,"ydop":0.90,"vdop":1.35,"tdop":0.82,"hdop":1.13,"gdop":1.84,"pdop":1.76,"satellites":[{"PRN":1,"el":0,"az":51,"ss":0,"used":false},{"PRN":2,"el":28,"az":243,"ss":29,"used":true},{"PRN":3,"el":25,"az":50,"ss":35,"used":true},{"PRN":6,"el":66,"az":258,"ss":40,"used":true},{"PRN":12,"el":8,"az":320,"ss":16,"used":false},{"PRN":17,"el":61,"az":38,"ss":39,"used":true},{"PRN":19,"el":63,"az":348,"ss":25,"used":true},{"PRN":22,"el":8,"az":39,"ss":14,"used":true},{"PRN":24,"el":17,"az":289,"ss":21,"used":true},{"PRN":28,"el":45,"az":148,"ss":39,"used":true},{"PRN":135,"el":20,"az":247,"ss":0,"used":false},{"PRN":138,"el":39,"az":223,"ss":37,"used":false}]}
{"class":"TPV","device":"/dev/ttyACM0","mode":3,"time":"2019-05-16T21:24:56.000Z","ept":0.005,"lat":35.936257833,"lon":-78.928316833,"alt":105.800,"epx":9.392,"epy":13.513,"epv":31.050,"track":65.2900,"speed":7.039,"climb":0.000,"eps":27.03}
{"class":"SKY","device":"/dev/ttyACM0","xdop":0.63,"ydop":0.90,"vdop":1.35,"tdop":0.82,"hdop":1.13,"gdop":1.84,"pdop":1.76,"satellites":[{"PRN":1,"el":0,"az":51,"ss":0,"used":false},{"PRN":2,"el":28,"az":243,"ss":28,"used":true},{"PRN":3,"el":25,"az":50,"ss":34,"used":true},{"PRN":6,"el":66,"az":258,"ss":40,"used":true},{"PRN":12,"el":8,"az":320,"ss":19,"used":false},{"PRN":17,"el":61,"az":38,"ss":37,"used":true},{"PRN":19,"el":63,"az":348,"ss":22,"used":true},{"PRN":22,"el":8,"az":39,"ss":13,"used":true},{"PRN":24,"el":17,"az":289,"ss":20,"used":true},{"PRN":28,"el":45,"az":148,"ss":39,"used":true},{"PRN":135,"el":20,"az":247,"ss":0,"used":false},{"PRN":138,"el":39,"az":223,"ss":36,"used":false}]}
{"class":"TPV","device":"/dev/ttyACM0","mode":3,"time":"2019-05-16T21:24:57.000Z","ept":0.005,"lat":35.936287333,"lon":-78.928246667,"alt":106.300,"epx":9.392,"epy":13.513,"epv":31.050,"track":62.6200,"speed":7.205,"climb":0.000,"eps":27.03}
{"class":"SKY","device":"/dev/ttyACM0","xdop":0.63,"ydop":0.90,"vdop":1.35,"tdop":0.82,"hdop":1.13,"gdop":1.84,"pdop":1.76,"satellites":[{"PRN":1,"el":0,"az":51,"ss":0,"used":false},{"PRN":2,"el":28,"az":243,"ss":27,"used":true},{"PRN":3,"el":25,"az":50,"ss":34,"used":true},{"PRN":6,"el":66,"az":258,"ss":40,"used":true},{"PRN":12,"el":8,"az":320,"ss":21,"used":false},{"PRN":17,"el":61,"az":38,"ss":37,"used":true},{"PRN":19,"el":63,"az":348,"ss":23,"used":true},{"PRN":22,"el":8,"az":39,"ss":13,"used":true},{"PRN":24,"el":17,"az":289,"ss":20,"used":true},{"PRN":28,"el":45,"az":148,"ss":36,"used":true},{"PRN":135,"el":20,"az":247,"ss":0,"used":false},{"PRN":138,"el":39,"az":223,"ss":36,"used":false}]}
{"class":"TPV","device":"/dev/ttyACM0","mode":3,"time":"2019-05-16T21:24:58.000Z","ept":0.005,"lat":35.936319667,"lon":-78.928175333,"alt":106.800,"epx":9.392,"epy":13.513,"epv":31.050,"track":60.6200,"speed":7.464,"climb":0.000,"eps":27.03}
{"class":"SKY","device":"/dev/ttyACM0","xdop":0.63,"ydop":0.90,"vdop":1.35,"tdop":0.82,"hdop":1.13,"gdop":1.84,"pdop":1.76,"satellites":[{"PRN":1,"el":0,"az":51,"ss":0,"used":false},{"PRN":2,"el":28,"az":243,"ss":25,"used":true},{"PRN":3,"el":25,"az":50,"ss":35,"used":true},{"PRN":6,"el":66,"az":258,"ss":40,"used":true},{"PRN":12,"el":8,"az":320,"ss":24,"used":false},{"PRN":17,"el":61,"az":38,"ss":35,"used":true},{"PRN":19,"el":63,"az":348,"ss":27,"used":true},{"PRN":22,"el":8,"az":39,"ss":14,"used":true},{"PRN":24,"el":17,"az":289,"ss":22,"used":true},{"PRN":28,"el":45,"az":148,"ss":36,"used":true},{"PRN":135,"el":20,"az":247,"ss":0,"used":false},{"PRN":138,"el":39,"az":223,"ss":37,"used":false}]}
{"class":"TPV","device":"/dev/ttyACM0","mode":3,"time":"2019-05-16T21:24:59.000Z","ept":0.005,"lat":35.936354167,"lon":-78.928103000,"alt":107.300,"epx":9.392,"epy":13.513,"epv":31.050,"track":59.6800,"speed":7.618,"climb":0.000,"eps":27.03}
{"class":"SKY","device":"/dev/ttyACM0","xdop":0.63,"ydop":0.90,"vdop":1.35,"tdop":0.82,"hdop":1.13,"gdop":1.84,"pdop":1.76,"satellites":[{"PRN":1,"el":0,"az":51,"ss":0,"used":false},{"PRN":2,"el":28,"az":243,"ss":23,"used":true},{"PRN":3,"el":25,"az":50,"ss":35,"used":true},{"PRN":6,"el":66,"az":258,"ss":41,"used":true},{"PRN":12,"el":8,"az":320,"ss":24,"used":false},{"PRN":17,"el":61,"az":38,"ss":38,"used":true},{"PRN":19,"el":63,"az":348,"ss":27,"used":true},{"PRN":22,"el":8,"az":39,"ss":13,"used":true},{"PRN":24,"el":17,"az":289,"ss":24,"used":true},{"PRN":28,"el":45,"az":148,"ss":30,"used":true},{"PRN":135,"el":20,"az":247,"ss":0,"used":false},{"PRN":138,"el":39,"az":223,"ss":39,"used":false}]}
{"class":"TPV","device":"/dev/ttyACM0","mode":3,"time":"2019-05-16T21:25:00.000Z","ept":0.005,"lat":35.936387833,"lon":-78.928032000,"alt":107.600,"epx":9.392,"epy":13.513,"epv":31.050,"track":59.7000,"speed":7.366,"climb":0.000,"eps":27.03}
{"class":"SKY","device":"/dev/ttyACM0","xdop":0.63,"ydop":0.90,"vdop":1.35,"tdop":0.82,"hdop":1.13,"gdop":1.84,"pdop":1.76,"satellites":[{"PRN":1,"el":0,"az":51,"ss":0,"used":false},{"PRN":2,"el":28,"az":243,"ss":24,"used":true},{"PRN":3,"el":25,"az":50,"ss":34,"used":true},{"PRN":6,"el":66,"az":258,"ss":41,"used":true},{"PRN":12,"el":8,"az":320,"ss":21,"used":false},{"PRN":17,"el":61,"az":38,"ss":37,"used":true},{"PRN":19,"el":63,"az":348,"ss":28,"used":true},{"PRN":22,"el":8,"az":39,"ss":14,"used":true},{"PRN":24,"el":17,"az":289,"ss":25,"used":true},{"PRN":28,"el":45,"az":148,"ss":36,"used":true},{"PRN":135,"el":20,"az":247,"ss":0,"used":false},{"PRN":138,"el":39,"az":223,"ss":40,"used":false}]}
{"class":"TPV","device":"/dev/ttyACM0","mode":3,"time":"2019-05-16T21:25:01.000Z","ept":0.005,"lat":35.936421000,"lon":-78.927967500,"alt":108.100,"epx":9.392,"epy":13.513,"epv":31.050,"track":57.6100,"speed":6.659,"climb":0.000,"eps":27.03}
{"class":"SKY","device":"/dev/ttyACM0","xdop":0.63,"ydop":0.90,"vdop":1.35,"tdop":0.82,"hdop":1.13,"gdop":1.84,"pdop":1.76,"satellites":[{"PRN":1,"el":0,"az":51,"ss":0,"used":false},{"PRN":2,"el":28,"az":243,"ss":31,"used":true},{"PRN":3,"el":25,"az":50,"ss":33,"used":true},{"PRN":6,"el":66,"az":258,"ss":42,"used":true},{"PRN":12,"el":8,"az":320,"ss":21,"used":false},{"PRN":17,"el":61,"az":38,"ss":37,"used":true},{"PRN":19,"el":63,"az":348,"ss":34,"used":true},{"PRN":22,"el":8,"az":39,"ss":29,"used":true},{"PRN":24,"el":17,"az":289,"ss":24,"used":true},{"PRN":28,"el":45,"az":148,"ss":37,"used":true},{"PRN":135,"el":20,"az":247,"ss":0,"used":false},{"PRN":138,"el":39,"az":223,"ss":36,"used":false}]}
{"class":"TPV","device":"/dev/ttyACM0","mode":3,"time":"2019-05-16T21:25:02.000Z","ept":0.005,"lat":35.936456833,"lon":-78.927914500,"alt":108.600,"epx":9.392,"epy":13.513,"epv":31.050,"track":49.6500,"speed":6.153,"climb":0.000,"eps":27.03}
{"class":"SKY","device":"/dev/ttyACM0","xdop":0.63,"ydop":0.90,"vdop":1.35,"tdop":0.82,"hdop":1.13,"gdop":1.84,"pdop":1.76,"satellites":[{"PRN":1,"el":0,"az":51,"ss":0,"used":false},{"PRN":2,"el":28,"az":243,"ss":33,"used":true},{"PRN":3,"el":25,"az":50,"ss":32,"used":true},{"PRN":6,"el":66,"az":258,"ss":43,"used":true},{"PRN":12,"el":8,"az":320,"ss":20,"used":false},{"PRN":17,"el":61,"az":38,"ss":32,"used":true},{"PRN":19,"el":63,"az":348,"ss":37,"used":true},{"PRN":22,"el":8,"az":39,"ss":28,"used":true},{"PRN":24,"el":17,"az":289,"ss":23,"used":true},{"PRN":28,"el":45,"az":148,"ss":37,"used":true},{"PRN":135,"el":20,"az":247,"ss":0,"used":false},{"PRN":138,"el":39,"az":223,"ss":27,"used":false}]}
{"class":"TPV","device":"/dev/ttyACM0","mode":3,"time":"2019-05-16T21:25:03.000Z","ept":0.005,"lat":35.936500667,"lon":-78.927878500,"alt":109.100,"epx":9.392,"epy":13.513,"epv":31.050,"track":30.2900,"speed":5.929,"climb":0.000,"eps":27.03}
{"class":"SKY","device":"/dev/ttyACM0","xdop":0.63,"ydop":0.90,"vdop":1.35,"tdop":0.82,"hdop":1.13,"gdop":1.84,"pdop":1.76,"satellites":[{"PRN":1,"el":0,"az":51,"ss":0,"used":false},{"PRN":2,"el":28,"az":243,"ss":34,"used":true},{"PRN":3,"el":25,"az":50,"ss":33,"used":true},{"PRN":6,"el":66,"az":258,"ss":37,"used":true},{"PRN":12,"el":8,"az":320,"ss":34,"used":false},{"PRN":17,"el":61,"az":38,"ss":27,"used":true},{"PRN":19,"el":63,"az":348,"ss":32,"used":true},{"PRN":22,"el":8,"az":39,"ss":23,"used":true},{"PRN":24,"el":17,"az":289,"ss":22,"used":true},{"PRN":28,"el":45,"az":148,"ss":37,"used":true},{"PRN":135,"el":20,"az":247,"ss":0,"used":false},{"PRN":138,"el":39,"az":223,"ss":27,"used":false}]}
{"class":"TPV","device":"/dev/ttyACM0","mode":3,"time":"2019-05-16T21:25:04.000Z","ept":0.005,"lat":35.936556500,"lon":-78.927872500,"alt":109.500,"epx":9.392,"epy":13.513,"epv":31.050,"track":2.0400,"speed":6.479,"climb":0.000,"eps":27.03}
{"class":"SKY","device":"/dev/ttyACM0","xdop":0.63,"ydop":0.90,"vdop":1.35,"tdop":0.82,"hdop":1.13,"gdop":1.84,"pdop":1.76,"satellites":[{"PRN":1,"el":0,"az":51,"ss":0,"used":false},{"PRN":2,"el":28,"az":243,"ss":31,"used":true},{"PRN":3,"el":25,"az":50,"ss":32,"used":true},{"PRN":6,"el":66,"az":258,"ss":43,"used":true},{"PRN":12,"el":8,"az":320,"ss":29,"used":false},{"PRN":17,"el":61,"az":38,"ss":46,"used":true},{"PRN":19,"el":63,"az":348,"ss":34,"used":true},{"PRN":22,"el":8,"az":39,"ss":23,"used":true},{"PRN":24,"el":17,"az":289,"ss":30,"used":true},{"PRN":28,"el":45,"az":148,"ss":37,"used":true},{"PRN":135,"el":20,"az":247,"ss":0,"used":false},{"PRN":138,"el":39,"az":223,"ss":30,"used":false}]}
{"class":"TPV","device":"/dev/ttyACM0","mode":3,"time":"2019-05-16T21:25:05.000Z","ept":0.005,"lat":35.936611833,"lon":-78.927898000,"alt":109.500,"epx":9.392,"epy":13.513,"epv":31.050,"track":336.2700,"speed":6.931,"climb":0.000,"eps":27.03}
{"class":"SKY","device":"/dev/ttyACM0","xdop":0.63,"ydop":0.90,"vdop":1.35,"tdop":0.82,"hdop":1.13,"gdop":1.84,"pdop":1.76,"satellites":[{"PRN":1,"el":0,"az":51,"ss":0,"used":false},{"PRN":2,"el":28,"az":243,"ss":29,"used":true},{"PRN":3,"el":25,"az":50,"ss":35,"used":true},{"PRN":6,"el":66,"az":258,"ss":42,"used":true},{"PRN":12,"el":8,"az":320,"ss":36,"used":false},{"PRN":17,"el":61,"az":38,"ss":41,"used":true},{"PRN":19,"el":63,"az":348,"ss":34,"used":true},{"PRN":22,"el":8,"az":39,"ss":22,"used":true},{"PRN":24,"el":17,"az":289,"ss":37,"used":true},{"PRN":28,"el":45,"az":148,"ss":39,"used":true},{"PRN":135,"el":20,"az":247,"ss":0,"used":false},{"PRN":138,"el":39,"az":223,"ss":29,"used":false}]}
{"class":"TPV","device":"/dev/ttyACM0","mode":3,"time":"2019-05-16T21:25:06.000Z","ept":0.005,"lat":35.936670000,"lon":-78.927941500,"alt":109.400,"epx":9.392,"epy":13.513,"epv":31.050,"track":324.9600,"speed":7.758,"climb":0.000,"eps":27.03}
{"class":"SKY","device":"/dev/ttyACM0","xdop":0.63,"ydop":0.90,"vdop":1.35,"tdop":0.82,"hdop":1.13,"gdop":1.84,"pdop":1.76,"satellites":[{"PRN":1,"el":0,"az":51,"ss":0,"used":false},{"PRN":2,"el":28,"az":243,"ss":30,"used":true},{"PRN":3,"el":25,"az":50,"ss":24,"used":true},{"PRN":6,"el":66,"az":258,"ss":42,"used":true},{"PRN":12,"el":8,"az":320,"ss":33,"used":false},{"PRN":17,"el":61,"az":38,"ss":28,"used":true},{"PRN":19,"el":63,"az":348,"ss":36,"used":true},{"PRN":22,"el":8,"az":39,"ss":21,"used":true},{"PRN":24,"el":17,"az":289,"ss":33,"used":true},{"PRN":28,"el":45,"az":148,"ss":37,"used":true},{"PRN":135,"el":20,"az":247,"ss":0,"used":false},{"PRN":138,"el":39,"az":223,"ss":36,"used":false}]}
{"class":"TPV","device":"/dev/ttyACM0","mode":3,"time":"2019-05-16T21:25:07.000Z","ept":0.005,"lat":35.936727167,"lon":-78.927996333,"alt":109.100,"epx":9.392,"epy":13.513,"epv":31.050,"track":321.1100,"speed":8.250,"climb":0.000,"eps":27.03}
{"class":"SKY","device":"/dev/ttyACM0","xdop":0.63,"ydop":0.90,"vdop":1.35,"tdop":0.82,"hdop":1.13,"gdop":1.84,"pdop":1.76,"satellites":[{"PRN":1,"el":0,"az":51,"ss":0,"used":false},{"PRN":2,"el":28,"az":243,"ss":29,"used":true},{"PRN":3,"el":25,"az":50,"ss":38,"used":true},{"PRN":6,"el":66,"az":258,"ss":43,"used":true},{"PRN":12,"el":8,"az":320,"ss":36,"used":false},{"PRN":17,"el":61,"az":38,"ss":18,"used":true},{"PRN":19,"el":63,"az":348,"ss":38,"used":true},{"PRN":22,"el":8,"az":39,"ss":29,"used":true},{"PRN":24,"el":17,"az":289,"ss":30,"used":true},{"PRN":28,"el":45,"az":148,"ss":36,"used":true},{"PRN":135,"el":20,"az":247,"ss":0,"used":false},{"PRN":138,"el":39,"az":223,"ss":36,"used":false}]}
{"class":"TPV","device":"/dev/ttyACM0","mode":3,"time":"2019-05-16T21:25:08.000Z","ept":0.005,"lat":35.936784833,"lon":-78.928053833,"alt":108.500,"epx":9.392,"epy":13.513,"epv":31.050,"track":321.3700,"speed":8.392,"climb":0.000,"eps":27.03}
{"class":"SKY","device":"/dev/ttyACM0","xdop":0.63,"ydop":0.90,"vdop":1.35,"tdop":0.82,"hdop":1.13,"gdop":1.84,"pdop":1.76,"satellites":[{"PRN":1,"el":0,"az":51,"ss":0,"used":false},{"PRN":2,"el":28,"az":243,"ss":29,"used":true},{"PRN":3,"el":25,"az":50,"ss":31,"used":true},{"PRN":6,"el":66,"az":258,"ss":42,"used":true},{"PRN":12,"el":8,"az":320,"ss":35,"used":false},{"PRN":17,"el":61,"az":38,"ss":20,"used":true},{"PRN":19,"el":63,"az":348,"ss":36,"used":true},{"PRN":22,"el":8,"az":39,"ss":18,"used":true},{"PRN":24,"el":17,"az":289,"ss":31,"used":true},{"PRN":28,"el":45,"az":148,"ss":37,"used":true},{"PRN":135,"el":20,"az":247,"ss":0,"used":false},{"PRN":138,"el":39,"az":223,"ss":36,"used":false}]}
{"class":"TPV","device":"/dev/ttyACM0","mode":3,"time":"2019-05-16T21:25:09.000Z","ept":0.005,"lat":35.936841333,"lon":-78.928108167,"alt":108.100,"epx":9.392,"epy":13.513,"epv":31.050,"track":322.3300,"speed":7.998,"climb":0.000,"eps":27.03}
{"class":"SKY","device":"/dev/ttyACM0","xdop":0.63,"ydop":0.90,"vdop":1.35,"tdop":0.82,"hdop":1.13,"gdop":1.84,"pdop":1.76,"satellites":[{"PRN":1,"el":0,"az":51,"ss":0,"used":false},{"PRN":2,"el":28,"az":244,"ss":29,"used":true},{"PRN":3,"el":25,"az":50,"ss":35,"used":true},{"PRN":6,"el":66,"az":258,"ss":42,"used":true},{"PRN":12,"el":8,"az":320,"ss":32,"used":false},{"PRN":17,"el":61,"az":38,"ss":30,"used":true},{"PRN":19,"el":63,"az":348,"ss":35,"used":true},{"PRN":22,"el":8,"az":39,"ss":15,"used":true},{"PRN":24,"el":17,"az":289,"ss":36,"used":true},{"PRN":28,"el":45,"az":148,"ss":37,"used":true},{"PRN":135,"el":20,"az":247,"ss":0,"used":false},{"PRN":138,"el":39,"az":223,"ss":35,"used":false}]}
{"class":"TPV","device":"/dev/ttyACM0","mode":3,"time":"2019-05-16T21:25:10.000Z","ept":0.005,"lat":35.936895167,"lon":-78.928159000,"alt":107.800,"epx":9.392,"epy":13.513,"epv":31.050,"track":322.7300,"speed":7.532,"climb":0.000,"eps":27.03}
