{"class":"VERSION","release":"3.16","rev":"3.16-4","proto_major":3,"proto_minor":11}
{"class":"DEVICES","devices":[{"class":"DEVICE","path":"/dev/ttyACM0","activated":"2019-05-22T11:07:07.681Z","native":0,"bps":9600,"parity":"N","stopbits":1,"cycle":1.00}]}
{"class":"WATCH","enable":true,"json":true,"nmea":false,"raw":0,"scaled":false,"timing":false,"split24":false,"pps":false}
{"class":"DEVICE","path":"/dev/ttyACM0","driver":"NMEA0183","activated":"2019-05-22T11:07:07.943Z","native":0,"bps":9600,"parity":"N","stopbits":1,"cycle":1.00}
{"class":"DEVICE","path":"/dev/ttyACM0","driver":"u-blox","activated":"2019-05-22T11:07:07.947Z","flags":1,"native":1,"bps":9600,"parity":"N","stopbits":1,"cycle":1.00,"mincycle":0.25}
{"class":"TPV","device":"/dev/ttyACM0","mode":3,"time":"2019-05-22T11:07:09.000Z","ept":0.005,"lat":35.937280240,"lon":-78.930024784,"alt":104.022,"track":239.3017,"speed":0.007,"climb":-0.029,"eps":0.25}
{"class":"SKY","device":"/dev/ttyACM0","xdop":0.55,"ydop":0.90,"vdop":1.75,"tdop":1.17,"hdop":1.06,"gdop":2.36,"pdop":2.05,"satellites":[{"PRN":3,"el":42,"az":288,"ss":40,"used":true},{"PRN":14,"el":53,"az":104,"ss":43,"used":true},{"PRN":16,"el":41,"az":198,"ss":42,"used":true},{"PRN":22,"el":45,"az":258,"ss":37,"used":true},{"PRN":23,"el":17,"az":310,"ss":30,"used":true},{"PRN":25,"el":8,"az":40,"ss":20,"used":false},{"PRN":26,"el":73,"az":177,"ss":44,"used":true},{"PRN":29,"el":16,"az":64,"ss":27,"used":true},{"PRN":31,"el":55,"az":37,"ss":45,"used":true},{"PRN":32,"el":35,"az":118,"ss":41,"used":true},{"PRN":135,"el":20,"az":247,"ss":38,"used":true},{"PRN":138,"el":39,"az":223,"ss":44,"used":true}]}
{"class":"SKY","device":"/dev/ttyACM0","xdop":0.55,"ydop":0.90,"vdop":1.50,"tdop":0.96,"hdop":0.91,"gdop":2.00,"pdop":1.76,"satellites":[{"PRN":3,"el":42,"az":288,"ss":40,"used":true},{"PRN":14,"el":53,"az":104,"ss":43,"used":true},{"PRN":16,"el":41,"az":198,"ss":42,"used":true},{"PRN":22,"el":45,"az":258,"ss":37,"used":true},{"PRN":23,"el":17,"az":310,"ss":30,"used":true},{"PRN":25,"el":8,"az":40,"ss":20,"used":false},{"PRN":26,"el":73,"az":177,"ss":44,"used":true},{"PRN":29,"el":16,"az":64,"ss":27,"used":true},{"PRN":31,"el":55,"az":37,"ss":45,"used":true},{"PRN":32,"el":35,"az":118,"ss":41,"used":true},{"PRN":131,"el":32,"az":233,"ss":0,"used":false},{"PRN":135,"el":20,"az":247,"ss":38,"used":true},{"PRN":138,"el":39,"az":223,"ss":44,"used":true}]}
{"class":"TPV","device":"/dev/ttyACM0","mode":3,"time":"2019-05-22T11:07:09.000Z","ept":0.005,"lat":35.937280152,"lon":-78.930024966,"alt":103.797,"epx":2.077,"epy":3.374,"epv":8.625,"track":140.5912,"speed":0.006,"climb":-0.028,"eps":0.24,"epc":17.25}
{"class":"SKY","device":"/dev/ttyACM0","xdop":0.55,"ydop":0.90,"vdop":1.50,"tdop":0.96,"hdop":0.91,"gdop":2.00,"pdop":1.76,"satellites":[{"PRN":3,"el":42,"az":288,"ss":42,"used":true},{"PRN":14,"el":53,"az":104,"ss":46,"used":true},{"PRN":16,"el":41,"az":198,"ss":44,"used":true},{"PRN":22,"el":45,"az":258,"ss":38,"used":true},{"PRN":23,"el":17,"az":310,"ss":31,"used":true},{"PRN":25,"el":8,"az":40,"ss":18,"used":true},{"PRN":26,"el":73,"az":177,"ss":46,"used":true},{"PRN":29,"el":16,"az":64,"ss":28,"used":true},{"PRN":31,"el":55,"az":38,"ss":47,"used":true},{"PRN":32,"el":35,"az":118,"ss":44,"used":true},{"PRN":131,"el":32,"az":233,"ss":0,"used":false},{"PRN":135,"el":20,"az":247,"ss":40,"used":true},{"PRN":138,"el":39,"az":223,"ss":46,"used":true}]}
{"class":"TPV","device":"/dev/ttyACM0","mode":3,"time":"2019-05-22T11:07:09.000Z","ept":0.005,"lat":35.937280167,"lon":-78.930025000,"alt":104.400,"epx":2.077,"epy":3.374,"epv":8.625,"track":0.0000,"speed":0.005,"climb":0.000}
{"class":"TPV","device":"/dev/ttyACM0","mode":3,"time":"2019-05-22T11:07:10.000Z","ept":0.005,"lat":35.937280149,"lon":-78.930025555,"alt":103.747,"epx":2.077,"epy":3.374,"epv":8.625,"track":334.7155,"speed":0.028,"climb":-0.035,"eps":0.22,"epc":17.25}
{"class":"SKY","device":"/dev/ttyACM0","xdop":0.55,"ydop":0.90,"vdop":1.50,"tdop":0.96,"hdop":0.91,"gdop":2.00,"pdop":1.76,"satellites":[{"PRN":3,"el":42,"az":288,"ss":43,"used":true},{"PRN":14,"el":53,"az":104,"ss":46,"used":true},{"PRN":16,"el":41,"az":198,"ss":45,"used":true},{"PRN":22,"el":45,"az":258,"ss":38,"used":true},{"PRN":23,"el":17,"az":310,"ss":32,"used":true},{"PRN":25,"el":8,"az":40,"ss":17,"used":true},{"PRN":26,"el":73,"az":177,"ss":46,"used":true},{"PRN":29,"el":16,"az":64,"ss":30,"used":true},{"PRN":31,"el":55,"az":38,"ss":48,"used":true},{"PRN":32,"el":35,"az":118,"ss":44,"used":true},{"PRN":131,"el":32,"az":233,"ss":0,"used":false},{"PRN":135,"el":20,"az":247,"ss":41,"used":true},{"PRN":138,"el":39,"az":223,"ss":47,"used":true}]}
{"class":"TPV","device":"/dev/ttyACM0","mode":3,"time":"2019-05-22T11:07:10.000Z","ept":0.005,"lat":35.937280167,"lon":-78.930025500,"alt":104.300,"epx":2.077,"epy":3.374,"epv":8.625,"track":0.0000,"speed":0.022,"climb":0.000}
{"class":"TPV","device":"/dev/ttyACM0","mode":3,"time":"2019-05-22T11:07:11.000Z","ept":0.005,"lat":35.937280345,"lon":-78.930025950,"alt":103.666,"epx":2.077,"epy":3.374,"epv":8.625,"track":48.2873,"speed":0.010,"climb":-0.044,"eps":0.25,"epc":17.25}
{"class":"SKY","device":"/dev/ttyACM0","xdop":0.55,"ydop":0.90,"vdop":1.51,"tdop":0.96,"hdop":0.91,"gdop":2.00,"pdop":1.76,"satellites":[{"PRN":3,"el":42,"az":288,"ss":43,"used":true},{"PRN":14,"el":53,"az":104,"ss":46,"used":true},{"PRN":16,"el":41,"az":198,"ss":45,"used":true},{"PRN":22,"el":45,"az":258,"ss":39,"used":true},{"PRN":23,"el":17,"az":310,"ss":32,"used":true},{"PRN":25,"el":8,"az":40,"ss":0,"used":false},{"PRN":26,"el":73,"az":177,"ss":46,"used":true},{"PRN":29,"el":16,"az":64,"ss":30,"used":true},{"PRN":31,"el":55,"az":38,"ss":48,"used":true},{"PRN":32,"el":35,"az":118,"ss":44,"used":true},{"PRN":131,"el":32,"az":233,"ss":0,"used":false},{"PRN":135,"el":20,"az":247,"ss":41,"used":true},{"PRN":138,"el":39,"az":223,"ss":47,"used":true}]}
{"class":"TPV","device":"/dev/ttyACM0","mode":3,"time":"2019-05-22T11:07:11.000Z","ept":0.005,"lat":35.937280333,"lon":-78.930026000,"alt":104.200,"epx":2.077,"epy":3.374,"epv":8.682,"track":0.0000,"speed":0.010,"climb":0.000}
{"class":"TPV","device":"/dev/ttyACM0","mode":3,"time":"2019-05-22T11:07:12.000Z","ept":0.005,"lat":35.937280509,"lon":-78.930026214,"alt":103.572,"epx":2.077,"epy":3.374,"epv":8.682,"track":359.1091,"speed":0.014,"climb":-0.053,"eps":0.24,"epc":17.36}
{"class":"SKY","device":"/dev/ttyACM0","xdop":0.55,"ydop":0.90,"vdop":1.51,"tdop":0.96,"hdop":0.91,"gdop":2.00,"pdop":1.76,"satellites":[{"PRN":3,"el":42,"az":288,"ss":43,"used":true},{"PRN":14,"el":53,"az":104,"ss":46,"used":true},{"PRN":16,"el":41,"az":198,"ss":45,"used":true},{"PRN":22,"el":45,"az":258,"ss":39,"used":true},{"PRN":23,"el":17,"az":310,"ss":32,"used":true},{"PRN":25,"el":8,"az":40,"ss":0,"used":false},{"PRN":26,"el":73,"az":177,"ss":46,"used":true},{"PRN":29,"el":16,"az":64,"ss":30,"used":true},{"PRN":31,"el":55,"az":38,"ss":48,"used":true},{"PRN":32,"el":35,"az":118,"ss":45,"used":true},{"PRN":131,"el":32,"az":233,"ss":0,"used":false},{"PRN":135,"el":20,"az":247,"ss":41,"used":true},{"PRN":138,"el":39,"az":223,"ss":47,"used":true}]}
{"class":"TPV","device":"/dev/ttyACM0","mode":3,"time":"2019-05-22T11:07:12.000Z","ept":0.005,"lat":35.937280500,"lon":-78.930026333,"alt":104.100,"epx":2.077,"epy":3.374,"epv":8.682,"track":0.0000,"speed":0.014,"climb":0.000}
{"class":"TPV","device":"/dev/ttyACM0","mode":3,"time":"2019-05-22T11:07:13.000Z","ept":0.005,"lat":35.937280642,"lon":-78.930026153,"alt":103.484,"epx":2.077,"epy":3.374,"epv":8.682,"track":140.5912,"speed":0.006,"climb":-0.028,"eps":0.25,"epc":17.36}
{"class":"SKY","device":"/dev/ttyACM0","xdop":0.55,"ydop":0.90,"vdop":1.51,"tdop":0.96,"hdop":0.91,"gdop":2.00,"pdop":1.76,"satellites":[{"PRN":3,"el":42,"az":288,"ss":42,"used":true},{"PRN":14,"el":53,"az":104,"ss":44,"used":true},{"PRN":16,"el":41,"az":198,"ss":43,"used":true},{"PRN":22,"el":45,"az":258,"ss":37,"used":true},{"PRN":23,"el":17,"az":310,"ss":31,"used":true},{"PRN":25,"el":8,"az":40,"ss":0,"used":false},{"PRN":26,"el":73,"az":177,"ss":45,"used":true},{"PRN":29,"el":16,"az":64,"ss":29,"used":true},{"PRN":31,"el":55,"az":38,"ss":46,"used":true},{"PRN":32,"el":35,"az":118,"ss":43,"used":true},{"PRN":131,"el":32,"az":233,"ss":0,"used":false},{"PRN":135,"el":20,"az":247,"ss":39,"used":true},{"PRN":138,"el":39,"az":223,"ss":45,"used":true}]}
{"class":"TPV","device":"/dev/ttyACM0","mode":3,"time":"2019-05-22T11:07:13.000Z","ept":0.005,"lat":35.937280667,"lon":-78.930026167,"alt":104.100,"epx":2.077,"epy":3.374,"epv":8.682,"track":0.0000,"speed":0.006,"climb":0.000}
{"class":"TPV","device":"/dev/ttyACM0","mode":3,"time":"2019-05-22T11:07:14.000Z","ept":0.005,"lat":35.937280600,"lon":-78.930026283,"alt":103.490,"epx":2.077,"epy":3.374,"epv":8.682,"track":180.0000,"speed":0.008,"climb":-0.006,"eps":0.17,"epc":17.36}
{"class":"SKY","device":"/dev/ttyACM0","xdop":0.55,"ydop":0.90,"vdop":1.51,"tdop":0.96,"hdop":0.91,"gdop":2.00,"pdop":1.76,"satellites":[{"PRN":3,"el":42,"az":288,"ss":42,"used":true},{"PRN":14,"el":53,"az":104,"ss":45,"used":true},{"PRN":16,"el":41,"az":198,"ss":44,"used":true},{"PRN":22,"el":45,"az":258,"ss":37,"used":true},{"PRN":23,"el":17,"az":310,"ss":30,"used":true},{"PRN":25,"el":8,"az":40,"ss":0,"used":false},{"PRN":26,"el":73,"az":177,"ss":45,"used":true},{"PRN":29,"el":16,"az":64,"ss":30,"used":true},{"PRN":31,"el":55,"az":38,"ss":47,"used":true},{"PRN":32,"el":35,"az":118,"ss":44,"used":true},{"PRN":131,"el":32,"az":233,"ss":0,"used":false},{"PRN":135,"el":20,"az":247,"ss":40,"used":true},{"PRN":138,"el":39,"az":223,"ss":46,"used":true}]}
{"class":"TPV","device":"/dev/ttyACM0","mode":3,"time":"2019-05-22T11:07:14.000Z","ept":0.005,"lat":35.937280500,"lon":-78.930026333,"alt":104.100,"epx":2.077,"epy":3.374,"epv":8.682,"track":0.0000,"speed":0.014,"climb":0.000}
{"class":"TPV","device":"/dev/ttyACM0","mode":3,"time":"2019-05-22T11:07:15.000Z","ept":0.005,"lat":35.937280009,"lon":-78.930025758,"alt":103.530,"epx":2.077,"epy":3.374,"epv":8.682,"track":140.5912,"speed":0.006,"climb":-0.028,"eps":0.26,"epc":17.36}
{"class":"SKY","device":"/dev/ttyACM0","xdop":0.55,"ydop":0.90,"vdop":1.51,"tdop":0.96,"hdop":0.91,"gdop":2.00,"pdop":1.76,"satellites":[{"PRN":3,"el":42,"az":288,"ss":42,"used":true},{"PRN":14,"el":53,"az":104,"ss":45,"used":true},{"PRN":16,"el":41,"az":198,"ss":44,"used":true},{"PRN":22,"el":45,"az":258,"ss":37,"used":true},{"PRN":23,"el":17,"az":310,"ss":30,"used":true},{"PRN":25,"el":8,"az":40,"ss":0,"used":false},{"PRN":26,"el":73,"az":177,"ss":45,"used":true},{"PRN":29,"el":16,"az":64,"ss":30,"used":true},{"PRN":31,"el":55,"az":38,"ss":47,"used":true},{"PRN":32,"el":35,"az":118,"ss":44,"used":true},{"PRN":131,"el":32,"az":233,"ss":0,"used":false},{"PRN":135,"el":20,"az":247,"ss":40,"used":true},{"PRN":138,"el":39,"az":223,"ss":46,"used":true}]}
{"class":"TPV","device":"/dev/ttyACM0","mode":3,"time":"2019-05-22T11:07:15.000Z","ept":0.005,"lat":35.937280000,"lon":-78.930025833,"alt":104.100,"epx":2.077,"epy":3.374,"epv":8.682,"track":0.0000,"speed":0.002,"climb":0.000}
{"class":"TPV","device":"/dev/ttyACM0","mode":3,"time":"2019-05-22T11:07:16.000Z","ept":0.005,"lat":35.937280173,"lon":-78.930025309,"alt":103.351,"epx":2.077,"epy":3.374,"epv":8.682,"track":140.5912,"speed":0.006,"climb":-0.028,"eps":0.24,"epc":17.36}
{"class":"SKY","device":"/dev/ttyACM0","xdop":0.55,"ydop":0.90,"vdop":1.51,"tdop":0.96,"hdop":0.91,"gdop":2.00,"pdop":1.76,"satellites":[{"PRN":3,"el":42,"az":288,"ss":43,"used":true},{"PRN":14,"el":53,"az":104,"ss":45,"used":true},{"PRN":16,"el":41,"az":198,"ss":45,"used":true},{"PRN":22,"el":45,"az":258,"ss":38,"used":true},{"PRN":23,"el":17,"az":310,"ss":29,"used":true},{"PRN":25,"el":8,"az":40,"ss":0,"used":false},{"PRN":26,"el":73,"az":177,"ss":46,"used":true},{"PRN":29,"el":16,"az":64,"ss":31,"used":true},{"PRN":31,"el":55,"az":38,"ss":48,"used":true},{"PRN":32,"el":35,"az":118,"ss":45,"used":true},{"PRN":131,"el":32,"az":233,"ss":0,"used":false},{"PRN":135,"el":20,"az":247,"ss":40,"used":true},{"PRN":138,"el":39,"az":223,"ss":46,"used":true}]}
{"class":"TPV","device":"/dev/ttyACM0","mode":3,"time":"2019-05-22T11:07:16.000Z","ept":0.005,"lat":35.937280167,"lon":-78.930025333,"alt":103.900,"epx":2.077,"epy":3.374,"epv":8.682,"track":0.0000,"speed":0.004,"climb":0.000}
{"class":"TPV","device":"/dev/ttyACM0","mode":3,"time":"2019-05-22T11:07:17.000Z","ept":0.005,"lat":35.937280598,"lon":-78.930024706,"alt":103.235,"epx":2.077,"epy":3.374,"epv":8.682,"track":327.0804,"speed":0.015,"climb":-0.068,"eps":0.25,"epc":17.36}
{"class":"SKY","device":"/dev/ttyACM0","xdop":0.55,"ydop":0.90,"vdop":1.51,"tdop":0.96,"hdop":0.91,"gdop":2.00,"pdop":1.76,"satellites":[{"PRN":3,"el":42,"az":288,"ss":43,"used":true},{"PRN":14,"el":53,"az":104,"ss":45,"used":true},{"PRN":16,"el":41,"az":198,"ss":45,"used":true},{"PRN":22,"el":45,"az":258,"ss":38,"used":true},{"PRN":23,"el":17,"az":310,"ss":29,"used":true},{"PRN":25,"el":8,"az":40,"ss":0,"used":false},{"PRN":26,"el":73,"az":177,"ss":46,"used":true},{"PRN":29,"el":16,"az":64,"ss":31,"used":true},{"PRN":31,"el":55,"az":38,"ss":48,"used":true},{"PRN":32,"el":35,"az":118,"ss":45,"used":true},{"PRN":131,"el":32,"az":233,"ss":0,"used":false},{"PRN":135,"el":20,"az":247,"ss":40,"used":true},{"PRN":138,"el":39,"az":223,"ss":46,"used":true}]}
{"class":"TPV","device":"/dev/ttyACM0","mode":3,"time":"2019-05-22T11:07:17.000Z","ept":0.005,"lat":35.937280667,"lon":-78.930024667,"alt":103.800,"epx":2.077,"epy":3.374,"epv":8.682,"track":0.0000,"speed":0.014,"climb":0.000}
{"class":"TPV","device":"/dev/ttyACM0","mode":3,"time":"2019-05-22T11:07:18.000Z","ept":0.005,"lat":35.937280722,"lon":-78.930023625,"alt":103.080,"epx":2.077,"epy":3.374,"epv":8.682,"track":266.6808,"speed":0.002,"climb":-0.051,"eps":0.24,"epc":17.36}
{"class":"SKY","device":"/dev/ttyACM0","xdop":0.55,"ydop":0.90,"vdop":1.51,"tdop":0.96,"hdop":0.91,"gdop":2.00,"pdop":1.76,"satellites":[{"PRN":3,"el":42,"az":288,"ss":43,"used":true},{"PRN":14,"el":53,"az":104,"ss":45,"used":true},{"PRN":16,"el":41,"az":198,"ss":45,"used":true},{"PRN":22,"el":45,"az":258,"ss":38,"used":true},{"PRN":23,"el":17,"az":310,"ss":28,"used":true},{"PRN":26,"el":73,"az":177,"ss":46,"used":true},{"PRN":29,"el":16,"az":64,"ss":32,"used":true},{"PRN":31,"el":55,"az":38,"ss":48,"used":true},{"PRN":32,"el":35,"az":118,"ss":45,"used":true},{"PRN":135,"el":20,"az":247,"ss":41,"used":true},{"PRN":138,"el":39,"az":223,"ss":46,"used":true}]}
{"class":"SKY","device":"/dev/ttyACM0","xdop":0.55,"ydop":0.90,"vdop":1.51,"tdop":0.96,"hdop":0.91,"gdop":2.00,"pdop":1.76,"satellites":[{"PRN":3,"el":42,"az":288,"ss":43,"used":true},{"PRN":14,"el":53,"az":104,"ss":45,"used":true},{"PRN":16,"el":41,"az":198,"ss":45,"used":true},{"PRN":22,"el":45,"az":258,"ss":38,"used":true},{"PRN":23,"el":17,"az":310,"ss":28,"used":true},{"PRN":25,"el":8,"az":40,"ss":0,"used":false},{"PRN":26,"el":73,"az":177,"ss":46,"used":true},{"PRN":29,"el":16,"az":64,"ss":32,"used":true},{"PRN":31,"el":55,"az":38,"ss":48,"used":true},{"PRN":32,"el":35,"az":118,"ss":45,"used":true},{"PRN":131,"el":32,"az":233,"ss":0,"used":false},{"PRN":135,"el":20,"az":247,"ss":41,"used":true},{"PRN":138,"el":39,"az":223,"ss":46,"used":true}]}
{"class":"TPV","device":"/dev/ttyACM0","mode":3,"time":"2019-05-22T11:07:18.000Z","ept":0.005,"lat":35.937280667,"lon":-78.930023667,"alt":103.700,"epx":2.077,"epy":3.374,"epv":8.682,"track":0.0000,"speed":0.004,"climb":0.000}
{"class":"TPV","device":"/dev/ttyACM0","mode":3,"time":"2019-05-22T11:07:19.000Z","ept":0.005,"lat":35.937281098,"lon":-78.930022455,"alt":103.022,"epx":2.077,"epy":3.374,"epv":8.682,"track":140.5912,"speed":0.003,"climb":-0.014,"eps":0.21,"epc":17.36}
{"class":"SKY","device":"/dev/ttyACM0","xdop":0.55,"ydop":0.90,"vdop":1.51,"tdop":0.96,"hdop":0.91,"gdop":2.00,"pdop":1.76,"satellites":[{"PRN":3,"el":42,"az":288,"ss":43,"used":true},{"PRN":14,"el":53,"az":104,"ss":46,"used":true},{"PRN":16,"el":41,"az":198,"ss":46,"used":true},{"PRN":22,"el":45,"az":258,"ss":39,"used":true},{"PRN":23,"el":17,"az":310,"ss":28,"used":true},{"PRN":25,"el":8,"az":40,"ss":0,"used":false},{"PRN":26,"el":73,"az":177,"ss":47,"used":true},{"PRN":29,"el":16,"az":64,"ss":33,"used":true},{"PRN":31,"el":55,"az":38,"ss":48,"used":true},{"PRN":32,"el":35,"az":118,"ss":45,"used":true},{"PRN":131,"el":32,"az":233,"ss":0,"used":false},{"PRN":135,"el":20,"az":247,"ss":41,"used":true},{"PRN":138,"el":39,"az":223,"ss":47,"used":true}]}
{"class":"TPV","device":"/dev/ttyACM0","mode":3,"time":"2019-05-22T11:07:19.000Z","ept":0.005,"lat":35.937281167,"lon":-78.930022500,"alt":103.600,"epx":2.077,"epy":3.374,"epv":8.682,"track":0.0000,"speed":0.006,"climb":0.000}
{"class":"TPV","device":"/dev/ttyACM0","mode":3,"time":"2019-05-22T11:07:20.000Z","ept":0.005,"lat":35.937281474,"lon":-78.930021457,"alt":102.999,"epx":2.077,"epy":3.374,"epv":8.682,"track":169.5724,"speed":0.011,"climb":-0.020,"eps":0.19,"epc":17.36}
{"class":"SKY","device":"/dev/ttyACM0","xdop":0.55,"ydop":0.90,"vdop":1.51,"tdop":0.96,"hdop":0.91,"gdop":2.00,"pdop":1.76,"satellites":[{"PRN":3,"el":42,"az":288,"ss":43,"used":true},{"PRN":14,"el":53,"az":104,"ss":46,"used":true},{"PRN":16,"el":41,"az":198,"ss":46,"used":true},{"PRN":22,"el":45,"az":258,"ss":38,"used":true},{"PRN":23,"el":17,"az":310,"ss":28,"used":true},{"PRN":25,"el":8,"az":40,"ss":0,"used":false},{"PRN":26,"el":73,"az":177,"ss":47,"used":true},{"PRN":29,"el":16,"az":64,"ss":32,"used":true},{"PRN":31,"el":55,"az":38,"ss":48,"used":true},{"PRN":32,"el":35,"az":118,"ss":45,"used":true},{"PRN":131,"el":32,"az":233,"ss":0,"used":false},{"PRN":135,"el":20,"az":247,"ss":41,"used":true},{"PRN":138,"el":39,"az":223,"ss":47,"used":true}]}
{"class":"TPV","device":"/dev/ttyACM0","mode":3,"time":"2019-05-22T11:07:20.000Z","ept":0.005,"lat":35.937281500,"lon":-78.930021500,"alt":103.600,"epx":2.077,"epy":3.374,"epv":8.682,"track":0.0000,"speed":0.011,"climb":0.000}
{"class":"TPV","device":"/dev/ttyACM0","mode":3,"time":"2019-05-22T11:07:21.000Z","ept":0.005,"lat":35.937282069,"lon":-78.930020460,"alt":102.993,"epx":2.077,"epy":3.374,"epv":8.682,"track":140.5912,"speed":0.003,"climb":-0.014,"eps":0.21,"epc":17.36}
{"class":"SKY","device":"/dev/ttyACM0","xdop":0.55,"ydop":0.90,"vdop":1.51,"tdop":0.96,"hdop":0.91,"gdop":2.00,"pdop":1.76,"satellites":[{"PRN":3,"el":42,"az":288,"ss":43,"used":true},{"PRN":14,"el":53,"az":104,"ss":45,"used":true},{"PRN":16,"el":41,"az":198,"ss":46,"used":true},{"PRN":22,"el":45,"az":258,"ss":38,"used":true},{"PRN":23,"el":17,"az":310,"ss":28,"used":true},{"PRN":25,"el":8,"az":40,"ss":0,"used":false},{"PRN":26,"el":73,"az":177,"ss":47,"used":true},{"PRN":29,"el":16,"az":64,"ss":31,"used":true},{"PRN":31,"el":55,"az":38,"ss":48,"used":true},{"PRN":32,"el":35,"az":118,"ss":45,"used":true},{"PRN":131,"el":32,"az":233,"ss":0,"used":false},{"PRN":135,"el":20,"az":247,"ss":41,"used":true},{"PRN":138,"el":39,"az":223,"ss":47,"used":true}]}
{"class":"TPV","device":"/dev/ttyACM0","mode":3,"time":"2019-05-22T11:07:21.000Z","ept":0.005,"lat":35.937282167,"lon":-78.930020500,"alt":103.600,"epx":2.077,"epy":3.374,"epv":8.682,"track":0.0000,"speed":0.006,"climb":0.000}
{"class":"TPV","device":"/dev/ttyACM0","mode":3,"time":"2019-05-22T11:07:22.000Z","ept":0.005,"lat":35.937282747,"lon":-78.930019743,"alt":103.025,"epx":2.077,"epy":3.374,"epv":8.682,"track":0.0000,"speed":0.000,"climb":0.000,"eps":0.12,"epc":17.36}
{"class":"SKY","device":"/dev/ttyACM0","xdop":0.55,"ydop":0.90,"vdop":1.51,"tdop":0.96,"hdop":0.91,"gdop":2.00,"pdop":1.76,"satellites":[{"PRN":3,"el":42,"az":288,"ss":43,"used":true},{"PRN":14,"el":53,"az":104,"ss":45,"used":true},{"PRN":16,"el":41,"az":198,"ss":46,"used":true},{"PRN":22,"el":45,"az":258,"ss":38,"used":true},{"PRN":23,"el":17,"az":310,"ss":28,"used":true},{"PRN":25,"el":8,"az":40,"ss":0,"used":false},{"PRN":26,"el":73,"az":177,"ss":47,"used":true},{"PRN":29,"el":16,"az":64,"ss":31,"used":true},{"PRN":31,"el":55,"az":38,"ss":48,"used":true},{"PRN":32,"el":35,"az":118,"ss":45,"used":true},{"PRN":131,"el":32,"az":233,"ss":0,"used":false},{"PRN":135,"el":20,"az":247,"ss":41,"used":true},{"PRN":138,"el":39,"az":223,"ss":47,"used":true}]}
{"class":"TPV","device":"/dev/ttyACM0","mode":3,"time":"2019-05-22T11:07:22.000Z","ept":0.005,"lat":35.937282667,"lon":-78.930019833,"alt":103.600,"epx":2.077,"epy":3.374,"epv":8.682,"track":0.0000,"speed":0.003,"climb":0.000}
{"class":"TPV","device":"/dev/ttyACM0","mode":3,"time":"2019-05-22T11:07:23.000Z","ept":0.005,"lat":35.937283187,"lon":-78.930019351,"alt":103.094,"epx":2.077,"epy":3.374,"epv":8.682,"track":59.3018,"speed":0.007,"climb":0.029,"eps":0.22,"epc":17.36}
{"class":"SKY","device":"/dev/ttyACM0","xdop":0.55,"ydop":0.90,"vdop":1.51,"tdop":0.96,"hdop":0.91,"gdop":2.00,"pdop":1.76,"satellites":[{"PRN":3,"el":42,"az":288,"ss":43,"used":true},{"PRN":14,"el":53,"az":104,"ss":45,"used":true},{"PRN":16,"el":41,"az":198,"ss":46,"used":true},{"PRN":22,"el":45,"az":258,"ss":38,"used":true},{"PRN":23,"el":17,"az":310,"ss":28,"used":true},{"PRN":25,"el":8,"az":40,"ss":19,"used":false},{"PRN":26,"el":73,"az":177,"ss":47,"used":true},{"PRN":29,"el":16,"az":64,"ss":31,"used":true},{"PRN":31,"el":55,"az":38,"ss":49,"used":true},{"PRN":32,"el":35,"az":118,"ss":45,"used":true},{"PRN":131,"el":32,"az":233,"ss":0,"used":false},{"PRN":135,"el":20,"az":247,"ss":41,"used":true},{"PRN":138,"el":39,"az":223,"ss":47,"used":true}]}
{"class":"TPV","device":"/dev/ttyACM0","mode":3,"time":"2019-05-22T11:07:23.000Z","ept":0.005,"lat":35.937283167,"lon":-78.930019333,"alt":103.700,"epx":2.077,"epy":3.374,"epv":8.682,"track":0.0000,"speed":0.003,"climb":0.000}
{"class":"TPV","device":"/dev/ttyACM0","mode":3,"time":"2019-05-22T11:07:24.000Z","ept":0.005,"lat":35.937283234,"lon":-78.930018930,"alt":103.309,"epx":2.077,"epy":3.374,"epv":8.682,"track":59.3018,"speed":0.007,"climb":0.029,"eps":0.21,"epc":17.36}
{"class":"SKY","device":"/dev/ttyACM0","xdop":0.55,"ydop":0.90,"vdop":1.51,"tdop":0.96,"hdop":0.91,"gdop":2.00,"pdop":1.76,"satellites":[{"PRN":3,"el":42,"az":288,"ss":43,"used":true},{"PRN":14,"el":53,"az":104,"ss":45,"used":true},{"PRN":16,"el":41,"az":198,"ss":46,"used":true},{"PRN":22,"el":45,"az":258,"ss":38,"used":true},{"PRN":23,"el":17,"az":310,"ss":27,"used":true},{"PRN":25,"el":8,"az":40,"ss":18,"used":false},{"PRN":26,"el":73,"az":177,"ss":47,"used":true},{"PRN":29,"el":16,"az":64,"ss":32,"used":true},{"PRN":31,"el":55,"az":38,"ss":49,"used":true},{"PRN":32,"el":35,"az":118,"ss":45,"used":true},{"PRN":131,"el":32,"az":233,"ss":0,"used":false},{"PRN":135,"el":20,"az":247,"ss":41,"used":true},{"PRN":138,"el":39,"az":223,"ss":47,"used":true}]}
{"class":"TPV","device":"/dev/ttyACM0","mode":3,"time":"2019-05-22T11:07:24.000Z","ept":0.005,"lat":35.937283167,"lon":-78.930019000,"alt":103.900,"epx":2.077,"epy":3.374,"epv":8.682,"track":0.0000,"speed":0.009,"climb":0.000}
{"class":"TPV","device":"/dev/ttyACM0","mode":3,"time":"2019-05-22T11:07:25.000Z","ept":0.005,"lat":35.937283156,"lon":-78.930018161,"alt":103.508,"epx":2.077,"epy":3.374,"epv":8.682,"track":54.6182,"speed":0.012,"climb":0.007,"eps":0.12,"epc":17.36}
{"class":"SKY","device":"/dev/ttyACM0","xdop":0.55,"ydop":0.90,"vdop":1.51,"tdop":0.96,"hdop":0.91,"gdop":2.00,"pdop":1.76,"satellites":[{"PRN":3,"el":42,"az":288,"ss":43,"used":true},{"PRN":14,"el":53,"az":104,"ss":45,"used":true},{"PRN":16,"el":41,"az":198,"ss":46,"used":true},{"PRN":22,"el":45,"az":258,"ss":38,"used":true},{"PRN":23,"el":17,"az":310,"ss":27,"used":true},{"PRN":25,"el":8,"az":40,"ss":18,"used":false},{"PRN":26,"el":73,"az":177,"ss":47,"used":true},{"PRN":29,"el":16,"az":64,"ss":31,"used":true},{"PRN":31,"el":55,"az":38,"ss":49,"used":true},{"PRN":32,"el":35,"az":118,"ss":45,"used":true},{"PRN":131,"el":32,"az":233,"ss":0,"used":false},{"PRN":135,"el":20,"az":247,"ss":41,"used":true},{"PRN":138,"el":39,"az":223,"ss":47,"used":true}]}
{"class":"TPV","device":"/dev/ttyACM0","mode":3,"time":"2019-05-22T11:07:25.000Z","ept":0.005,"lat":35.937283167,"lon":-78.930018167,"alt":104.100,"epx":2.077,"epy":3.374,"epv":8.682,"track":0.0000,"speed":0.011,"climb":0.000}
{"class":"TPV","device":"/dev/ttyACM0","mode":3,"time":"2019-05-22T11:07:26.000Z","ept":0.005,"lat":35.937283047,"lon":-78.930017459,"alt":103.678,"epx":2.077,"epy":3.374,"epv":8.682,"track":131.1018,"speed":0.010,"climb":0.010,"eps":0.19,"epc":17.36}
{"class":"SKY","device":"/dev/ttyACM0","xdop":0.55,"ydop":0.90,"vdop":1.37,"tdop":0.83,"hdop":0.87,"gdop":1.83,"pdop":1.62,"satellites":[{"PRN":3,"el":42,"az":287,"ss":43,"used":true},{"PRN":14,"el":53,"az":104,"ss":45,"used":true},{"PRN":16,"el":41,"az":198,"ss":46,"used":true},{"PRN":22,"el":45,"az":258,"ss":38,"used":true},{"PRN":23,"el":17,"az":310,"ss":27,"used":true},{"PRN":25,"el":8,"az":40,"ss":17,"used":true},{"PRN":26,"el":73,"az":177,"ss":47,"used":true},{"PRN":29,"el":16,"az":64,"ss":31,"used":true},{"PRN":31,"el":55,"az":38,"ss":49,"used":true},{"PRN":32,"el":35,"az":118,"ss":45,"used":true},{"PRN":131,"el":32,"az":233,"ss":0,"used":false},{"PRN":135,"el":20,"az":247,"ss":41,"used":true},{"PRN":138,"el":39,"az":223,"ss":47,"used":true}]}
{"class":"TPV","device":"/dev/ttyACM0","mode":3,"time":"2019-05-22T11:07:26.000Z","ept":0.005,"lat":35.937283000,"lon":-78.930017500,"alt":104.200,"epx":2.077,"epy":3.374,"epv":7.878,"track":0.0000,"speed":0.010,"climb":0.000}
{"class":"TPV","device":"/dev/ttyACM0","mode":3,"time":"2019-05-22T11:07:27.000Z","ept":0.005,"lat":35.937283310,"lon":-78.930017086,"alt":103.808,"epx":2.077,"epy":3.374,"epv":7.878,"track":81.2859,"speed":0.008,"climb":0.015,"eps":0.19,"epc":15.76}
{"class":"SKY","device":"/dev/ttyACM0","xdop":0.55,"ydop":0.90,"vdop":1.37,"tdop":0.83,"hdop":0.87,"gdop":1.83,"pdop":1.62,"satellites":[{"PRN":3,"el":42,"az":287,"ss":43,"used":true},{"PRN":14,"el":53,"az":104,"ss":45,"used":true},{"PRN":16,"el":41,"az":198,"ss":46,"used":true},{"PRN":22,"el":45,"az":258,"ss":38,"used":true},{"PRN":23,"el":17,"az":310,"ss":26,"used":true},{"PRN":25,"el":8,"az":40,"ss":16,"used":true},{"PRN":26,"el":73,"az":177,"ss":47,"used":true},{"PRN":29,"el":16,"az":64,"ss":31,"used":true},{"PRN":31,"el":55,"az":38,"ss":49,"used":true},{"PRN":32,"el":35,"az":118,"ss":45,"used":true},{"PRN":131,"el":32,"az":233,"ss":0,"used":false},{"PRN":135,"el":20,"az":247,"ss":41,"used":true},{"PRN":138,"el":39,"az":223,"ss":47,"used":true}]}
{"class":"TPV","device":"/dev/ttyACM0","mode":3,"time":"2019-05-22T11:07:27.000Z","ept":0.005,"lat":35.937283333,"lon":-78.930017000,"alt":104.400,"epx":2.077,"epy":3.374,"epv":7.878,"track":0.0000,"speed":0.009,"climb":0.000}
{"class":"TPV","device":"/dev/ttyACM0","mode":3,"time":"2019-05-22T11:07:28.000Z","ept":0.005,"lat":35.937283086,"lon":-78.930016341,"alt":103.945,"epx":2.077,"epy":3.374,"epv":7.878,"track":158.5356,"speed":0.011,"climb":0.031,"eps":0.23,"epc":15.76}
{"class":"SKY","device":"/dev/ttyACM0","xdop":0.55,"ydop":0.90,"vdop":1.37,"tdop":0.83,"hdop":0.87,"gdop":1.83,"pdop":1.62,"satellites":[{"PRN":3,"el":42,"az":287,"ss":43,"used":true},{"PRN":14,"el":53,"az":104,"ss":45,"used":true},{"PRN":16,"el":41,"az":198,"ss":46,"used":true},{"PRN":22,"el":45,"az":258,"ss":38,"used":true},{"PRN":23,"el":17,"az":310,"ss":25,"used":true},{"PRN":25,"el":8,"az":40,"ss":18,"used":true},{"PRN":26,"el":73,"az":177,"ss":47,"used":true},{"PRN":29,"el":16,"az":64,"ss":31,"used":true},{"PRN":31,"el":55,"az":38,"ss":48,"used":true},{"PRN":32,"el":35,"az":118,"ss":45,"used":true},{"PRN":135,"el":20,"az":247,"ss":41,"used":true},{"PRN":138,"el":39,"az":223,"ss":47,"used":true}]}
{"class":"SKY","device":"/dev/ttyACM0","xdop":0.55,"ydop":0.90,"vdop":1.37,"tdop":0.83,"hdop":0.87,"gdop":1.83,"pdop":1.62,"satellites":[{"PRN":3,"el":42,"az":287,"ss":43,"used":true},{"PRN":14,"el":53,"az":104,"ss":45,"used":true},{"PRN":16,"el":41,"az":198,"ss":46,"used":true},{"PRN":22,"el":45,"az":258,"ss":38,"used":true},{"PRN":23,"el":17,"az":310,"ss":25,"used":true},{"PRN":25,"el":8,"az":40,"ss":18,"used":true},{"PRN":26,"el":73,"az":177,"ss":47,"used":true},{"PRN":29,"el":16,"az":64,"ss":31,"used":true},{"PRN":31,"el":55,"az":38,"ss":48,"used":true},{"PRN":32,"el":35,"az":118,"ss":45,"used":true},{"PRN":131,"el":32,"az":233,"ss":0,"used":false},{"PRN":135,"el":20,"az":247,"ss":41,"used":true},{"PRN":138,"el":39,"az":223,"ss":47,"used":true}]}
{"class":"TPV","device":"/dev/ttyACM0","mode":3,"time":"2019-05-22T11:07:28.000Z","ept":0.005,"lat":35.937283167,"lon":-78.930016333,"alt":104.500,"epx":2.077,"epy":3.374,"epv":7.878,"track":0.0000,"speed":0.010,"climb":0.000}
{"class":"TPV","device":"/dev/ttyACM0","mode":3,"time":"2019-05-22T11:07:29.000Z","ept":0.005,"lat":35.937282955,"lon":-78.930016159,"alt":104.152,"epx":2.077,"epy":3.374,"epv":7.878,"track":118.6318,"speed":0.005,"climb":0.037,"eps":0.23,"epc":15.76}
{"class":"SKY","device":"/dev/ttyACM0","xdop":0.55,"ydop":0.90,"vdop":1.37,"tdop":0.83,"hdop":0.87,"gdop":1.83,"pdop":1.62,"satellites":[{"PRN":3,"el":42,"az":287,"ss":43,"used":true},{"PRN":14,"el":53,"az":104,"ss":45,"used":true},{"PRN":16,"el":41,"az":198,"ss":46,"used":true},{"PRN":22,"el":45,"az":258,"ss":37,"used":true},{"PRN":23,"el":17,"az":310,"ss":25,"used":true},{"PRN":25,"el":8,"az":40,"ss":18,"used":true},{"PRN":26,"el":73,"az":177,"ss":47,"used":true},{"PRN":29,"el":16,"az":64,"ss":30,"used":true},{"PRN":31,"el":55,"az":38,"ss":48,"used":true},{"PRN":32,"el":35,"az":118,"ss":45,"used":true},{"PRN":131,"el":32,"az":233,"ss":0,"used":false},{"PRN":135,"el":20,"az":247,"ss":41,"used":true},{"PRN":138,"el":39,"az":223,"ss":47,"used":true}]}
{"class":"TPV","device":"/dev/ttyACM0","mode":3,"time":"2019-05-22T11:07:29.000Z","ept":0.005,"lat":35.937283000,"lon":-78.930016167,"alt":104.700,"epx":2.077,"epy":3.374,"epv":7.878,"track":0.0000,"speed":0.010,"climb":0.000}
{"class":"TPV","device":"/dev/ttyACM0","mode":3,"time":"2019-05-22T11:07:30.000Z","ept":0.005,"lat":35.937282441,"lon":-78.930015539,"alt":104.401,"epx":2.077,"epy":3.374,"epv":7.878,"track":129.5122,"speed":0.018,"climb":0.033,"eps":0.23,"epc":15.76}
{"class":"SKY","device":"/dev/ttyACM0","xdop":0.55,"ydop":0.90,"vdop":1.37,"tdop":0.83,"hdop":0.87,"gdop":1.83,"pdop":1.63,"satellites":[{"PRN":3,"el":42,"az":287,"ss":44,"used":true},{"PRN":14,"el":53,"az":104,"ss":45,"used":true},{"PRN":16,"el":41,"az":198,"ss":47,"used":true},{"PRN":22,"el":45,"az":258,"ss":37,"used":true},{"PRN":23,"el":17,"az":310,"ss":25,"used":true},{"PRN":25,"el":8,"az":40,"ss":18,"used":true},{"PRN":26,"el":73,"az":177,"ss":46,"used":true},{"PRN":29,"el":16,"az":64,"ss":31,"used":true},{"PRN":31,"el":55,"az":38,"ss":49,"used":true},{"PRN":32,"el":35,"az":118,"ss":45,"used":true},{"PRN":131,"el":32,"az":233,"ss":0,"used":false},{"PRN":135,"el":20,"az":247,"ss":41,"used":true},{"PRN":138,"el":39,"az":223,"ss":47,"used":true}]}
{"class":"TPV","device":"/dev/ttyACM0","mode":3,"time":"2019-05-22T11:07:30.000Z","ept":0.005,"lat":35.937282500,"lon":-78.930015500,"alt":105.000,"epx":2.077,"epy":3.374,"epv":7.878,"track":0.0000,"speed":0.014,"climb":0.000}
{"class":"TPV","device":"/dev/ttyACM0","mode":3,"time":"2019-05-22T11:07:31.000Z","ept":0.005,"lat":35.937282168,"lon":-78.930015114,"alt":104.716,"epx":2.077,"epy":3.374,"epv":7.878,"track":4.9600,"speed":0.002,"climb":0.065,"eps":0.24,"epc":15.76}
{"class":"SKY","device":"/dev/ttyACM0","xdop":0.55,"ydop":0.90,"vdop":1.37,"tdop":0.83,"hdop":0.87,"gdop":1.83,"pdop":1.63,"satellites":[{"PRN":3,"el":42,"az":287,"ss":44,"used":true},{"PRN":14,"el":53,"az":104,"ss":45,"used":true},{"PRN":16,"el":41,"az":198,"ss":47,"used":true},{"PRN":22,"el":45,"az":258,"ss":37,"used":true},{"PRN":23,"el":17,"az":310,"ss":24,"used":true},{"PRN":25,"el":8,"az":40,"ss":18,"used":true},{"PRN":26,"el":73,"az":177,"ss":46,"used":true},{"PRN":29,"el":16,"az":64,"ss":31,"used":true},{"PRN":31,"el":55,"az":38,"ss":48,"used":true},{"PRN":32,"el":35,"az":118,"ss":45,"used":true},{"PRN":131,"el":32,"az":233,"ss":0,"used":false},{"PRN":135,"el":20,"az":247,"ss":41,"used":true},{"PRN":138,"el":39,"az":223,"ss":47,"used":true}]}
{"class":"TPV","device":"/dev/ttyACM0","mode":3,"time":"2019-05-22T11:07:31.000Z","ept":0.005,"lat":35.937282167,"lon":-78.930015167,"alt":105.300,"epx":2.077,"epy":3.374,"epv":7.878,"track":0.0000,"speed":0.006,"climb":0.000}
{"class":"TPV","device":"/dev/ttyACM0","mode":3,"time":"2019-05-22T11:07:32.000Z","ept":0.005,"lat":35.937281988,"lon":-78.930014906,"alt":105.033,"epx":2.077,"epy":3.374,"epv":7.878,"track":279.2487,"speed":0.008,"climb":0.049,"eps":0.26,"epc":15.76}
{"class":"SKY","device":"/dev/ttyACM0","xdop":0.55,"ydop":0.90,"vdop":1.37,"tdop":0.83,"hdop":0.87,"gdop":1.83,"pdop":1.63,"satellites":[{"PRN":3,"el":42,"az":287,"ss":43,"used":true},{"PRN":14,"el":53,"az":104,"ss":45,"used":true},{"PRN":16,"el":41,"az":198,"ss":47,"used":true},{"PRN":22,"el":45,"az":258,"ss":37,"used":true},{"PRN":23,"el":17,"az":310,"ss":24,"used":true},{"PRN":25,"el":8,"az":40,"ss":19,"used":true},{"PRN":26,"el":73,"az":177,"ss":46,"used":true},{"PRN":29,"el":16,"az":64,"ss":30,"used":true},{"PRN":31,"el":55,"az":38,"ss":49,"used":true},{"PRN":32,"el":35,"az":118,"ss":45,"used":true},{"PRN":131,"el":32,"az":233,"ss":0,"used":false},{"PRN":135,"el":20,"az":247,"ss":41,"used":true},{"PRN":138,"el":39,"az":223,"ss":47,"used":true}]}
{"class":"TPV","device":"/dev/ttyACM0","mode":3,"time":"2019-05-22T11:07:32.000Z","ept":0.005,"lat":35.937282000,"lon":-78.930014833,"alt":105.600,"epx":2.077,"epy":3.374,"epv":7.878,"track":0.0000,"speed":0.004,"climb":0.000}
{"class":"TPV","device":"/dev/ttyACM0","mode":3,"time":"2019-05-22T11:07:33.000Z","ept":0.005,"lat":35.937281651,"lon":-78.930014416,"alt":105.306,"epx":2.077,"epy":3.374,"epv":7.878,"track":179.1091,"speed":0.014,"climb":0.053,"eps":0.25,"epc":15.76}
{"class":"SKY","device":"/dev/ttyACM0","xdop":0.55,"ydop":0.90,"vdop":1.37,"tdop":0.83,"hdop":0.87,"gdop":1.83,"pdop":1.63,"satellites":[{"PRN":3,"el":42,"az":287,"ss":43,"used":true},{"PRN":14,"el":53,"az":104,"ss":45,"used":true},{"PRN":16,"el":41,"az":198,"ss":47,"used":true},{"PRN":22,"el":45,"az":258,"ss":37,"used":true},{"PRN":23,"el":17,"az":310,"ss":25,"used":true},{"PRN":25,"el":8,"az":40,"ss":19,"used":true},{"PRN":26,"el":73,"az":177,"ss":46,"used":true},{"PRN":29,"el":16,"az":64,"ss":31,"used":true},{"PRN":31,"el":55,"az":38,"ss":49,"used":true},{"PRN":32,"el":35,"az":118,"ss":45,"used":true},{"PRN":131,"el":32,"az":233,"ss":0,"used":false},{"PRN":135,"el":20,"az":247,"ss":41,"used":true},{"PRN":138,"el":39,"az":223,"ss":47,"used":true}]}
{"class":"TPV","device":"/dev/ttyACM0","mode":3,"time":"2019-05-22T11:07:33.000Z","ept":0.005,"lat":35.937281667,"lon":-78.930014500,"alt":105.900,"epx":2.077,"epy":3.374,"epv":7.878,"track":0.0000,"speed":0.010,"climb":0.000}
{"class":"TPV","device":"/dev/ttyACM0","mode":3,"time":"2019-05-22T11:07:34.000Z","ept":0.005,"lat":35.937280961,"lon":-78.930014185,"alt":105.633,"epx":2.077,"epy":3.374,"epv":7.878,"track":179.1091,"speed":0.014,"climb":0.053,"eps":0.26,"epc":15.76}
{"class":"SKY","device":"/dev/ttyACM0","xdop":0.55,"ydop":0.90,"vdop":1.37,"tdop":0.83,"hdop":0.87,"gdop":1.83,"pdop":1.63,"satellites":[{"PRN":3,"el":42,"az":287,"ss":43,"used":true},{"PRN":14,"el":53,"az":104,"ss":45,"used":true},{"PRN":16,"el":41,"az":198,"ss":47,"used":true},{"PRN":22,"el":45,"az":258,"ss":37,"used":true},{"PRN":23,"el":17,"az":310,"ss":25,"used":true},{"PRN":25,"el":8,"az":40,"ss":20,"used":true},{"PRN":26,"el":73,"az":177,"ss":46,"used":true},{"PRN":29,"el":16,"az":64,"ss":30,"used":true},{"PRN":31,"el":55,"az":38,"ss":49,"used":true},{"PRN":32,"el":35,"az":118,"ss":45,"used":true},{"PRN":131,"el":32,"az":233,"ss":0,"used":false},{"PRN":135,"el":20,"az":247,"ss":41,"used":true},{"PRN":138,"el":39,"az":223,"ss":47,"used":true}]}
{"class":"TPV","device":"/dev/ttyACM0","mode":3,"time":"2019-05-22T11:07:34.000Z","ept":0.005,"lat":35.937281000,"lon":-78.930014167,"alt":106.200,"epx":2.077,"epy":3.374,"epv":7.878,"track":0.0000,"speed":0.011,"climb":0.000}
{"class":"TPV","device":"/dev/ttyACM0","mode":3,"time":"2019-05-22T11:07:35.000Z","ept":0.005,"lat":35.937280477,"lon":-78.930013719,"alt":105.843,"epx":2.077,"epy":3.374,"epv":7.878,"track":123.9974,"speed":0.012,"climb":0.060,"eps":0.25,"epc":15.76}
{"class":"SKY","device":"/dev/ttyACM0","xdop":0.55,"ydop":0.90,"vdop":1.37,"tdop":0.83,"hdop":0.87,"gdop":1.83,"pdop":1.63,"satellites":[{"PRN":3,"el":42,"az":287,"ss":43,"used":true},{"PRN":14,"el":53,"az":104,"ss":45,"used":true},{"PRN":16,"el":41,"az":198,"ss":47,"used":true},{"PRN":22,"el":45,"az":258,"ss":36,"used":true},{"PRN":23,"el":17,"az":310,"ss":25,"used":true},{"PRN":25,"el":8,"az":40,"ss":21,"used":true},{"PRN":26,"el":73,"az":177,"ss":46,"used":true},{"PRN":29,"el":16,"az":64,"ss":30,"used":true},{"PRN":31,"el":55,"az":38,"ss":49,"used":true},{"PRN":32,"el":35,"az":118,"ss":45,"used":true},{"PRN":131,"el":32,"az":233,"ss":0,"used":false},{"PRN":135,"el":20,"az":247,"ss":41,"used":true},{"PRN":138,"el":39,"az":223,"ss":47,"used":true}]}
{"class":"TPV","device":"/dev/ttyACM0","mode":3,"time":"2019-05-22T11:07:35.000Z","ept":0.005,"lat":35.937280500,"lon":-78.930013667,"alt":106.400,"epx":2.077,"epy":3.374,"epv":7.878,"track":0.0000,"speed":0.012,"climb":0.000}
{"class":"TPV","device":"/dev/ttyACM0","mode":3,"time":"2019-05-22T11:07:36.000Z","ept":0.005,"lat":35.937279907,"lon":-78.930013215,"alt":105.897,"epx":2.077,"epy":3.374,"epv":7.878,"track":179.1091,"speed":0.014,"climb":0.053,"eps":0.25,"epc":15.76}
{"class":"SKY","device":"/dev/ttyACM0","xdop":0.55,"ydop":0.90,"vdop":1.37,"tdop":0.83,"hdop":0.87,"gdop":1.83,"pdop":1.63,"satellites":[{"PRN":3,"el":42,"az":287,"ss":43,"used":true},{"PRN":14,"el":53,"az":105,"ss":45,"used":true},{"PRN":16,"el":41,"az":198,"ss":47,"used":true},{"PRN":22,"el":45,"az":258,"ss":36,"used":true},{"PRN":23,"el":17,"az":310,"ss":24,"used":true},{"PRN":25,"el":8,"az":40,"ss":22,"used":true},{"PRN":26,"el":73,"az":177,"ss":46,"used":true},{"PRN":29,"el":16,"az":64,"ss":29,"used":true},{"PRN":31,"el":55,"az":38,"ss":49,"used":true},{"PRN":32,"el":35,"az":118,"ss":44,"used":true},{"PRN":131,"el":32,"az":233,"ss":0,"used":false},{"PRN":135,"el":20,"az":247,"ss":41,"used":true},{"PRN":138,"el":39,"az":223,"ss":47,"used":true}]}
{"class":"TPV","device":"/dev/ttyACM0","mode":3,"time":"2019-05-22T11:07:36.000Z","ept":0.005,"lat":35.937280000,"lon":-78.930013333,"alt":106.500,"epx":2.077,"epy":3.374,"epv":7.878,"track":0.0000,"speed":0.017,"climb":0.000}
{"class":"TPV","device":"/dev/ttyACM0","mode":3,"time":"2019-05-22T11:07:37.000Z","ept":0.005,"lat":35.937279492,"lon":-78.930012648,"alt":105.926,"epx":2.077,"epy":3.374,"epv":7.878,"track":198.4363,"speed":0.006,"climb":0.008,"eps":0.21,"epc":15.76}
{"class":"SKY","device":"/dev/ttyACM0","xdop":0.55,"ydop":0.90,"vdop":1.37,"tdop":0.83,"hdop":0.87,"gdop":1.83,"pdop":1.63,"satellites":[{"PRN":3,"el":42,"az":287,"ss":43,"used":true},{"PRN":14,"el":53,"az":105,"ss":45,"used":true},{"PRN":16,"el":41,"az":198,"ss":47,"used":true},{"PRN":22,"el":45,"az":258,"ss":36,"used":true},{"PRN":23,"el":17,"az":310,"ss":24,"used":true},{"PRN":25,"el":8,"az":40,"ss":23,"used":true},{"PRN":26,"el":73,"az":177,"ss":47,"used":true},{"PRN":29,"el":16,"az":64,"ss":30,"used":true},{"PRN":31,"el":55,"az":38,"ss":49,"used":true},{"PRN":32,"el":35,"az":118,"ss":44,"used":true},{"PRN":131,"el":32,"az":233,"ss":0,"used":false},{"PRN":135,"el":20,"az":247,"ss":41,"used":true},{"PRN":138,"el":39,"az":223,"ss":47,"used":true}]}
{"class":"TPV","device":"/dev/ttyACM0","mode":3,"time":"2019-05-22T11:07:37.000Z","ept":0.005,"lat":35.937279500,"lon":-78.930012667,"alt":106.500,"epx":2.077,"epy":3.374,"epv":7.878,"track":0.0000,"speed":0.006,"climb":0.000}
{"class":"TPV","device":"/dev/ttyACM0","mode":3,"time":"2019-05-22T11:07:38.000Z","ept":0.005,"lat":35.937279045,"lon":-78.930012343,"alt":105.909,"epx":2.077,"epy":3.374,"epv":7.878,"track":320.5912,"speed":0.003,"climb":0.014,"eps":0.25,"epc":15.76}
{"class":"SKY","device":"/dev/ttyACM0","xdop":0.55,"ydop":0.90,"vdop":1.37,"tdop":0.83,"hdop":0.87,"gdop":1.83,"pdop":1.63,"satellites":[{"PRN":3,"el":42,"az":287,"ss":43,"used":true},{"PRN":14,"el":53,"az":105,"ss":45,"used":true},{"PRN":16,"el":41,"az":198,"ss":47,"used":true},{"PRN":22,"el":45,"az":258,"ss":36,"used":true},{"PRN":23,"el":17,"az":310,"ss":24,"used":true},{"PRN":25,"el":8,"az":40,"ss":23,"used":true},{"PRN":26,"el":73,"az":177,"ss":46,"used":true},{"PRN":29,"el":16,"az":64,"ss":30,"used":false},{"PRN":31,"el":55,"az":38,"ss":49,"used":true},{"PRN":32,"el":35,"az":118,"ss":44,"used":true},{"PRN":135,"el":20,"az":247,"ss":41,"used":true},{"PRN":138,"el":39,"az":223,"ss":47,"used":true}]}
{"class":"SKY","device":"/dev/ttyACM0","xdop":0.55,"ydop":0.90,"vdop":1.46,"tdop":0.92,"hdop":0.90,"gdop":1.95,"pdop":1.71,"satellites":[{"PRN":3,"el":42,"az":287,"ss":43,"used":true},{"PRN":14,"el":53,"az":105,"ss":45,"used":true},{"PRN":16,"el":41,"az":198,"ss":47,"used":true},{"PRN":22,"el":45,"az":258,"ss":36,"used":true},{"PRN":23,"el":17,"az":310,"ss":24,"used":true},{"PRN":25,"el":8,"az":40,"ss":23,"used":true},{"PRN":26,"el":73,"az":177,"ss":46,"used":true},{"PRN":29,"el":16,"az":64,"ss":30,"used":true},{"PRN":31,"el":55,"az":38,"ss":49,"used":true},{"PRN":32,"el":35,"az":118,"ss":44,"used":true},{"PRN":131,"el":32,"az":233,"ss":0,"used":false},{"PRN":135,"el":20,"az":247,"ss":41,"used":true},{"PRN":138,"el":39,"az":223,"ss":47,"used":true}]}
{"class":"TPV","device":"/dev/ttyACM0","mode":3,"time":"2019-05-22T11:07:38.000Z","ept":0.005,"lat":35.937279000,"lon":-78.930012333,"alt":106.500,"epx":2.077,"epy":3.374,"epv":8.395,"track":0.0000,"speed":0.004,"climb":0.000}
{"class":"TPV","device":"/dev/ttyACM0","mode":3,"time":"2019-05-22T11:07:39.000Z","ept":0.005,"lat":35.937279015,"lon":-78.930012017,"alt":105.914,"epx":2.077,"epy":3.374,"epv":8.395,"track":198.4363,"speed":0.006,"climb":0.008,"eps":0.16,"epc":16.79}
{"class":"SKY","device":"/dev/ttyACM0","xdop":0.55,"ydop":0.90,"vdop":1.37,"tdop":0.83,"hdop":0.87,"gdop":1.83,"pdop":1.63,"satellites":[{"PRN":3,"el":42,"az":287,"ss":43,"used":true},{"PRN":14,"el":53,"az":105,"ss":45,"used":true},{"PRN":16,"el":41,"az":198,"ss":47,"used":true},{"PRN":22,"el":45,"az":258,"ss":36,"used":true},{"PRN":23,"el":17,"az":310,"ss":24,"used":true},{"PRN":25,"el":8,"az":40,"ss":25,"used":true},{"PRN":26,"el":73,"az":177,"ss":46,"used":true},{"PRN":29,"el":16,"az":64,"ss":29,"used":true},{"PRN":31,"el":55,"az":38,"ss":49,"used":true},{"PRN":32,"el":35,"az":118,"ss":44,"used":true},{"PRN":131,"el":32,"az":233,"ss":0,"used":false},{"PRN":135,"el":20,"az":247,"ss":41,"used":true},{"PRN":138,"el":39,"az":223,"ss":47,"used":true}]}
{"class":"TPV","device":"/dev/ttyACM0","mode":3,"time":"2019-05-22T11:07:39.000Z","ept":0.005,"lat":35.937279000,"lon":-78.930012000,"alt":106.500,"epx":2.077,"epy":3.374,"epv":7.878,"track":0.0000,"speed":0.004,"climb":0.000}
{"class":"TPV","device":"/dev/ttyACM0","mode":3,"time":"2019-05-22T11:07:40.000Z","ept":0.005,"lat":35.937279242,"lon":-78.930011435,"alt":105.794,"epx":2.077,"epy":3.374,"epv":7.878,"track":140.5912,"speed":0.006,"climb":-0.028,"eps":0.24,"epc":15.76}
{"class":"SKY","device":"/dev/ttyACM0","xdop":0.55,"ydop":0.90,"vdop":1.37,"tdop":0.83,"hdop":0.87,"gdop":1.83,"pdop":1.63,"satellites":[{"PRN":3,"el":42,"az":287,"ss":43,"used":true},{"PRN":14,"el":53,"az":105,"ss":45,"used":true},{"PRN":16,"el":41,"az":198,"ss":47,"used":true},{"PRN":22,"el":45,"az":258,"ss":36,"used":true},{"PRN":23,"el":17,"az":310,"ss":24,"used":true},{"PRN":25,"el":8,"az":40,"ss":25,"used":true},{"PRN":26,"el":73,"az":177,"ss":46,"used":true},{"PRN":29,"el":16,"az":64,"ss":29,"used":true},{"PRN":31,"el":55,"az":38,"ss":49,"used":true},{"PRN":32,"el":35,"az":118,"ss":44,"used":true},{"PRN":131,"el":32,"az":233,"ss":0,"used":false},{"PRN":135,"el":20,"az":247,"ss":41,"used":true},{"PRN":138,"el":39,"az":223,"ss":47,"used":true}]}
{"class":"TPV","device":"/dev/ttyACM0","mode":3,"time":"2019-05-22T11:07:40.000Z","ept":0.005,"lat":35.937279167,"lon":-78.930011333,"alt":106.400,"epx":2.077,"epy":3.374,"epv":7.878,"track":0.0000,"speed":0.003,"climb":0.000}
{"class":"TPV","device":"/dev/ttyACM0","mode":3,"time":"2019-05-22T11:07:41.000Z","ept":0.005,"lat":35.937279378,"lon":-78.930011154,"alt":105.773,"epx":2.077,"epy":3.374,"epv":7.878,"track":96.5503,"speed":0.010,"climb":0.002,"eps":0.15,"epc":15.76}
{"class":"SKY","device":"/dev/ttyACM0","xdop":0.55,"ydop":0.90,"vdop":1.37,"tdop":0.83,"hdop":0.87,"gdop":1.83,"pdop":1.63,"satellites":[{"PRN":3,"el":42,"az":287,"ss":42,"used":true},{"PRN":14,"el":53,"az":105,"ss":45,"used":true},{"PRN":16,"el":41,"az":198,"ss":47,"used":true},{"PRN":22,"el":45,"az":258,"ss":37,"used":true},{"PRN":23,"el":17,"az":310,"ss":24,"used":true},{"PRN":25,"el":8,"az":40,"ss":24,"used":true},{"PRN":26,"el":73,"az":177,"ss":46,"used":true},{"PRN":29,"el":16,"az":64,"ss":30,"used":true},{"PRN":31,"el":55,"az":38,"ss":49,"used":true},{"PRN":32,"el":35,"az":118,"ss":44,"used":true},{"PRN":131,"el":32,"az":233,"ss":0,"used":false},{"PRN":135,"el":20,"az":247,"ss":41,"used":true},{"PRN":138,"el":39,"az":223,"ss":47,"used":true}]}
{"class":"TPV","device":"/dev/ttyACM0","mode":3,"time":"2019-05-22T11:07:41.000Z","ept":0.005,"lat":35.937279333,"lon":-78.930011167,"alt":106.300,"epx":2.077,"epy":3.374,"epv":7.878,"track":0.0000,"speed":0.007,"climb":0.000}
{"class":"TPV","device":"/dev/ttyACM0","mode":3,"time":"2019-05-22T11:07:42.000Z","ept":0.005,"lat":35.937279616,"lon":-78.930010484,"alt":105.668,"epx":2.077,"epy":3.374,"epv":7.878,"track":79.3215,"speed":0.006,"climb":-0.036,"eps":0.25,"epc":15.76}
{"class":"SKY","device":"/dev/ttyACM0","xdop":0.55,"ydop":0.90,"vdop":1.37,"tdop":0.83,"hdop":0.87,"gdop":1.83,"pdop":1.63,"satellites":[{"PRN":3,"el":42,"az":287,"ss":42,"used":true},{"PRN":14,"el":53,"az":105,"ss":45,"used":true},{"PRN":16,"el":41,"az":198,"ss":47,"used":true},{"PRN":22,"el":45,"az":258,"ss":37,"used":true},{"PRN":23,"el":17,"az":310,"ss":25,"used":true},{"PRN":25,"el":8,"az":40,"ss":25,"used":true},{"PRN":26,"el":73,"az":177,"ss":46,"used":true},{"PRN":29,"el":16,"az":64,"ss":30,"used":true},{"PRN":31,"el":55,"az":38,"ss":49,"used":true},{"PRN":32,"el":35,"az":118,"ss":44,"used":true},{"PRN":131,"el":32,"az":233,"ss":0,"used":false},{"PRN":135,"el":20,"az":247,"ss":41,"used":true},{"PRN":138,"el":39,"az":223,"ss":47,"used":true}]}
{"class":"TPV","device":"/dev/ttyACM0","mode":3,"time":"2019-05-22T11:07:42.000Z","ept":0.005,"lat":35.937279500,"lon":-78.930010500,"alt":106.200,"epx":2.077,"epy":3.374,"epv":7.878,"track":0.0000,"speed":0.008,"climb":0.000}
{"class":"TPV","device":"/dev/ttyACM0","mode":3,"time":"2019-05-22T11:07:43.000Z","ept":0.005,"lat":35.937279854,"lon":-78.930010184,"alt":105.581,"epx":2.077,"epy":3.374,"epv":7.878,"track":80.4544,"speed":0.014,"climb":-0.020,"eps":0.23,"epc":15.76}
{"class":"SKY","device":"/dev/ttyACM0","xdop":0.55,"ydop":0.90,"vdop":1.37,"tdop":0.83,"hdop":0.87,"gdop":1.83,"pdop":1.63,"satellites":[{"PRN":3,"el":42,"az":287,"ss":42,"used":true},{"PRN":14,"el":53,"az":105,"ss":45,"used":true},{"PRN":16,"el":41,"az":198,"ss":47,"used":true},{"PRN":22,"el":45,"az":258,"ss":37,"used":true},{"PRN":23,"el":17,"az":310,"ss":25,"used":true},{"PRN":25,"el":8,"az":40,"ss":25,"used":true},{"PRN":26,"el":73,"az":177,"ss":46,"used":true},{"PRN":29,"el":16,"az":64,"ss":30,"used":true},{"PRN":31,"el":55,"az":38,"ss":49,"used":true},{"PRN":32,"el":35,"az":118,"ss":43,"used":true},{"PRN":131,"el":32,"az":233,"ss":0,"used":false},{"PRN":135,"el":20,"az":247,"ss":41,"used":true},{"PRN":138,"el":39,"az":223,"ss":47,"used":true}]}
{"class":"TPV","device":"/dev/ttyACM0","mode":3,"time":"2019-05-22T11:07:43.000Z","ept":0.005,"lat":35.937279833,"lon":-78.930010167,"alt":106.200,"epx":2.077,"epy":3.374,"epv":7.878,"track":0.0000,"speed":0.008,"climb":0.000}
{"class":"TPV","device":"/dev/ttyACM0","mode":3,"time":"2019-05-22T11:07:44.000Z","ept":0.005,"lat":35.937280176,"lon":-78.930010534,"alt":105.549,"epx":2.077,"epy":3.374,"epv":7.878,"track":18.4363,"speed":0.006,"climb":-0.008,"eps":0.21,"epc":15.76}
{"class":"SKY","device":"/dev/ttyACM0","xdop":0.55,"ydop":0.90,"vdop":1.37,"tdop":0.83,"hdop":0.87,"gdop":1.83,"pdop":1.63,"satellites":[{"PRN":3,"el":42,"az":287,"ss":42,"used":true},{"PRN":14,"el":53,"az":105,"ss":45,"used":true},{"PRN":16,"el":41,"az":198,"ss":47,"used":true},{"PRN":22,"el":45,"az":258,"ss":38,"used":true},{"PRN":23,"el":17,"az":310,"ss":25,"used":true},{"PRN":25,"el":8,"az":40,"ss":26,"used":true},{"PRN":26,"el":73,"az":177,"ss":46,"used":true},{"PRN":29,"el":16,"az":64,"ss":30,"used":true},{"PRN":31,"el":55,"az":38,"ss":49,"used":true},{"PRN":32,"el":35,"az":118,"ss":43,"used":true},{"PRN":131,"el":32,"az":233,"ss":0,"used":false},{"PRN":135,"el":20,"az":247,"ss":41,"used":true},{"PRN":138,"el":39,"az":223,"ss":47,"used":true}]}
{"class":"TPV","device":"/dev/ttyACM0","mode":3,"time":"2019-05-22T11:07:44.000Z","ept":0.005,"lat":35.937280167,"lon":-78.930010500,"alt":106.100,"epx":2.077,"epy":3.374,"epv":7.878,"track":0.0000,"speed":0.005,"climb":0.000}
{"class":"TPV","device":"/dev/ttyACM0","mode":3,"time":"2019-05-22T11:07:45.000Z","ept":0.005,"lat":35.937280434,"lon":-78.930010993,"alt":105.509,"epx":2.077,"epy":3.374,"epv":7.878,"track":0.0000,"speed":0.000,"climb":0.000,"eps":0.10,"epc":15.76}
{"class":"SKY","device":"/dev/ttyACM0","xdop":0.55,"ydop":0.90,"vdop":1.37,"tdop":0.83,"hdop":0.87,"gdop":1.83,"pdop":1.63,"satellites":[{"PRN":3,"el":42,"az":287,"ss":42,"used":true},{"PRN":14,"el":53,"az":105,"ss":45,"used":true},{"PRN":16,"el":41,"az":198,"ss":47,"used":true},{"PRN":22,"el":45,"az":258,"ss":38,"used":true},{"PRN":23,"el":17,"az":310,"ss":25,"used":true},{"PRN":25,"el":8,"az":40,"ss":26,"used":true},{"PRN":26,"el":73,"az":177,"ss":46,"used":true},{"PRN":29,"el":16,"az":64,"ss":29,"used":true},{"PRN":31,"el":55,"az":38,"ss":49,"used":true},{"PRN":32,"el":35,"az":118,"ss":43,"used":true},{"PRN":131,"el":32,"az":233,"ss":0,"used":false},{"PRN":135,"el":20,"az":247,"ss":41,"used":true},{"PRN":138,"el":39,"az":223,"ss":47,"used":true}]}
{"class":"TPV","device":"/dev/ttyACM0","mode":3,"time":"2019-05-22T11:07:45.000Z","ept":0.005,"lat":35.937280500,"lon":-78.930011000,"alt":106.100,"epx":2.077,"epy":3.374,"epv":7.878,"track":0.0000,"speed":0.006,"climb":0.000}
{"class":"TPV","device":"/dev/ttyACM0","mode":3,"time":"2019-05-22T11:07:46.000Z","ept":0.005,"lat":35.937280847,"lon":-78.930011584,"alt":105.429,"epx":2.077,"epy":3.374,"epv":7.878,"track":18.4363,"speed":0.006,"climb":-0.008,"eps":0.19,"epc":15.76}
{"class":"SKY","device":"/dev/ttyACM0","xdop":0.55,"ydop":0.90,"vdop":1.37,"tdop":0.83,"hdop":0.87,"gdop":1.83,"pdop":1.63,"satellites":[{"PRN":3,"el":42,"az":287,"ss":42,"used":true},{"PRN":4,"el":0,"az":0,"ss":30,"used":false},{"PRN":14,"el":53,"az":105,"ss":45,"used":true},{"PRN":16,"el":41,"az":198,"ss":47,"used":true},{"PRN":22,"el":45,"az":258,"ss":38,"used":true},{"PRN":23,"el":17,"az":310,"ss":24,"used":true},{"PRN":25,"el":8,"az":40,"ss":26,"used":true},{"PRN":26,"el":73,"az":177,"ss":46,"used":true},{"PRN":29,"el":16,"az":64,"ss":29,"used":true},{"PRN":31,"el":55,"az":38,"ss":49,"used":true},{"PRN":32,"el":35,"az":118,"ss":43,"used":true},{"PRN":131,"el":32,"az":233,"ss":0,"used":false},{"PRN":135,"el":20,"az":247,"ss":41,"used":true},{"PRN":138,"el":39,"az":223,"ss":47,"used":true}]}
{"class":"TPV","device":"/dev/ttyACM0","mode":3,"time":"2019-05-22T11:07:46.000Z","ept":0.005,"lat":35.937280833,"lon":-78.930011667,"alt":106.000,"epx":2.077,"epy":3.374,"epv":7.878,"track":0.0000,"speed":0.010,"climb":0.000}
{"class":"TPV","device":"/dev/ttyACM0","mode":3,"time":"2019-05-22T11:07:47.000Z","ept":0.005,"lat":35.937281259,"lon":-78.930012026,"alt":105.264,"epx":2.077,"epy":3.374,"epv":7.878,"track":18.4363,"speed":0.006,"climb":-0.008,"eps":0.23,"epc":15.76}
{"class":"SKY","device":"/dev/ttyACM0","xdop":0.55,"ydop":0.90,"vdop":1.37,"tdop":0.83,"hdop":0.87,"gdop":1.83,"pdop":1.63,"satellites":[{"PRN":3,"el":42,"az":287,"ss":42,"used":true},{"PRN":4,"el":0,"az":0,"ss":27,"used":false},{"PRN":14,"el":53,"az":105,"ss":46,"used":true},{"PRN":16,"el":41,"az":198,"ss":47,"used":true},{"PRN":22,"el":45,"az":258,"ss":38,"used":true},{"PRN":23,"el":17,"az":310,"ss":24,"used":true},{"PRN":25,"el":8,"az":40,"ss":26,"used":true},{"PRN":26,"el":73,"az":177,"ss":46,"used":true},{"PRN":29,"el":16,"az":64,"ss":28,"used":true},{"PRN":31,"el":55,"az":38,"ss":49,"used":true},{"PRN":32,"el":35,"az":118,"ss":43,"used":true},{"PRN":131,"el":32,"az":233,"ss":0,"used":false},{"PRN":135,"el":20,"az":247,"ss":41,"used":true},{"PRN":138,"el":39,"az":223,"ss":47,"used":true}]}
{"class":"TPV","device":"/dev/ttyACM0","mode":3,"time":"2019-05-22T11:07:47.000Z","ept":0.005,"lat":35.937281167,"lon":-78.930012000,"alt":105.800,"epx":2.077,"epy":3.374,"epv":7.878,"track":0.0000,"speed":0.006,"climb":0.000}
{"class":"TPV","device":"/dev/ttyACM0","mode":3,"time":"2019-05-22T11:07:48.000Z","ept":0.005,"lat":35.937281531,"lon":-78.930013040,"alt":104.898,"epx":2.077,"epy":3.374,"epv":7.878,"track":18.4363,"speed":0.006,"climb":-0.008,"eps":0.16,"epc":15.76}
{"class":"SKY","device":"/dev/ttyACM0","xdop":0.55,"ydop":0.90,"vdop":1.37,"tdop":0.83,"hdop":0.87,"gdop":1.83,"pdop":1.63,"satellites":[{"PRN":3,"el":42,"az":287,"ss":41,"used":true},{"PRN":4,"el":-91,"az":0,"ss":23,"used":false},{"PRN":14,"el":53,"az":105,"ss":45,"used":true},{"PRN":16,"el":41,"az":198,"ss":47,"used":true},{"PRN":22,"el":45,"az":258,"ss":39,"used":true},{"PRN":23,"el":17,"az":310,"ss":23,"used":true},{"PRN":25,"el":8,"az":40,"ss":25,"used":true},{"PRN":26,"el":73,"az":177,"ss":46,"used":true},{"PRN":29,"el":16,"az":64,"ss":29,"used":true},{"PRN":31,"el":55,"az":38,"ss":49,"used":true},{"PRN":32,"el":35,"az":118,"ss":42,"used":true},{"PRN":135,"el":20,"az":247,"ss":41,"used":true},{"PRN":138,"el":39,"az":223,"ss":47,"used":true}]}
{"class":"SKY","device":"/dev/ttyACM0","xdop":0.55,"ydop":0.90,"vdop":1.37,"tdop":0.83,"hdop":0.87,"gdop":1.83,"pdop":1.63,"satellites":[{"PRN":3,"el":42,"az":287,"ss":41,"used":true},{"PRN":4,"el":0,"az":0,"ss":23,"used":false},{"PRN":14,"el":53,"az":105,"ss":45,"used":true},{"PRN":16,"el":41,"az":198,"ss":47,"used":true},{"PRN":22,"el":45,"az":258,"ss":39,"used":true},{"PRN":23,"el":17,"az":310,"ss":23,"used":true},{"PRN":25,"el":8,"az":40,"ss":25,"used":true},{"PRN":26,"el":73,"az":177,"ss":46,"used":true},{"PRN":29,"el":16,"az":64,"ss":29,"used":true},{"PRN":31,"el":55,"az":38,"ss":49,"used":true},{"PRN":32,"el":35,"az":118,"ss":42,"used":true},{"PRN":131,"el":32,"az":233,"ss":0,"used":false},{"PRN":135,"el":20,"az":247,"ss":41,"used":true},{"PRN":138,"el":39,"az":223,"ss":47,"used":true}]}
{"class":"TPV","device":"/dev/ttyACM0","mode":3,"time":"2019-05-22T11:07:48.000Z","ept":0.005,"lat":35.937281500,"lon":-78.930013000,"alt":105.500,"epx":2.077,"epy":3.374,"epv":7.878,"track":0.0000,"speed":0.006,"climb":0.000}
{"class":"TPV","device":"/dev/ttyACM0","mode":3,"time":"2019-05-22T11:07:49.000Z","ept":0.005,"lat":35.937281957,"lon":-78.930013818,"alt":104.475,"epx":2.077,"epy":3.374,"epv":7.878,"track":311.1018,"speed":0.010,"climb":-0.010,"eps":0.16,"epc":15.76}
{"class":"SKY","device":"/dev/ttyACM0","xdop":0.55,"ydop":0.90,"vdop":1.37,"tdop":0.83,"hdop":0.87,"gdop":1.83,"pdop":1.63,"satellites":[{"PRN":3,"el":42,"az":287,"ss":41,"used":true},{"PRN":14,"el":53,"az":105,"ss":46,"used":true},{"PRN":16,"el":41,"az":198,"ss":47,"used":true},{"PRN":22,"el":45,"az":258,"ss":39,"used":true},{"PRN":23,"el":17,"az":310,"ss":22,"used":true},{"PRN":25,"el":8,"az":40,"ss":26,"used":true},{"PRN":26,"el":73,"az":177,"ss":47,"used":true},{"PRN":29,"el":16,"az":64,"ss":29,"used":true},{"PRN":31,"el":55,"az":38,"ss":49,"used":true},{"PRN":32,"el":35,"az":118,"ss":42,"used":true},{"PRN":131,"el":32,"az":233,"ss":0,"used":false},{"PRN":135,"el":20,"az":247,"ss":41,"used":true},{"PRN":138,"el":39,"az":223,"ss":47,"used":true}]}
{"class":"TPV","device":"/dev/ttyACM0","mode":3,"time":"2019-05-22T11:07:49.000Z","ept":0.005,"lat":35.937282000,"lon":-78.930013833,"alt":105.000,"epx":2.077,"epy":3.374,"epv":7.878,"track":0.0000,"speed":0.011,"climb":0.000}
{"class":"TPV","device":"/dev/ttyACM0","mode":3,"time":"2019-05-22T11:07:50.000Z","ept":0.005,"lat":35.937282217,"lon":-78.930014206,"alt":104.009,"epx":2.077,"epy":3.374,"epv":7.878,"track":79.3214,"speed":0.006,"climb":-0.036,"eps":0.24,"epc":15.76}
{"class":"SKY","device":"/dev/ttyACM0","xdop":0.55,"ydop":0.90,"vdop":1.37,"tdop":0.83,"hdop":0.87,"gdop":1.83,"pdop":1.63,"satellites":[{"PRN":3,"el":42,"az":287,"ss":41,"used":true},{"PRN":14,"el":53,"az":105,"ss":45,"used":true},{"PRN":16,"el":41,"az":198,"ss":47,"used":true},{"PRN":22,"el":45,"az":258,"ss":39,"used":true},{"PRN":23,"el":17,"az":310,"ss":22,"used":true},{"PRN":25,"el":8,"az":40,"ss":26,"used":true},{"PRN":26,"el":73,"az":177,"ss":47,"used":true},{"PRN":29,"el":16,"az":64,"ss":29,"used":true},{"PRN":31,"el":55,"az":38,"ss":49,"used":true},{"PRN":32,"el":35,"az":118,"ss":42,"used":true},{"PRN":131,"el":32,"az":233,"ss":0,"used":false},{"PRN":135,"el":20,"az":247,"ss":41,"used":true},{"PRN":138,"el":39,"az":223,"ss":47,"used":true}]}
{"class":"TPV","device":"/dev/ttyACM0","mode":3,"time":"2019-05-22T11:07:50.000Z","ept":0.005,"lat":35.937282167,"lon":-78.930014167,"alt":104.600,"epx":2.077,"epy":3.374,"epv":7.878,"track":0.0000,"speed":0.004,"climb":0.000}
{"class":"TPV","device":"/dev/ttyACM0","mode":3,"time":"2019-05-22T11:07:51.000Z","ept":0.005,"lat":35.937282184,"lon":-78.930014617,"alt":103.469,"epx":2.077,"epy":3.374,"epv":7.878,"track":99.2486,"speed":0.008,"climb":-0.049,"eps":0.25,"epc":15.76}
{"class":"SKY","device":"/dev/ttyACM0","xdop":0.55,"ydop":0.90,"vdop":1.37,"tdop":0.83,"hdop":0.87,"gdop":1.83,"pdop":1.63,"satellites":[{"PRN":3,"el":42,"az":287,"ss":41,"used":true},{"PRN":14,"el":53,"az":105,"ss":45,"used":true},{"PRN":16,"el":41,"az":198,"ss":46,"used":true},{"PRN":22,"el":45,"az":258,"ss":39,"used":true},{"PRN":23,"el":17,"az":310,"ss":22,"used":true},{"PRN":25,"el":8,"az":40,"ss":26,"used":true},{"PRN":26,"el":73,"az":177,"ss":47,"used":true},{"PRN":29,"el":16,"az":64,"ss":29,"used":true},{"PRN":31,"el":55,"az":38,"ss":49,"used":true},{"PRN":32,"el":35,"az":118,"ss":42,"used":true},{"PRN":131,"el":32,"az":233,"ss":0,"used":false},{"PRN":135,"el":20,"az":247,"ss":41,"used":true},{"PRN":138,"el":39,"az":223,"ss":47,"used":true}]}
{"class":"TPV","device":"/dev/ttyACM0","mode":3,"time":"2019-05-22T11:07:51.000Z","ept":0.005,"lat":35.937282167,"lon":-78.930014500,"alt":104.000,"epx":2.077,"epy":3.374,"epv":7.878,"track":0.0000,"speed":0.012,"climb":0.000}
{"class":"TPV","device":"/dev/ttyACM0","mode":3,"time":"2019-05-22T11:07:52.000Z","ept":0.005,"lat":35.937282368,"lon":-78.930015076,"alt":102.845,"epx":2.077,"epy":3.374,"epv":7.878,"track":134.5727,"speed":0.016,"climb":-0.018,"eps":0.22,"epc":15.76}
{"class":"SKY","device":"/dev/ttyACM0","xdop":0.55,"ydop":0.90,"vdop":1.37,"tdop":0.83,"hdop":0.87,"gdop":1.83,"pdop":1.63,"satellites":[{"PRN":3,"el":42,"az":287,"ss":40,"used":true},{"PRN":14,"el":53,"az":105,"ss":45,"used":true},{"PRN":16,"el":41,"az":198,"ss":46,"used":true},{"PRN":22,"el":45,"az":258,"ss":39,"used":true},{"PRN":23,"el":17,"az":310,"ss":21,"used":true},{"PRN":25,"el":8,"az":40,"ss":25,"used":true},{"PRN":26,"el":73,"az":177,"ss":47,"used":true},{"PRN":29,"el":16,"az":64,"ss":29,"used":true},{"PRN":31,"el":55,"az":38,"ss":49,"used":true},{"PRN":32,"el":35,"az":118,"ss":42,"used":true},{"PRN":131,"el":32,"az":233,"ss":0,"used":false},{"PRN":135,"el":20,"az":247,"ss":41,"used":true},{"PRN":138,"el":39,"az":223,"ss":47,"used":true}]}
