{"class":"VERSION","release":"3.16","rev":"3.16-4","proto_major":3,"proto_minor":11}
{"class":"DEVICES","devices":[{"class":"DEVICE","path":"/dev/ttyACM0","activated":"2019-05-16T21:08:31.147Z","native":0,"bps":9600,"parity":"N","stopbits":1,"cycle":1.00}]}
{"class":"WATCH","enable":true,"json":true,"nmea":false,"raw":0,"scaled":false,"timing":false,"split24":false,"pps":false}
{"class":"SKY","device":"/dev/ttyACM0","xdop":0.63,"ydop":0.90,"vdop":1.23,"tdop":0.82,"hdop":1.10,"gdop":1.84,"pdop":1.65,"satellites":[{"PRN":1,"el":5,"az":48,"ss":17,"used":true},{"PRN":2,"el":22,"az":238,"ss":26,"used":true},{"PRN":3,"el":28,"az":57,"ss":28,"used":true},{"PRN":6,"el":60,"az":244,"ss":27,"used":true},{"PRN":12,"el":2,"az":319,"ss":0,"used":false},{"PRN":17,"el":63,"az":23,"ss":39,"used":true},{"PRN":19,"el":60,"az":333,"ss":35,"used":true},{"PRN":22,"el":13,"az":43,"ss":19,"used":true},{"PRN":24,"el":17,"az":296,"ss":20,"used":true},{"PRN":28,"el":53,"az":143,"ss":37,"used":true},{"PRN":135,"el":20,"az":247,"ss":0,"used":false},{"PRN":138,"el":39,"az":223,"ss":0,"used":false}]}
{"class":"TPV","device":"/dev/ttyACM0","mode":3,"time":"2019-05-16T21:08:32.000Z","ept":0.005,"lat":35.937695833,"lon":-78.924425167,"alt":106.600,"epx":9.392,"epy":13.513,"epv":28.290,"track":139.4000,"speed":14.253,"climb":0.000}
{"class":"SKY","device":"/dev/ttyACM0","xdop":0.63,"ydop":0.90,"vdop":1.23,"tdop":0.82,"hdop":1.10,"gdop":1.84,"pdop":1.65,"satellites":[{"PRN":1,"el":5,"az":48,"ss":15,"used":true},{"PRN":2,"el":22,"az":238,"ss":25,"used":true},{"PRN":3,"el":28,"az":57,"ss":27,"used":true},{"PRN":6,"el":60,"az":244,"ss":24,"used":true},{"PRN":12,"el":2,"az":319,"ss":0,"used":false},{"PRN":17,"el":63,"az":23,"ss":37,"used":true},{"PRN":19,"el":60,"az":333,"ss":33,"used":true},{"PRN":22,"el":13,"az":43,"ss":17,"used":true},{"PRN":24,"el":17,"az":296,"ss":13,"used":true},{"PRN":28,"el":53,"az":143,"ss":37,"used":true},{"PRN":135,"el":20,"az":247,"ss":0,"used":false},{"PRN":138,"el":39,"az":223,"ss":0,"used":false}]}
{"class":"TPV","device":"/dev/ttyACM0","mode":3,"time":"2019-05-16T21:08:33.000Z","ept":0.005,"lat":35.937595000,"lon":-78.924329833,"alt":106.000,"epx":9.392,"epy":13.513,"epv":28.290,"track":142.5500,"speed":14.090,"climb":0.000,"eps":27.03}
{"class":"SKY","device":"/dev/ttyACM0","xdop":0.63,"ydop":0.90,"vdop":1.23,"tdop":0.82,"hdop":1.10,"gdop":1.84,"pdop":1.65,"satellites":[{"PRN":1,"el":5,"az":48,"ss":14,"used":true},{"PRN":2,"el":22,"az":238,"ss":27,"used":true},{"PRN":3,"el":28,"az":57,"ss":26,"used":true},{"PRN":6,"el":60,"az":244,"ss":35,"used":true},{"PRN":12,"el":2,"az":319,"ss":0,"used":false},{"PRN":17,"el":63,"az":23,"ss":37,"used":true},{"PRN":19,"el":60,"az":333,"ss":33,"used":true},{"PRN":22,"el":13,"az":43,"ss":19,"used":true},{"PRN":24,"el":17,"az":296,"ss":11,"used":true},{"PRN":28,"el":53,"az":143,"ss":38,"used":true},{"PRN":135,"el":20,"az":247,"ss":0,"used":false},{"PRN":138,"el":39,"az":223,"ss":0,"used":false}]}
{"class":"TPV","device":"/dev/ttyACM0","mode":3,"time":"2019-05-16T21:08:34.000Z","ept":0.005,"lat":35.937493833,"lon":-78.924235500,"alt":105.300,"epx":9.392,"epy":13.513,"epv":28.290,"track":143.0100,"speed":14.163,"climb":0.000,"eps":27.03}
{"class":"SKY","device":"/dev/ttyACM0","xdop":0.63,"ydop":0.90,"vdop":1.40,"tdop":0.82,"hdop":1.12,"gdop":1.84,"pdop":1.79,"satellites":[{"PRN":1,"el":5,"az":48,"ss":0,"used":false},{"PRN":2,"el":22,"az":238,"ss":28,"used":true},{"PRN":3,"el":28,"az":57,"ss":27,"used":true},{"PRN":6,"el":60,"az":244,"ss":35,"used":true},{"PRN":12,"el":2,"az":319,"ss":0,"used":false},{"PRN":17,"el":63,"az":23,"ss":38,"used":true},{"PRN":19,"el":60,"az":333,"ss":34,"used":true},{"PRN":22,"el":13,"az":43,"ss":20,"used":true},{"PRN":24,"el":17,"az":296,"ss":10,"used":true},{"PRN":28,"el":53,"az":143,"ss":38,"used":true},{"PRN":135,"el":20,"az":247,"ss":0,"used":false},{"PRN":138,"el":39,"az":223,"ss":0,"used":false}]}
{"class":"TPV","device":"/dev/ttyACM0","mode":3,"time":"2019-05-16T21:08:35.000Z","ept":0.005,"lat":35.937393833,"lon":-78.924139333,"alt":105.100,"epx":9.392,"epy":13.513,"epv":28.290,"track":141.6000,"speed":14.127,"climb":0.000,"eps":27.03}
{"class":"SKY","device":"/dev/ttyACM0","xdop":0.63,"ydop":0.90,"vdop":1.40,"tdop":0.82,"hdop":1.12,"gdop":1.84,"pdop":1.79,"satellites":[{"PRN":1,"el":5,"az":48,"ss":20,"used":false},{"PRN":2,"el":22,"az":238,"ss":26,"used":true},{"PRN":3,"el":28,"az":57,"ss":26,"used":true},{"PRN":6,"el":60,"az":244,"ss":32,"used":true},{"PRN":12,"el":2,"az":319,"ss":0,"used":false},{"PRN":17,"el":63,"az":23,"ss":37,"used":true},{"PRN":19,"el":60,"az":333,"ss":37,"used":true},{"PRN":22,"el":13,"az":43,"ss":22,"used":true},{"PRN":24,"el":17,"az":296,"ss":11,"used":true},{"PRN":28,"el":53,"az":143,"ss":36,"used":true},{"PRN":135,"el":20,"az":247,"ss":0,"used":false},{"PRN":138,"el":39,"az":223,"ss":0,"used":false}]}
{"class":"TPV","device":"/dev/ttyACM0","mode":3,"time":"2019-05-16T21:08:36.000Z","ept":0.005,"lat":35.937294333,"lon":-78.924041833,"alt":104.300,"epx":9.392,"epy":13.513,"epv":32.200,"track":141.2900,"speed":14.187,"climb":0.000,"eps":27.03}
{"class":"SKY","device":"/dev/ttyACM0","xdop":0.63,"ydop":0.90,"vdop":1.32,"tdop":0.82,"hdop":1.35,"gdop":1.84,"pdop":1.89,"satellites":[{"PRN":1,"el":5,"az":48,"ss":24,"used":true},{"PRN":2,"el":22,"az":238,"ss":26,"used":true},{"PRN":3,"el":28,"az":57,"ss":27,"used":true},{"PRN":6,"el":60,"az":244,"ss":35,"used":true},{"PRN":12,"el":2,"az":319,"ss":0,"used":false},{"PRN":17,"el":63,"az":23,"ss":37,"used":true},{"PRN":19,"el":60,"az":333,"ss":39,"used":true},{"PRN":22,"el":13,"az":43,"ss":27,"used":true},{"PRN":24,"el":17,"az":296,"ss":9,"used":false},{"PRN":28,"el":53,"az":143,"ss":36,"used":true},{"PRN":135,"el":20,"az":247,"ss":0,"used":false},{"PRN":138,"el":39,"az":223,"ss":0,"used":false}]}
{"class":"TPV","device":"/dev/ttyACM0","mode":3,"time":"2019-05-16T21:08:37.000Z","ept":0.005,"lat":35.937193333,"lon":-78.923941000,"alt":104.800,"epx":9.392,"epy":13.513,"epv":32.200,"track":141.3500,"speed":14.344,"climb":0.000,"eps":27.03}
{"class":"SKY","device":"/dev/ttyACM0","xdop":0.63,"ydop":0.90,"vdop":1.32,"tdop":0.82,"hdop":1.35,"gdop":1.84,"pdop":1.89,"satellites":[{"PRN":1,"el":5,"az":48,"ss":21,"used":true},{"PRN":2,"el":22,"az":238,"ss":27,"used":true},{"PRN":3,"el":28,"az":57,"ss":27,"used":true},{"PRN":6,"el":60,"az":244,"ss":36,"used":true},{"PRN":12,"el":2,"az":319,"ss":0,"used":false},{"PRN":17,"el":63,"az":23,"ss":36,"used":true},{"PRN":19,"el":60,"az":333,"ss":40,"used":true},{"PRN":22,"el":13,"az":43,"ss":26,"used":true},{"PRN":24,"el":17,"az":296,"ss":9,"used":false},{"PRN":28,"el":53,"az":143,"ss":37,"used":true},{"PRN":135,"el":20,"az":247,"ss":0,"used":false},{"PRN":138,"el":39,"az":223,"ss":0,"used":false}]}
{"class":"TPV","device":"/dev/ttyACM0","mode":3,"time":"2019-05-16T21:08:38.000Z","ept":0.005,"lat":35.937091667,"lon":-78.923843667,"alt":105.000,"epx":9.392,"epy":13.513,"epv":30.360,"track":141.7000,"speed":14.093,"climb":0.000,"eps":27.03}
{"class":"SKY","device":"/dev/ttyACM0","xdop":0.63,"ydop":0.90,"vdop":1.32,"tdop":0.82,"hdop":1.35,"gdop":1.84,"pdop":1.89,"satellites":[{"PRN":1,"el":5,"az":48,"ss":19,"used":true},{"PRN":2,"el":22,"az":238,"ss":26,"used":true},{"PRN":3,"el":28,"az":57,"ss":26,"used":true},{"PRN":6,"el":60,"az":244,"ss":36,"used":true},{"PRN":12,"el":2,"az":319,"ss":0,"used":false},{"PRN":17,"el":63,"az":23,"ss":35,"used":true},{"PRN":19,"el":60,"az":333,"ss":40,"used":true},{"PRN":22,"el":13,"az":43,"ss":26,"used":true},{"PRN":24,"el":17,"az":296,"ss":9,"used":false},{"PRN":28,"el":53,"az":143,"ss":36,"used":true},{"PRN":135,"el":20,"az":247,"ss":0,"used":false},{"PRN":138,"el":39,"az":223,"ss":0,"used":false}]}
{"class":"TPV","device":"/dev/ttyACM0","mode":3,"time":"2019-05-16T21:08:39.000Z","ept":0.005,"lat":35.936990667,"lon":-78.923742000,"alt":105.700,"epx":9.392,"epy":13.513,"epv":30.360,"track":141.7100,"speed":14.233,"climb":0.000,"eps":27.03}
{"class":"SKY","device":"/dev/ttyACM0","xdop":0.63,"ydop":0.90,"vdop":1.53,"tdop":0.82,"hdop":1.36,"gdop":1.84,"pdop":2.05,"satellites":[{"PRN":1,"el":5,"az":48,"ss":0,"used":false},{"PRN":2,"el":22,"az":238,"ss":26,"used":true},{"PRN":3,"el":28,"az":57,"ss":26,"used":true},{"PRN":6,"el":60,"az":244,"ss":36,"used":true},{"PRN":12,"el":2,"az":319,"ss":0,"used":false},{"PRN":17,"el":63,"az":23,"ss":35,"used":true},{"PRN":19,"el":60,"az":333,"ss":40,"used":true},{"PRN":22,"el":13,"az":43,"ss":22,"used":true},{"PRN":24,"el":17,"az":296,"ss":9,"used":false},{"PRN":28,"el":53,"az":143,"ss":35,"used":true},{"PRN":135,"el":20,"az":247,"ss":0,"used":false},{"PRN":138,"el":39,"az":223,"ss":0,"used":false}]}
{"class":"TPV","device":"/dev/ttyACM0","mode":3,"time":"2019-05-16T21:08:40.000Z","ept":0.005,"lat":35.936888167,"lon":-78.923640500,"alt":106.300,"epx":9.392,"epy":13.513,"epv":30.360,"track":141.6800,"speed":14.364,"climb":0.000,"eps":27.03}
{"class":"SKY","device":"/dev/ttyACM0","xdop":0.63,"ydop":0.90,"vdop":1.53,"tdop":0.82,"hdop":1.36,"gdop":1.84,"pdop":2.05,"satellites":[{"PRN":1,"el":5,"az":48,"ss":17,"used":false},{"PRN":2,"el":22,"az":238,"ss":27,"used":true},{"PRN":3,"el":28,"az":57,"ss":25,"used":true},{"PRN":6,"el":60,"az":244,"ss":36,"used":true},{"PRN":12,"el":2,"az":319,"ss":0,"used":false},{"PRN":17,"el":63,"az":23,"ss":34,"used":true},{"PRN":19,"el":60,"az":333,"ss":40,"used":true},{"PRN":22,"el":13,"az":43,"ss":23,"used":true},{"PRN":24,"el":17,"az":296,"ss":8,"used":false},{"PRN":28,"el":53,"az":143,"ss":36,"used":true},{"PRN":135,"el":20,"az":247,"ss":0,"used":false},{"PRN":138,"el":39,"az":223,"ss":0,"used":false}]}
{"class":"TPV","device":"/dev/ttyACM0","mode":3,"time":"2019-05-16T21:08:41.000Z","ept":0.005,"lat":35.936786167,"lon":-78.923540667,"alt":106.600,"epx":9.392,"epy":13.513,"epv":35.190,"track":141.6100,"speed":14.258,"climb":0.000,"eps":27.03}
{"class":"SKY","device":"/dev/ttyACM0","xdop":0.63,"ydop":0.90,"vdop":1.40,"tdop":0.82,"hdop":1.12,"gdop":1.84,"pdop":1.79,"satellites":[{"PRN":1,"el":5,"az":48,"ss":17,"used":false},{"PRN":2,"el":22,"az":238,"ss":27,"used":true},{"PRN":3,"el":28,"az":57,"ss":26,"used":true},{"PRN":6,"el":60,"az":244,"ss":34,"used":true},{"PRN":12,"el":2,"az":319,"ss":0,"used":false},{"PRN":17,"el":63,"az":23,"ss":35,"used":true},{"PRN":19,"el":60,"az":333,"ss":40,"used":true},{"PRN":22,"el":13,"az":43,"ss":25,"used":true},{"PRN":24,"el":17,"az":296,"ss":10,"used":true},{"PRN":28,"el":53,"az":143,"ss":35,"used":true},{"PRN":135,"el":20,"az":247,"ss":0,"used":false},{"PRN":138,"el":39,"az":223,"ss":0,"used":false}]}
{"class":"TPV","device":"/dev/ttyACM0","mode":3,"time":"2019-05-16T21:08:42.000Z","ept":0.005,"lat":35.936685667,"lon":-78.923439500,"alt":107.100,"epx":9.392,"epy":13.513,"epv":35.190,"track":141.0600,"speed":14.169,"climb":0.000,"eps":27.03}
{"class":"SKY","device":"/dev/ttyACM0","xdop":0.63,"ydop":0.90,"vdop":1.40,"tdop":0.82,"hdop":1.12,"gdop":1.84,"pdop":1.79,"satellites":[{"PRN":1,"el":5,"az":48,"ss":16,"used":false},{"PRN":2,"el":22,"az":238,"ss":26,"used":true},{"PRN":3,"el":28,"az":57,"ss":26,"used":true},{"PRN":6,"el":60,"az":244,"ss":37,"used":true},{"PRN":12,"el":2,"az":319,"ss":0,"used":false},{"PRN":17,"el":63,"az":23,"ss":35,"used":true},{"PRN":19,"el":60,"az":333,"ss":40,"used":true},{"PRN":22,"el":13,"az":43,"ss":25,"used":true},{"PRN":24,"el":17,"az":296,"ss":11,"used":true},{"PRN":28,"el":53,"az":143,"ss":34,"used":true},{"PRN":135,"el":20,"az":247,"ss":0,"used":false},{"PRN":138,"el":39,"az":223,"ss":0,"used":false}]}
{"class":"TPV","device":"/dev/ttyACM0","mode":3,"time":"2019-05-16T21:08:43.000Z","ept":0.005,"lat":35.936588333,"lon":-78.923334333,"alt":107.800,"epx":9.392,"epy":13.513,"epv":32.200,"track":138.2300,"speed":14.213,"climb":0.000,"eps":27.03}
{"class":"SKY","device":"/dev/ttyACM0","xdop":0.63,"ydop":0.90,"vdop":1.40,"tdop":0.82,"hdop":1.12,"gdop":1.84,"pdop":1.79,"satellites":[{"PRN":1,"el":5,"az":48,"ss":17,"used":false},{"PRN":2,"el":22,"az":238,"ss":32,"used":true},{"PRN":3,"el":28,"az":57,"ss":26,"used":true},{"PRN":6,"el":60,"az":244,"ss":30,"used":true},{"PRN":12,"el":2,"az":319,"ss":0,"used":false},{"PRN":17,"el":63,"az":23,"ss":35,"used":true},{"PRN":19,"el":60,"az":333,"ss":40,"used":true},{"PRN":22,"el":13,"az":43,"ss":25,"used":true},{"PRN":24,"el":17,"az":296,"ss":12,"used":true},{"PRN":28,"el":53,"az":143,"ss":30,"used":true},{"PRN":135,"el":20,"az":247,"ss":0,"used":false},{"PRN":138,"el":39,"az":223,"ss":0,"used":false}]}
{"class":"TPV","device":"/dev/ttyACM0","mode":3,"time":"2019-05-16T21:08:44.000Z","ept":0.005,"lat":35.936493667,"lon":-78.923226000,"alt":108.300,"epx":9.392,"epy":13.513,"epv":32.200,"track":136.3800,"speed":14.207,"climb":0.000,"eps":27.03}
{"class":"SKY","device":"/dev/ttyACM0","xdop":0.63,"ydop":0.90,"vdop":1.23,"tdop":0.82,"hdop":1.10,"gdop":1.84,"pdop":1.65,"satellites":[{"PRN":1,"el":5,"az":48,"ss":17,"used":true},{"PRN":2,"el":22,"az":238,"ss":25,"used":true},{"PRN":3,"el":28,"az":57,"ss":27,"used":true},{"PRN":6,"el":60,"az":244,"ss":30,"used":true},{"PRN":12,"el":2,"az":319,"ss":0,"used":false},{"PRN":17,"el":63,"az":23,"ss":37,"used":true},{"PRN":19,"el":60,"az":333,"ss":40,"used":true},{"PRN":22,"el":13,"az":43,"ss":23,"used":true},{"PRN":24,"el":17,"az":296,"ss":15,"used":true},{"PRN":28,"el":53,"az":143,"ss":29,"used":true},{"PRN":135,"el":20,"az":247,"ss":0,"used":false},{"PRN":138,"el":39,"az":223,"ss":0,"used":false}]}
{"class":"TPV","device":"/dev/ttyACM0","mode":3,"time":"2019-05-16T21:08:45.000Z","ept":0.005,"lat":35.936403500,"lon":-78.923110500,"alt":107.500,"epx":9.392,"epy":13.513,"epv":32.200,"track":133.0600,"speed":14.475,"climb":0.000,"eps":27.03}
{"class":"SKY","device":"/dev/ttyACM0","xdop":0.63,"ydop":0.90,"vdop":1.23,"tdop":0.82,"hdop":1.10,"gdop":1.84,"pdop":1.65,"satellites":[{"PRN":1,"el":5,"az":48,"ss":16,"used":true},{"PRN":2,"el":22,"az":238,"ss":23,"used":true},{"PRN":3,"el":28,"az":57,"ss":33,"used":true},{"PRN":6,"el":60,"az":244,"ss":24,"used":true},{"PRN":12,"el":2,"az":319,"ss":0,"used":false},{"PRN":17,"el":63,"az":23,"ss":37,"used":true},{"PRN":19,"el":60,"az":333,"ss":40,"used":true},{"PRN":22,"el":13,"az":43,"ss":21,"used":true},{"PRN":24,"el":17,"az":296,"ss":16,"used":true},{"PRN":28,"el":53,"az":143,"ss":28,"used":true},{"PRN":135,"el":20,"az":247,"ss":0,"used":false},{"PRN":138,"el":39,"az":223,"ss":0,"used":false}]}
{"class":"TPV","device":"/dev/ttyACM0","mode":3,"time":"2019-05-16T21:08:46.000Z","ept":0.005,"lat":35.936313333,"lon":-78.922992833,"alt":107.900,"epx":9.392,"epy":13.513,"epv":28.290,"track":132.8700,"speed":14.628,"climb":0.000,"eps":27.03}
{"class":"SKY","device":"/dev/ttyACM0","xdop":0.63,"ydop":0.90,"vdop":1.23,"tdop":0.82,"hdop":1.10,"gdop":1.84,"pdop":1.65,"satellites":[{"PRN":1,"el":5,"az":48,"ss":16,"used":true},{"PRN":2,"el":22,"az":238,"ss":21,"used":true},{"PRN":3,"el":28,"az":57,"ss":29,"used":true},{"PRN":6,"el":60,"az":244,"ss":30,"used":true},{"PRN":12,"el":2,"az":319,"ss":0,"used":false},{"PRN":17,"el":63,"az":23,"ss":37,"used":true},{"PRN":19,"el":60,"az":333,"ss":40,"used":true},{"PRN":22,"el":13,"az":43,"ss":21,"used":true},{"PRN":24,"el":17,"az":296,"ss":19,"used":true},{"PRN":28,"el":53,"az":143,"ss":28,"used":true},{"PRN":135,"el":20,"az":247,"ss":0,"used":false},{"PRN":138,"el":39,"az":223,"ss":0,"used":false}]}
{"class":"TPV","device":"/dev/ttyACM0","mode":3,"time":"2019-05-16T21:08:47.000Z","ept":0.005,"lat":35.936225333,"lon":-78.922870500,"alt":108.500,"epx":9.392,"epy":13.513,"epv":28.290,"track":131.9200,"speed":14.746,"climb":0.000,"eps":27.03}
{"class":"SKY","device":"/dev/ttyACM0","xdop":0.63,"ydop":0.90,"vdop":1.23,"tdop":0.82,"hdop":1.10,"gdop":1.84,"pdop":1.65,"satellites":[{"PRN":1,"el":5,"az":48,"ss":17,"used":true},{"PRN":2,"el":22,"az":238,"ss":19,"used":true},{"PRN":3,"el":28,"az":57,"ss":23,"used":true},{"PRN":6,"el":60,"az":244,"ss":23,"used":true},{"PRN":12,"el":2,"az":319,"ss":0,"used":false},{"PRN":17,"el":63,"az":23,"ss":37,"used":true},{"PRN":19,"el":60,"az":333,"ss":40,"used":true},{"PRN":22,"el":13,"az":43,"ss":23,"used":true},{"PRN":24,"el":17,"az":296,"ss":17,"used":true},{"PRN":28,"el":53,"az":143,"ss":32,"used":true},{"PRN":135,"el":20,"az":247,"ss":0,"used":false},{"PRN":138,"el":39,"az":223,"ss":0,"used":false}]}
{"class":"TPV","device":"/dev/ttyACM0","mode":3,"time":"2019-05-16T21:08:48.000Z","ept":0.005,"lat":35.936139833,"lon":-78.922743667,"alt":108.400,"epx":9.392,"epy":13.513,"epv":28.290,"track":129.5600,"speed":14.892,"climb":0.000,"eps":27.03}
{"class":"SKY","device":"/dev/ttyACM0","xdop":0.63,"ydop":0.90,"vdop":1.23,"tdop":0.82,"hdop":1.10,"gdop":1.84,"pdop":1.65,"satellites":[{"PRN":1,"el":5,"az":48,"ss":18,"used":true},{"PRN":2,"el":22,"az":238,"ss":19,"used":true},{"PRN":3,"el":28,"az":57,"ss":22,"used":true},{"PRN":6,"el":60,"az":244,"ss":31,"used":true},{"PRN":12,"el":2,"az":319,"ss":0,"used":false},{"PRN":17,"el":63,"az":23,"ss":37,"used":true},{"PRN":19,"el":60,"az":333,"ss":39,"used":true},{"PRN":22,"el":13,"az":43,"ss":22,"used":true},{"PRN":24,"el":17,"az":296,"ss":15,"used":true},{"PRN":28,"el":53,"az":143,"ss":34,"used":true},{"PRN":135,"el":20,"az":247,"ss":0,"used":false},{"PRN":138,"el":39,"az":223,"ss":0,"used":false}]}
{"class":"TPV","device":"/dev/ttyACM0","mode":3,"time":"2019-05-16T21:08:49.000Z","ept":0.005,"lat":35.936056000,"lon":-78.922613333,"alt":108.300,"epx":9.392,"epy":13.513,"epv":28.290,"track":128.3400,"speed":14.913,"climb":0.000,"eps":27.03}
{"class":"SKY","device":"/dev/ttyACM0","xdop":0.63,"ydop":0.90,"vdop":1.23,"tdop":0.82,"hdop":1.10,"gdop":1.84,"pdop":1.65,"satellites":[{"PRN":1,"el":5,"az":48,"ss":18,"used":true},{"PRN":2,"el":22,"az":238,"ss":19,"used":true},{"PRN":3,"el":28,"az":57,"ss":23,"used":true},{"PRN":6,"el":60,"az":244,"ss":31,"used":true},{"PRN":12,"el":2,"az":319,"ss":0,"used":false},{"PRN":17,"el":63,"az":23,"ss":37,"used":true},{"PRN":19,"el":60,"az":333,"ss":39,"used":true},{"PRN":22,"el":13,"az":43,"ss":22,"used":true},{"PRN":24,"el":17,"az":296,"ss":10,"used":true},{"PRN":28,"el":53,"az":143,"ss":35,"used":true},{"PRN":135,"el":20,"az":247,"ss":0,"used":false},{"PRN":138,"el":39,"az":223,"ss":0,"used":false}]}
{"class":"TPV","device":"/dev/ttyACM0","mode":3,"time":"2019-05-16T21:08:50.000Z","ept":0.005,"lat":35.935977667,"lon":-78.922475167,"alt":107.400,"epx":9.392,"epy":13.513,"epv":28.290,"track":124.6400,"speed":15.069,"climb":0.000,"eps":27.03}
{"class":"SKY","device":"/dev/ttyACM0","xdop":0.63,"ydop":0.90,"vdop":1.23,"tdop":0.82,"hdop":1.10,"gdop":1.84,"pdop":1.65,"satellites":[{"PRN":1,"el":5,"az":48,"ss":20,"used":true},{"PRN":2,"el":22,"az":238,"ss":19,"used":true},{"PRN":3,"el":28,"az":57,"ss":26,"used":true},{"PRN":6,"el":60,"az":244,"ss":30,"used":true},{"PRN":12,"el":2,"az":319,"ss":0,"used":false},{"PRN":17,"el":63,"az":23,"ss":39,"used":true},{"PRN":19,"el":60,"az":333,"ss":39,"used":true},{"PRN":22,"el":13,"az":43,"ss":25,"used":true},{"PRN":24,"el":17,"az":296,"ss":13,"used":true},{"PRN":28,"el":53,"az":143,"ss":38,"used":true},{"PRN":135,"el":20,"az":247,"ss":0,"used":false},{"PRN":138,"el":39,"az":223,"ss":0,"used":false}]}
{"class":"TPV","device":"/dev/ttyACM0","mode":3,"time":"2019-05-16T21:08:51.000Z","ept":0.005,"lat":35.935906167,"lon":-78.922334167,"alt":107.100,"epx":9.392,"epy":13.513,"epv":28.290,"track":122.8100,"speed":15.157,"climb":0.000,"eps":27.03}
{"class":"SKY","device":"/dev/ttyACM0","xdop":0.63,"ydop":0.90,"vdop":1.23,"tdop":0.82,"hdop":1.10,"gdop":1.84,"pdop":1.65,"satellites":[{"PRN":1,"el":5,"az":48,"ss":20,"used":true},{"PRN":2,"el":22,"az":238,"ss":23,"used":true},{"PRN":3,"el":28,"az":57,"ss":26,"used":true},{"PRN":6,"el":60,"az":244,"ss":34,"used":true},{"PRN":12,"el":2,"az":319,"ss":0,"used":false},{"PRN":17,"el":63,"az":23,"ss":37,"used":true},{"PRN":19,"el":60,"az":333,"ss":37,"used":true},{"PRN":22,"el":13,"az":43,"ss":24,"used":true},{"PRN":24,"el":17,"az":296,"ss":19,"used":true},{"PRN":28,"el":53,"az":143,"ss":37,"used":true},{"PRN":135,"el":20,"az":247,"ss":0,"used":false},{"PRN":138,"el":39,"az":223,"ss":0,"used":false}]}
{"class":"TPV","device":"/dev/ttyACM0","mode":3,"time":"2019-05-16T21:08:52.000Z","ept":0.005,"lat":35.935835167,"lon":-78.922189833,"alt":106.100,"epx":9.392,"epy":13.513,"epv":28.290,"track":121.7600,"speed":15.313,"climb":0.000,"eps":27.03}
{"class":"SKY","device":"/dev/ttyACM0","xdop":0.63,"ydop":0.90,"vdop":1.23,"tdop":0.82,"hdop":1.10,"gdop":1.84,"pdop":1.65,"satellites":[{"PRN":1,"el":5,"az":48,"ss":19,"used":true},{"PRN":2,"el":22,"az":238,"ss":21,"used":true},{"PRN":3,"el":28,"az":57,"ss":27,"used":true},{"PRN":6,"el":60,"az":244,"ss":37,"used":true},{"PRN":12,"el":2,"az":319,"ss":0,"used":false},{"PRN":17,"el":63,"az":23,"ss":38,"used":true},{"PRN":19,"el":60,"az":333,"ss":37,"used":true},{"PRN":22,"el":13,"az":43,"ss":23,"used":true},{"PRN":24,"el":17,"az":296,"ss":22,"used":true},{"PRN":28,"el":53,"az":143,"ss":34,"used":true},{"PRN":135,"el":20,"az":247,"ss":0,"used":false},{"PRN":138,"el":39,"az":223,"ss":0,"used":false}]}
{"class":"TPV","device":"/dev/ttyACM0","mode":3,"time":"2019-05-16T21:08:53.000Z","ept":0.005,"lat":35.935767667,"lon":-78.922039500,"alt":104.800,"epx":9.392,"epy":13.513,"epv":28.290,"track":118.8600,"speed":15.572,"climb":0.000,"eps":27.03}
{"class":"SKY","device":"/dev/ttyACM0","xdop":0.63,"ydop":0.90,"vdop":1.23,"tdop":0.82,"hdop":1.10,"gdop":1.84,"pdop":1.65,"satellites":[{"PRN":1,"el":5,"az":48,"ss":18,"used":true},{"PRN":2,"el":22,"az":238,"ss":21,"used":true},{"PRN":3,"el":28,"az":57,"ss":35,"used":true},{"PRN":6,"el":60,"az":244,"ss":34,"used":true},{"PRN":12,"el":2,"az":319,"ss":0,"used":false},{"PRN":17,"el":63,"az":23,"ss":38,"used":true},{"PRN":19,"el":60,"az":333,"ss":37,"used":true},{"PRN":22,"el":13,"az":43,"ss":34,"used":true},{"PRN":24,"el":17,"az":296,"ss":22,"used":true},{"PRN":28,"el":53,"az":143,"ss":33,"used":true},{"PRN":135,"el":20,"az":247,"ss":0,"used":false},{"PRN":138,"el":39,"az":223,"ss":0,"used":false}]}
{"class":"TPV","device":"/dev/ttyACM0","mode":3,"time":"2019-05-16T21:08:54.000Z","ept":0.005,"lat":35.935704833,"lon":-78.921880833,"alt":103.900,"epx":9.392,"epy":13.513,"epv":28.290,"track":115.3800,"speed":16.007,"climb":0.000,"eps":27.03}
{"class":"SKY","device":"/dev/ttyACM0","xdop":0.63,"ydop":0.90,"vdop":1.23,"tdop":0.82,"hdop":1.10,"gdop":1.84,"pdop":1.65,"satellites":[{"PRN":1,"el":5,"az":48,"ss":16,"used":true},{"PRN":2,"el":22,"az":238,"ss":21,"used":true},{"PRN":3,"el":28,"az":57,"ss":31,"used":true},{"PRN":6,"el":60,"az":244,"ss":35,"used":true},{"PRN":12,"el":2,"az":319,"ss":0,"used":false},{"PRN":17,"el":63,"az":23,"ss":38,"used":true},{"PRN":19,"el":60,"az":333,"ss":41,"used":true},{"PRN":22,"el":13,"az":43,"ss":34,"used":true},{"PRN":24,"el":17,"az":296,"ss":22,"used":true},{"PRN":28,"el":53,"az":143,"ss":33,"used":true},{"PRN":135,"el":20,"az":247,"ss":0,"used":false},{"PRN":138,"el":39,"az":223,"ss":0,"used":false}]}
{"class":"TPV","device":"/dev/ttyACM0","mode":3,"time":"2019-05-16T21:08:55.000Z","ept":0.005,"lat":35.935645833,"lon":-78.921715167,"alt":102.700,"epx":9.392,"epy":13.513,"epv":28.290,"track":113.6400,"speed":16.291,"climb":0.000,"eps":27.03}
{"class":"SKY","device":"/dev/ttyACM0","xdop":0.63,"ydop":0.90,"vdop":1.23,"tdop":0.82,"hdop":1.10,"gdop":1.84,"pdop":1.65,"satellites":[{"PRN":1,"el":5,"az":48,"ss":14,"used":true},{"PRN":2,"el":22,"az":238,"ss":21,"used":true},{"PRN":3,"el":28,"az":57,"ss":25,"used":true},{"PRN":6,"el":60,"az":244,"ss":34,"used":true},{"PRN":12,"el":2,"az":319,"ss":0,"used":false},{"PRN":17,"el":63,"az":23,"ss":37,"used":true},{"PRN":19,"el":60,"az":333,"ss":40,"used":true},{"PRN":22,"el":13,"az":43,"ss":21,"used":true},{"PRN":24,"el":17,"az":296,"ss":23,"used":true},{"PRN":28,"el":53,"az":143,"ss":28,"used":true},{"PRN":135,"el":20,"az":247,"ss":0,"used":false},{"PRN":138,"el":39,"az":223,"ss":0,"used":false}]}
{"class":"TPV","device":"/dev/ttyACM0","mode":3,"time":"2019-05-16T21:08:56.000Z","ept":0.005,"lat":35.935586667,"lon":-78.921546667,"alt":102.200,"epx":9.392,"epy":13.513,"epv":28.290,"track":113.2700,"speed":16.478,"climb":0.000,"eps":27.03}
{"class":"SKY","device":"/dev/ttyACM0","xdop":0.63,"ydop":0.90,"vdop":1.23,"tdop":0.82,"hdop":1.10,"gdop":1.84,"pdop":1.65,"satellites":[{"PRN":1,"el":5,"az":48,"ss":12,"used":true},{"PRN":2,"el":22,"az":238,"ss":20,"used":true},{"PRN":3,"el":28,"az":57,"ss":24,"used":true},{"PRN":6,"el":60,"az":244,"ss":31,"used":true},{"PRN":12,"el":2,"az":319,"ss":0,"used":false},{"PRN":17,"el":63,"az":23,"ss":37,"used":true},{"PRN":19,"el":60,"az":333,"ss":41,"used":true},{"PRN":22,"el":13,"az":43,"ss":24,"used":true},{"PRN":24,"el":17,"az":296,"ss":25,"used":true},{"PRN":28,"el":53,"az":143,"ss":28,"used":true},{"PRN":135,"el":20,"az":247,"ss":0,"used":false},{"PRN":138,"el":39,"az":223,"ss":0,"used":false}]}
{"class":"TPV","device":"/dev/ttyACM0","mode":3,"time":"2019-05-16T21:08:57.000Z","ept":0.005,"lat":35.935527333,"lon":-78.921379500,"alt":101.400,"epx":9.392,"epy":13.513,"epv":28.290,"track":113.4600,"speed":16.401,"climb":0.000,"eps":27.03}
{"class":"SKY","device":"/dev/ttyACM0","xdop":0.63,"ydop":0.90,"vdop":1.23,"tdop":0.82,"hdop":1.10,"gdop":1.84,"pdop":1.65,"satellites":[{"PRN":1,"el":5,"az":48,"ss":12,"used":true},{"PRN":2,"el":22,"az":238,"ss":23,"used":true},{"PRN":3,"el":28,"az":57,"ss":24,"used":true},{"PRN":6,"el":60,"az":244,"ss":35,"used":true},{"PRN":12,"el":2,"az":319,"ss":0,"used":false},{"PRN":17,"el":63,"az":23,"ss":37,"used":true},{"PRN":19,"el":60,"az":333,"ss":41,"used":true},{"PRN":22,"el":13,"az":43,"ss":23,"used":true},{"PRN":24,"el":17,"az":296,"ss":26,"used":true},{"PRN":28,"el":53,"az":143,"ss":29,"used":true},{"PRN":135,"el":20,"az":247,"ss":0,"used":false},{"PRN":138,"el":39,"az":223,"ss":0,"used":false}]}
{"class":"TPV","device":"/dev/ttyACM0","mode":3,"time":"2019-05-16T21:08:58.000Z","ept":0.005,"lat":35.935468167,"lon":-78.921210500,"alt":102.100,"epx":9.392,"epy":13.513,"epv":28.290,"track":113.3900,"speed":16.304,"climb":0.000,"eps":27.03}
{"class":"SKY","device":"/dev/ttyACM0","xdop":0.63,"ydop":0.90,"vdop":1.23,"tdop":0.82,"hdop":1.10,"gdop":1.84,"pdop":1.65,"satellites":[{"PRN":1,"el":5,"az":48,"ss":10,"used":true},{"PRN":2,"el":22,"az":238,"ss":25,"used":true},{"PRN":3,"el":28,"az":57,"ss":25,"used":true},{"PRN":6,"el":60,"az":244,"ss":35,"used":true},{"PRN":12,"el":2,"az":319,"ss":0,"used":false},{"PRN":17,"el":63,"az":23,"ss":37,"used":true},{"PRN":19,"el":60,"az":333,"ss":41,"used":true},{"PRN":22,"el":13,"az":43,"ss":21,"used":true},{"PRN":24,"el":17,"az":296,"ss":26,"used":true},{"PRN":28,"el":53,"az":143,"ss":31,"used":true},{"PRN":135,"el":20,"az":247,"ss":0,"used":false},{"PRN":138,"el":39,"az":223,"ss":0,"used":false}]}
{"class":"TPV","device":"/dev/ttyACM0","mode":3,"time":"2019-05-16T21:08:59.000Z","ept":0.005,"lat":35.935408333,"lon":-78.921044167,"alt":102.500,"epx":9.392,"epy":13.513,"epv":28.290,"track":113.8500,"speed":16.299,"climb":0.000,"eps":27.03}
{"class":"SKY","device":"/dev/ttyACM0","xdop":0.63,"ydop":0.90,"vdop":1.40,"tdop":0.82,"hdop":1.12,"gdop":1.84,"pdop":1.79,"satellites":[{"PRN":1,"el":5,"az":48,"ss":0,"used":false},{"PRN":2,"el":22,"az":238,"ss":24,"used":true},{"PRN":3,"el":28,"az":57,"ss":24,"used":true},{"PRN":6,"el":60,"az":244,"ss":37,"used":true},{"PRN":12,"el":2,"az":319,"ss":0,"used":false},{"PRN":17,"el":63,"az":23,"ss":37,"used":true},{"PRN":19,"el":60,"az":333,"ss":41,"used":true},{"PRN":22,"el":13,"az":43,"ss":17,"used":true},{"PRN":24,"el":17,"az":296,"ss":26,"used":true},{"PRN":28,"el":53,"az":143,"ss":35,"used":true},{"PRN":135,"el":20,"az":247,"ss":0,"used":false},{"PRN":138,"el":39,"az":223,"ss":0,"used":false}]}
{"class":"TPV","device":"/dev/ttyACM0","mode":3,"time":"2019-05-16T21:09:00.000Z","ept":0.005,"lat":35.935346167,"lon":-78.920877667,"alt":102.000,"epx":9.392,"epy":13.513,"epv":28.290,"track":114.3300,"speed":16.352,"climb":0.000,"eps":27.03}
{"class":"SKY","device":"/dev/ttyACM0","xdop":0.63,"ydop":0.90,"vdop":1.40,"tdop":0.82,"hdop":1.12,"gdop":1.84,"pdop":1.79,"satellites":[{"PRN":1,"el":5,"az":48,"ss":0,"used":false},{"PRN":2,"el":22,"az":238,"ss":21,"used":true},{"PRN":3,"el":28,"az":57,"ss":23,"used":true},{"PRN":6,"el":60,"az":244,"ss":33,"used":true},{"PRN":12,"el":2,"az":319,"ss":0,"used":false},{"PRN":17,"el":63,"az":23,"ss":37,"used":true},{"PRN":19,"el":60,"az":333,"ss":41,"used":true},{"PRN":22,"el":13,"az":43,"ss":28,"used":true},{"PRN":24,"el":17,"az":296,"ss":25,"used":true},{"PRN":28,"el":53,"az":143,"ss":30,"used":true},{"PRN":135,"el":20,"az":247,"ss":0,"used":false},{"PRN":138,"el":39,"az":223,"ss":0,"used":false}]}
{"class":"TPV","device":"/dev/ttyACM0","mode":3,"time":"2019-05-16T21:09:01.000Z","ept":0.005,"lat":35.935284500,"lon":-78.920712167,"alt":101.400,"epx":9.392,"epy":13.513,"epv":32.200,"track":114.7700,"speed":16.224,"climb":0.000,"eps":27.03}
{"class":"SKY","device":"/dev/ttyACM0","xdop":0.63,"ydop":0.90,"vdop":1.40,"tdop":0.82,"hdop":1.12,"gdop":1.84,"pdop":1.79,"satellites":[{"PRN":1,"el":5,"az":48,"ss":0,"used":false},{"PRN":2,"el":23,"az":238,"ss":20,"used":true},{"PRN":3,"el":28,"az":57,"ss":30,"used":true},{"PRN":6,"el":60,"az":244,"ss":28,"used":true},{"PRN":12,"el":2,"az":319,"ss":0,"used":false},{"PRN":17,"el":63,"az":23,"ss":38,"used":true},{"PRN":19,"el":60,"az":333,"ss":40,"used":true},{"PRN":22,"el":13,"az":43,"ss":35,"used":true},{"PRN":24,"el":17,"az":296,"ss":26,"used":true},{"PRN":28,"el":53,"az":143,"ss":34,"used":true},{"PRN":135,"el":20,"az":247,"ss":0,"used":false},{"PRN":138,"el":39,"az":223,"ss":0,"used":false}]}
{"class":"TPV","device":"/dev/ttyACM0","mode":3,"time":"2019-05-16T21:09:02.000Z","ept":0.005,"lat":35.935219500,"lon":-78.920547833,"alt":100.500,"epx":9.392,"epy":13.513,"epv":32.200,"track":116.8200,"speed":16.374,"climb":0.000,"eps":27.03}
{"class":"SKY","device":"/dev/ttyACM0","xdop":0.63,"ydop":0.90,"vdop":1.40,"tdop":0.82,"hdop":1.12,"gdop":1.84,"pdop":1.79,"satellites":[{"PRN":1,"el":5,"az":48,"ss":0,"used":false},{"PRN":2,"el":23,"az":238,"ss":19,"used":true},{"PRN":3,"el":28,"az":57,"ss":29,"used":true},{"PRN":6,"el":60,"az":244,"ss":27,"used":true},{"PRN":12,"el":2,"az":319,"ss":0,"used":false},{"PRN":17,"el":63,"az":23,"ss":37,"used":true},{"PRN":19,"el":60,"az":333,"ss":40,"used":true},{"PRN":22,"el":13,"az":43,"ss":25,"used":true},{"PRN":24,"el":17,"az":296,"ss":27,"used":true},{"PRN":28,"el":53,"az":143,"ss":35,"used":true},{"PRN":135,"el":20,"az":247,"ss":0,"used":false},{"PRN":138,"el":39,"az":223,"ss":0,"used":false}]}
{"class":"TPV","device":"/dev/ttyACM0","mode":3,"time":"2019-05-16T21:09:03.000Z","ept":0.005,"lat":35.935150833,"lon":-78.920387000,"alt":100.600,"epx":9.392,"epy":13.513,"epv":32.200,"track":117.9200,"speed":16.407,"climb":0.000,"eps":27.03}
{"class":"SKY","device":"/dev/ttyACM0","xdop":0.63,"ydop":0.90,"vdop":1.40,"tdop":0.82,"hdop":1.12,"gdop":1.84,"pdop":1.79,"satellites":[{"PRN":1,"el":5,"az":48,"ss":0,"used":false},{"PRN":2,"el":23,"az":238,"ss":17,"used":true},{"PRN":3,"el":28,"az":57,"ss":22,"used":true},{"PRN":6,"el":60,"az":244,"ss":27,"used":true},{"PRN":12,"el":2,"az":319,"ss":0,"used":false},{"PRN":17,"el":63,"az":23,"ss":37,"used":true},{"PRN":19,"el":60,"az":333,"ss":40,"used":true},{"PRN":22,"el":13,"az":43,"ss":24,"used":true},{"PRN":24,"el":17,"az":296,"ss":28,"used":true},{"PRN":28,"el":53,"az":143,"ss":32,"used":true},{"PRN":135,"el":20,"az":247,"ss":0,"used":false},{"PRN":138,"el":39,"az":223,"ss":0,"used":false}]}
{"class":"TPV","device":"/dev/ttyACM0","mode":3,"time":"2019-05-16T21:09:04.000Z","ept":0.005,"lat":35.935081667,"lon":-78.920226833,"alt":100.600,"epx":9.392,"epy":13.513,"epv":32.200,"track":118.1000,"speed":16.383,"climb":0.000,"eps":27.03}
{"class":"SKY","device":"/dev/ttyACM0","xdop":0.63,"ydop":0.90,"vdop":1.40,"tdop":0.82,"hdop":1.12,"gdop":1.84,"pdop":1.79,"satellites":[{"PRN":1,"el":5,"az":48,"ss":7,"used":false},{"PRN":2,"el":23,"az":238,"ss":17,"used":true},{"PRN":3,"el":28,"az":57,"ss":22,"used":true},{"PRN":6,"el":61,"az":245,"ss":32,"used":true},{"PRN":12,"el":2,"az":319,"ss":0,"used":false},{"PRN":17,"el":63,"az":23,"ss":37,"used":true},{"PRN":19,"el":60,"az":333,"ss":40,"used":true},{"PRN":22,"el":13,"az":43,"ss":24,"used":true},{"PRN":24,"el":17,"az":296,"ss":28,"used":true},{"PRN":28,"el":53,"az":143,"ss":35,"used":true},{"PRN":135,"el":20,"az":247,"ss":0,"used":false},{"PRN":138,"el":39,"az":223,"ss":0,"used":false}]}
{"class":"TPV","device":"/dev/ttyACM0","mode":3,"time":"2019-05-16T21:09:05.000Z","ept":0.005,"lat":35.935009167,"lon":-78.920073000,"alt":100.900,"epx":9.392,"epy":13.513,"epv":32.200,"track":120.8600,"speed":16.147,"climb":0.000,"eps":27.03}
{"class":"SKY","device":"/dev/ttyACM0","xdop":0.63,"ydop":0.90,"vdop":1.40,"tdop":0.82,"hdop":1.12,"gdop":1.84,"pdop":1.79,"satellites":[{"PRN":1,"el":5,"az":48,"ss":8,"used":false},{"PRN":2,"el":23,"az":238,"ss":18,"used":true},{"PRN":3,"el":28,"az":57,"ss":23,"used":true},{"PRN":6,"el":61,"az":245,"ss":33,"used":true},{"PRN":12,"el":2,"az":319,"ss":0,"used":false},{"PRN":17,"el":63,"az":23,"ss":38,"used":true},{"PRN":19,"el":60,"az":333,"ss":40,"used":true},{"PRN":22,"el":13,"az":43,"ss":24,"used":true},{"PRN":24,"el":17,"az":296,"ss":26,"used":true},{"PRN":28,"el":53,"az":143,"ss":32,"used":true},{"PRN":135,"el":20,"az":247,"ss":0,"used":false},{"PRN":138,"el":39,"az":223,"ss":0,"used":false}]}
{"class":"TPV","device":"/dev/ttyACM0","mode":3,"time":"2019-05-16T21:09:06.000Z","ept":0.005,"lat":35.934931500,"lon":-78.919923167,"alt":101.000,"epx":9.392,"epy":13.513,"epv":32.200,"track":123.0800,"speed":15.826,"climb":0.000,"eps":27.03}
{"class":"SKY","device":"/dev/ttyACM0","xdop":0.63,"ydop":0.90,"vdop":1.40,"tdop":0.82,"hdop":1.12,"gdop":1.84,"pdop":1.79,"satellites":[{"PRN":1,"el":5,"az":48,"ss":10,"used":false},{"PRN":2,"el":23,"az":238,"ss":21,"used":true},{"PRN":3,"el":28,"az":57,"ss":23,"used":true},{"PRN":6,"el":61,"az":245,"ss":36,"used":true},{"PRN":12,"el":2,"az":319,"ss":0,"used":false},{"PRN":17,"el":63,"az":23,"ss":38,"used":true},{"PRN":19,"el":60,"az":333,"ss":40,"used":true},{"PRN":22,"el":13,"az":43,"ss":23,"used":true},{"PRN":24,"el":17,"az":296,"ss":23,"used":true},{"PRN":28,"el":53,"az":143,"ss":32,"used":true},{"PRN":135,"el":20,"az":247,"ss":0,"used":false},{"PRN":138,"el":39,"az":223,"ss":0,"used":false}]}
{"class":"TPV","device":"/dev/ttyACM0","mode":3,"time":"2019-05-16T21:09:07.000Z","ept":0.005,"lat":35.934852333,"lon":-78.919778667,"alt":101.300,"epx":9.392,"epy":13.513,"epv":32.200,"track":124.8400,"speed":15.634,"climb":0.000,"eps":27.03}
{"class":"SKY","device":"/dev/ttyACM0","xdop":0.63,"ydop":0.90,"vdop":1.40,"tdop":0.82,"hdop":1.12,"gdop":1.84,"pdop":1.79,"satellites":[{"PRN":1,"el":5,"az":48,"ss":9,"used":false},{"PRN":2,"el":23,"az":238,"ss":25,"used":true},{"PRN":3,"el":28,"az":57,"ss":23,"used":true},{"PRN":6,"el":61,"az":245,"ss":34,"used":true},{"PRN":12,"el":2,"az":319,"ss":0,"used":false},{"PRN":17,"el":63,"az":23,"ss":37,"used":true},{"PRN":19,"el":60,"az":333,"ss":38,"used":true},{"PRN":22,"el":13,"az":43,"ss":21,"used":true},{"PRN":24,"el":17,"az":296,"ss":18,"used":true},{"PRN":28,"el":53,"az":143,"ss":31,"used":true},{"PRN":135,"el":20,"az":247,"ss":0,"used":false},{"PRN":138,"el":39,"az":223,"ss":0,"used":false}]}
{"class":"TPV","device":"/dev/ttyACM0","mode":3,"time":"2019-05-16T21:09:08.000Z","ept":0.005,"lat":35.934770000,"lon":-78.919637833,"alt":101.600,"epx":9.392,"epy":13.513,"epv":32.200,"track":126.0800,"speed":15.631,"climb":0.000,"eps":27.03}
{"class":"SKY","device":"/dev/ttyACM0","xdop":0.63,"ydop":0.90,"vdop":1.40,"tdop":0.82,"hdop":1.12,"gdop":1.84,"pdop":1.79,"satellites":[{"PRN":1,"el":5,"az":48,"ss":8,"used":false},{"PRN":2,"el":23,"az":238,"ss":29,"used":true},{"PRN":3,"el":28,"az":57,"ss":23,"used":true},{"PRN":6,"el":61,"az":245,"ss":25,"used":true},{"PRN":12,"el":2,"az":319,"ss":0,"used":false},{"PRN":17,"el":63,"az":23,"ss":37,"used":true},{"PRN":19,"el":60,"az":333,"ss":36,"used":true},{"PRN":22,"el":13,"az":43,"ss":19,"used":true},{"PRN":24,"el":17,"az":296,"ss":16,"used":true},{"PRN":28,"el":53,"az":143,"ss":30,"used":true},{"PRN":135,"el":20,"az":247,"ss":0,"used":false},{"PRN":138,"el":39,"az":223,"ss":0,"used":false}]}
{"class":"TPV","device":"/dev/ttyACM0","mode":3,"time":"2019-05-16T21:09:09.000Z","ept":0.005,"lat":35.934685333,"lon":-78.919500500,"alt":102.500,"epx":9.392,"epy":13.513,"epv":32.200,"track":127.9500,"speed":15.500,"climb":0.000,"eps":27.03}
{"class":"SKY","device":"/dev/ttyACM0","xdop":0.63,"ydop":0.90,"vdop":1.40,"tdop":0.82,"hdop":1.12,"gdop":1.84,"pdop":1.79,"satellites":[{"PRN":1,"el":5,"az":48,"ss":8,"used":false},{"PRN":2,"el":23,"az":238,"ss":28,"used":true},{"PRN":3,"el":28,"az":57,"ss":25,"used":true},{"PRN":6,"el":61,"az":245,"ss":26,"used":true},{"PRN":12,"el":2,"az":319,"ss":0,"used":false},{"PRN":17,"el":63,"az":23,"ss":38,"used":true},{"PRN":19,"el":60,"az":333,"ss":37,"used":true},{"PRN":22,"el":13,"az":43,"ss":18,"used":true},{"PRN":24,"el":17,"az":296,"ss":18,"used":true},{"PRN":28,"el":53,"az":143,"ss":29,"used":true},{"PRN":135,"el":20,"az":247,"ss":0,"used":false},{"PRN":138,"el":39,"az":223,"ss":0,"used":false}]}
{"class":"TPV","device":"/dev/ttyACM0","mode":3,"time":"2019-05-16T21:09:10.000Z","ept":0.005,"lat":35.934598167,"lon":-78.919363833,"alt":103.300,"epx":9.392,"epy":13.513,"epv":32.200,"track":128.6800,"speed":15.620,"climb":0.000,"eps":27.03}
{"class":"SKY","device":"/dev/ttyACM0","xdop":0.63,"ydop":0.90,"vdop":1.40,"tdop":0.82,"hdop":1.12,"gdop":1.84,"pdop":1.79,"satellites":[{"PRN":1,"el":5,"az":48,"ss":8,"used":false},{"PRN":2,"el":23,"az":238,"ss":28,"used":true},{"PRN":3,"el":28,"az":57,"ss":27,"used":true},{"PRN":6,"el":61,"az":245,"ss":24,"used":true},{"PRN":12,"el":2,"az":319,"ss":0,"used":false},{"PRN":17,"el":63,"az":23,"ss":38,"used":true},{"PRN":19,"el":60,"az":333,"ss":38,"used":true},{"PRN":22,"el":13,"az":43,"ss":19,"used":true},{"PRN":24,"el":17,"az":296,"ss":19,"used":true},{"PRN":28,"el":53,"az":143,"ss":28,"used":true},{"PRN":135,"el":20,"az":247,"ss":0,"used":false},{"PRN":138,"el":39,"az":223,"ss":0,"used":false}]}
{"class":"TPV","device":"/dev/ttyACM0","mode":3,"time":"2019-05-16T21:09:11.000Z","ept":0.005,"lat":35.934507000,"lon":-78.919232333,"alt":104.000,"epx":9.392,"epy":13.513,"epv":32.200,"track":131.3100,"speed":15.553,"climb":0.000,"eps":27.03}
{"class":"SKY","device":"/dev/ttyACM0","xdop":0.63,"ydop":0.90,"vdop":1.40,"tdop":0.82,"hdop":1.12,"gdop":1.84,"pdop":1.79,"satellites":[{"PRN":1,"el":5,"az":48,"ss":0,"used":false},{"PRN":2,"el":23,"az":238,"ss":28,"used":true},{"PRN":3,"el":28,"az":57,"ss":33,"used":true},{"PRN":6,"el":61,"az":245,"ss":25,"used":true},{"PRN":12,"el":2,"az":319,"ss":0,"used":false},{"PRN":17,"el":63,"az":23,"ss":38,"used":true},{"PRN":19,"el":60,"az":333,"ss":40,"used":true},{"PRN":22,"el":13,"az":43,"ss":19,"used":true},{"PRN":24,"el":17,"az":296,"ss":19,"used":true},{"PRN":28,"el":53,"az":143,"ss":31,"used":true},{"PRN":135,"el":20,"az":247,"ss":0,"used":false},{"PRN":138,"el":39,"az":223,"ss":0,"used":false}]}
{"class":"TPV","device":"/dev/ttyACM0","mode":3,"time":"2019-05-16T21:09:12.000Z","ept":0.005,"lat":35.934413333,"lon":-78.919102667,"alt":104.000,"epx":9.392,"epy":13.513,"epv":32.200,"track":132.6500,"speed":15.681,"climb":0.000,"eps":27.03}
{"class":"SKY","device":"/dev/ttyACM0","xdop":0.63,"ydop":0.90,"vdop":1.40,"tdop":0.82,"hdop":1.12,"gdop":1.84,"pdop":1.79,"satellites":[{"PRN":1,"el":5,"az":48,"ss":0,"used":false},{"PRN":2,"el":23,"az":238,"ss":27,"used":true},{"PRN":3,"el":28,"az":57,"ss":30,"used":true},{"PRN":6,"el":61,"az":245,"ss":32,"used":true},{"PRN":12,"el":2,"az":319,"ss":0,"used":false},{"PRN":17,"el":63,"az":23,"ss":37,"used":true},{"PRN":19,"el":60,"az":333,"ss":41,"used":true},{"PRN":22,"el":13,"az":43,"ss":20,"used":true},{"PRN":24,"el":17,"az":296,"ss":18,"used":true},{"PRN":28,"el":53,"az":143,"ss":33,"used":true},{"PRN":135,"el":20,"az":247,"ss":0,"used":false},{"PRN":138,"el":39,"az":223,"ss":32,"used":false}]}
{"class":"TPV","device":"/dev/ttyACM0","mode":3,"time":"2019-05-16T21:09:13.000Z","ept":0.005,"lat":35.934314500,"lon":-78.918978500,"alt":104.100,"epx":9.392,"epy":13.513,"epv":32.200,"track":135.4800,"speed":15.696,"climb":0.000,"eps":27.03}
{"class":"SKY","device":"/dev/ttyACM0","xdop":0.63,"ydop":0.90,"vdop":1.40,"tdop":0.82,"hdop":1.12,"gdop":1.84,"pdop":1.79,"satellites":[{"PRN":1,"el":5,"az":48,"ss":0,"used":false},{"PRN":2,"el":23,"az":238,"ss":27,"used":true},{"PRN":3,"el":28,"az":57,"ss":30,"used":true},{"PRN":6,"el":61,"az":245,"ss":32,"used":true},{"PRN":12,"el":2,"az":319,"ss":0,"used":false},{"PRN":17,"el":63,"az":23,"ss":37,"used":true},{"PRN":19,"el":60,"az":333,"ss":40,"used":true},{"PRN":22,"el":13,"az":43,"ss":19,"used":true},{"PRN":24,"el":17,"az":296,"ss":16,"used":true},{"PRN":28,"el":53,"az":143,"ss":36,"used":true},{"PRN":135,"el":20,"az":247,"ss":0,"used":false},{"PRN":138,"el":39,"az":223,"ss":31,"used":false}]}
{"class":"TPV","device":"/dev/ttyACM0","mode":3,"time":"2019-05-16T21:09:14.000Z","ept":0.005,"lat":35.934214167,"lon":-78.918861500,"alt":103.700,"epx":9.392,"epy":13.513,"epv":32.200,"track":137.3300,"speed":15.445,"climb":0.000,"eps":27.03}
{"class":"SKY","device":"/dev/ttyACM0","xdop":0.63,"ydop":0.90,"vdop":1.40,"tdop":0.82,"hdop":1.12,"gdop":1.84,"pdop":1.79,"satellites":[{"PRN":1,"el":5,"az":48,"ss":0,"used":false},{"PRN":2,"el":23,"az":238,"ss":26,"used":true},{"PRN":3,"el":28,"az":57,"ss":24,"used":true},{"PRN":6,"el":61,"az":245,"ss":28,"used":true},{"PRN":12,"el":2,"az":319,"ss":0,"used":false},{"PRN":17,"el":63,"az":23,"ss":37,"used":true},{"PRN":19,"el":60,"az":333,"ss":41,"used":true},{"PRN":22,"el":13,"az":43,"ss":18,"used":true},{"PRN":24,"el":17,"az":296,"ss":14,"used":true},{"PRN":28,"el":53,"az":143,"ss":36,"used":true},{"PRN":135,"el":20,"az":247,"ss":0,"used":false},{"PRN":138,"el":39,"az":223,"ss":31,"used":false}]}
{"class":"TPV","device":"/dev/ttyACM0","mode":3,"time":"2019-05-16T21:09:15.000Z","ept":0.005,"lat":35.934112000,"lon":-78.918747167,"alt":103.500,"epx":9.392,"epy":13.513,"epv":32.200,"track":138.3600,"speed":15.384,"climb":0.000,"eps":27.03}
{"class":"SKY","device":"/dev/ttyACM0","xdop":0.63,"ydop":0.90,"vdop":1.53,"tdop":0.82,"hdop":1.36,"gdop":1.84,"pdop":2.05,"satellites":[{"PRN":1,"el":5,"az":48,"ss":0,"used":false},{"PRN":2,"el":23,"az":238,"ss":26,"used":true},{"PRN":3,"el":28,"az":57,"ss":26,"used":true},{"PRN":6,"el":61,"az":245,"ss":38,"used":true},{"PRN":12,"el":2,"az":319,"ss":0,"used":false},{"PRN":17,"el":63,"az":24,"ss":36,"used":true},{"PRN":19,"el":60,"az":333,"ss":42,"used":true},{"PRN":22,"el":13,"az":43,"ss":17,"used":true},{"PRN":24,"el":17,"az":296,"ss":13,"used":true},{"PRN":28,"el":53,"az":143,"ss":37,"used":true},{"PRN":135,"el":20,"az":247,"ss":0,"used":false},{"PRN":138,"el":39,"az":223,"ss":34,"used":false}]}
{"class":"TPV","device":"/dev/ttyACM0","mode":3,"time":"2019-05-16T21:09:16.000Z","ept":0.005,"lat":35.934007000,"lon":-78.918634667,"alt":103.000,"epx":9.392,"epy":13.513,"epv":32.200,"track":139.3500,"speed":15.308,"climb":0.000,"eps":27.03}
{"class":"SKY","device":"/dev/ttyACM0","xdop":0.63,"ydop":0.90,"vdop":1.53,"tdop":0.82,"hdop":1.36,"gdop":1.84,"pdop":2.05,"satellites":[{"PRN":1,"el":5,"az":48,"ss":0,"used":false},{"PRN":2,"el":23,"az":238,"ss":26,"used":true},{"PRN":3,"el":28,"az":57,"ss":26,"used":true},{"PRN":6,"el":61,"az":245,"ss":38,"used":true},{"PRN":12,"el":2,"az":319,"ss":0,"used":false},{"PRN":17,"el":63,"az":24,"ss":35,"used":true},{"PRN":19,"el":60,"az":333,"ss":41,"used":true},{"PRN":22,"el":13,"az":43,"ss":16,"used":true},{"PRN":24,"el":17,"az":296,"ss":0,"used":false},{"PRN":28,"el":53,"az":143,"ss":37,"used":true},{"PRN":135,"el":20,"az":247,"ss":0,"used":false},{"PRN":138,"el":39,"az":223,"ss":34,"used":false}]}
{"class":"TPV","device":"/dev/ttyACM0","mode":3,"time":"2019-05-16T21:09:17.000Z","ept":0.005,"lat":35.933903167,"lon":-78.918525500,"alt":101.600,"epx":9.392,"epy":13.513,"epv":35.190,"track":139.9900,"speed":15.117,"climb":0.000,"eps":27.03}
{"class":"SKY","device":"/dev/ttyACM0","xdop":0.63,"ydop":0.90,"vdop":1.53,"tdop":0.82,"hdop":1.36,"gdop":1.84,"pdop":2.05,"satellites":[{"PRN":1,"el":5,"az":48,"ss":0,"used":false},{"PRN":2,"el":23,"az":238,"ss":28,"used":true},{"PRN":3,"el":28,"az":57,"ss":27,"used":true},{"PRN":6,"el":61,"az":245,"ss":32,"used":true},{"PRN":12,"el":2,"az":319,"ss":0,"used":false},{"PRN":17,"el":63,"az":24,"ss":36,"used":true},{"PRN":19,"el":60,"az":334,"ss":41,"used":true},{"PRN":22,"el":13,"az":43,"ss":18,"used":true},{"PRN":24,"el":17,"az":296,"ss":17,"used":false},{"PRN":28,"el":53,"az":143,"ss":37,"used":true},{"PRN":135,"el":20,"az":247,"ss":0,"used":false},{"PRN":138,"el":39,"az":223,"ss":0,"used":false}]}
{"class":"TPV","device":"/dev/ttyACM0","mode":3,"time":"2019-05-16T21:09:18.000Z","ept":0.005,"lat":35.933798333,"lon":-78.918420500,"alt":101.300,"epx":9.392,"epy":13.513,"epv":35.190,"track":141.7200,"speed":14.820,"climb":0.000,"eps":27.03}
{"class":"SKY","device":"/dev/ttyACM0","xdop":0.63,"ydop":0.90,"vdop":1.53,"tdop":0.82,"hdop":1.36,"gdop":1.84,"pdop":2.05,"satellites":[{"PRN":1,"el":5,"az":48,"ss":0,"used":false},{"PRN":2,"el":23,"az":238,"ss":27,"used":true},{"PRN":3,"el":28,"az":57,"ss":28,"used":true},{"PRN":6,"el":61,"az":245,"ss":27,"used":true},{"PRN":12,"el":2,"az":319,"ss":0,"used":false},{"PRN":17,"el":63,"az":24,"ss":37,"used":true},{"PRN":19,"el":60,"az":334,"ss":41,"used":true},{"PRN":22,"el":13,"az":43,"ss":19,"used":true},{"PRN":24,"el":17,"az":296,"ss":22,"used":false},{"PRN":28,"el":53,"az":143,"ss":37,"used":true},{"PRN":135,"el":20,"az":247,"ss":0,"used":false},{"PRN":138,"el":39,"az":223,"ss":0,"used":false}]}
{"class":"TPV","device":"/dev/ttyACM0","mode":3,"time":"2019-05-16T21:09:19.000Z","ept":0.005,"lat":35.933692667,"lon":-78.918322667,"alt":101.400,"epx":9.392,"epy":13.513,"epv":35.190,"track":144.1200,"speed":14.536,"climb":0.000,"eps":27.03}
{"class":"SKY","device":"/dev/ttyACM0","xdop":0.63,"ydop":0.90,"vdop":1.53,"tdop":0.82,"hdop":1.36,"gdop":1.84,"pdop":2.05,"satellites":[{"PRN":1,"el":5,"az":48,"ss":0,"used":false},{"PRN":2,"el":23,"az":238,"ss":28,"used":true},{"PRN":3,"el":28,"az":57,"ss":32,"used":true},{"PRN":6,"el":61,"az":245,"ss":37,"used":true},{"PRN":12,"el":2,"az":319,"ss":0,"used":false},{"PRN":17,"el":63,"az":24,"ss":39,"used":true},{"PRN":19,"el":60,"az":334,"ss":41,"used":true},{"PRN":22,"el":13,"az":43,"ss":19,"used":true},{"PRN":24,"el":17,"az":296,"ss":22,"used":false},{"PRN":28,"el":53,"az":143,"ss":37,"used":true},{"PRN":135,"el":20,"az":247,"ss":0,"used":false},{"PRN":138,"el":39,"az":223,"ss":0,"used":false}]}
{"class":"TPV","device":"/dev/ttyACM0","mode":3,"time":"2019-05-16T21:09:20.000Z","ept":0.005,"lat":35.933587333,"lon":-78.918234833,"alt":100.900,"epx":9.392,"epy":13.513,"epv":35.190,"track":147.3300,"speed":13.944,"climb":0.000,"eps":27.03}
{"class":"SKY","device":"/dev/ttyACM0","xdop":0.63,"ydop":0.90,"vdop":1.40,"tdop":0.82,"hdop":1.12,"gdop":1.84,"pdop":1.79,"satellites":[{"PRN":1,"el":5,"az":48,"ss":0,"used":false},{"PRN":2,"el":23,"az":238,"ss":29,"used":true},{"PRN":3,"el":28,"az":57,"ss":28,"used":true},{"PRN":6,"el":61,"az":245,"ss":29,"used":true},{"PRN":12,"el":2,"az":319,"ss":0,"used":false},{"PRN":17,"el":63,"az":24,"ss":39,"used":true},{"PRN":19,"el":60,"az":334,"ss":39,"used":true},{"PRN":22,"el":13,"az":43,"ss":20,"used":true},{"PRN":24,"el":17,"az":296,"ss":19,"used":true},{"PRN":28,"el":53,"az":143,"ss":36,"used":true},{"PRN":135,"el":20,"az":247,"ss":0,"used":false},{"PRN":138,"el":39,"az":223,"ss":0,"used":false}]}
{"class":"TPV","device":"/dev/ttyACM0","mode":3,"time":"2019-05-16T21:09:21.000Z","ept":0.005,"lat":35.933482667,"lon":-78.918151667,"alt":101.600,"epx":9.392,"epy":13.513,"epv":35.190,"track":148.1500,"speed":13.684,"climb":0.000,"eps":27.03}
{"class":"SKY","device":"/dev/ttyACM0","xdop":0.63,"ydop":0.90,"vdop":1.40,"tdop":0.82,"hdop":1.12,"gdop":1.84,"pdop":1.79,"satellites":[{"PRN":1,"el":5,"az":48,"ss":0,"used":false},{"PRN":2,"el":23,"az":238,"ss":29,"used":true},{"PRN":3,"el":28,"az":57,"ss":31,"used":true},{"PRN":6,"el":61,"az":245,"ss":34,"used":true},{"PRN":12,"el":2,"az":319,"ss":0,"used":false},{"PRN":17,"el":63,"az":24,"ss":39,"used":true},{"PRN":19,"el":60,"az":334,"ss":39,"used":true},{"PRN":22,"el":13,"az":43,"ss":20,"used":true},{"PRN":24,"el":17,"az":296,"ss":16,"used":true},{"PRN":28,"el":53,"az":143,"ss":36,"used":true},{"PRN":135,"el":20,"az":247,"ss":0,"used":false},{"PRN":138,"el":39,"az":223,"ss":0,"used":false}]}
{"class":"TPV","device":"/dev/ttyACM0","mode":3,"time":"2019-05-16T21:09:22.000Z","ept":0.005,"lat":35.933378333,"lon":-78.918071667,"alt":101.300,"epx":9.392,"epy":13.513,"epv":32.200,"track":147.9000,"speed":13.640,"climb":0.000,"eps":27.03}
{"class":"SKY","device":"/dev/ttyACM0","xdop":0.63,"ydop":0.90,"vdop":1.40,"tdop":0.82,"hdop":1.12,"gdop":1.84,"pdop":1.79,"satellites":[{"PRN":1,"el":5,"az":48,"ss":0,"used":false},{"PRN":2,"el":23,"az":238,"ss":29,"used":true},{"PRN":3,"el":28,"az":57,"ss":28,"used":true},{"PRN":6,"el":61,"az":245,"ss":36,"used":true},{"PRN":12,"el":2,"az":319,"ss":0,"used":false},{"PRN":17,"el":63,"az":24,"ss":39,"used":true},{"PRN":19,"el":60,"az":334,"ss":41,"used":true},{"PRN":22,"el":13,"az":43,"ss":18,"used":true},{"PRN":24,"el":17,"az":296,"ss":16,"used":true},{"PRN":28,"el":53,"az":143,"ss":36,"used":true},{"PRN":135,"el":20,"az":247,"ss":0,"used":false},{"PRN":138,"el":39,"az":223,"ss":0,"used":false}]}
{"class":"TPV","device":"/dev/ttyACM0","mode":3,"time":"2019-05-16T21:09:23.000Z","ept":0.005,"lat":35.933271833,"lon":-78.917994333,"alt":101.800,"epx":9.392,"epy":13.513,"epv":32.200,"track":149.1700,"speed":13.598,"climb":0.000,"eps":27.03}
{"class":"SKY","device":"/dev/ttyACM0","xdop":0.63,"ydop":0.90,"vdop":1.40,"tdop":0.82,"hdop":1.12,"gdop":1.84,"pdop":1.79,"satellites":[{"PRN":1,"el":5,"az":48,"ss":0,"used":false},{"PRN":2,"el":23,"az":238,"ss":20,"used":true},{"PRN":3,"el":28,"az":57,"ss":28,"used":true},{"PRN":6,"el":61,"az":245,"ss":31,"used":true},{"PRN":12,"el":2,"az":319,"ss":0,"used":false},{"PRN":17,"el":63,"az":24,"ss":39,"used":true},{"PRN":19,"el":60,"az":334,"ss":40,"used":true},{"PRN":22,"el":13,"az":43,"ss":18,"used":true},{"PRN":24,"el":17,"az":296,"ss":16,"used":true},{"PRN":28,"el":53,"az":143,"ss":36,"used":true},{"PRN":135,"el":20,"az":247,"ss":0,"used":false},{"PRN":138,"el":39,"az":223,"ss":0,"used":false}]}
{"class":"TPV","device":"/dev/ttyACM0","mode":3,"time":"2019-05-16T21:09:24.000Z","ept":0.005,"lat":35.933166667,"lon":-78.917916333,"alt":102.500,"epx":9.392,"epy":13.513,"epv":32.200,"track":148.8300,"speed":13.504,"climb":0.000,"eps":27.03}
{"class":"SKY","device":"/dev/ttyACM0","xdop":0.63,"ydop":0.90,"vdop":1.71,"tdop":0.82,"hdop":1.19,"gdop":1.84,"pdop":2.08,"satellites":[{"PRN":1,"el":5,"az":48,"ss":0,"used":false},{"PRN":2,"el":23,"az":238,"ss":29,"used":true},{"PRN":3,"el":28,"az":57,"ss":28,"used":true},{"PRN":6,"el":61,"az":245,"ss":39,"used":true},{"PRN":12,"el":2,"az":319,"ss":0,"used":false},{"PRN":17,"el":63,"az":24,"ss":40,"used":true},{"PRN":19,"el":60,"az":334,"ss":40,"used":true},{"PRN":22,"el":13,"az":43,"ss":0,"used":false},{"PRN":24,"el":17,"az":296,"ss":17,"used":true},{"PRN":28,"el":53,"az":143,"ss":36,"used":true},{"PRN":135,"el":20,"az":247,"ss":0,"used":false},{"PRN":138,"el":39,"az":223,"ss":0,"used":false}]}
{"class":"TPV","device":"/dev/ttyACM0","mode":3,"time":"2019-05-16T21:09:25.000Z","ept":0.005,"lat":35.933063667,"lon":-78.917841333,"alt":102.200,"epx":9.392,"epy":13.513,"epv":32.200,"track":149.6900,"speed":13.131,"climb":0.000,"eps":27.03}
{"class":"SKY","device":"/dev/ttyACM0","xdop":0.63,"ydop":0.90,"vdop":1.71,"tdop":0.82,"hdop":1.19,"gdop":1.84,"pdop":2.08,"satellites":[{"PRN":1,"el":5,"az":48,"ss":0,"used":false},{"PRN":2,"el":23,"az":238,"ss":28,"used":true},{"PRN":3,"el":28,"az":57,"ss":36,"used":true},{"PRN":6,"el":61,"az":245,"ss":36,"used":true},{"PRN":12,"el":2,"az":319,"ss":0,"used":false},{"PRN":17,"el":63,"az":24,"ss":42,"used":true},{"PRN":19,"el":60,"az":334,"ss":39,"used":true},{"PRN":22,"el":13,"az":43,"ss":17,"used":false},{"PRN":24,"el":17,"az":296,"ss":17,"used":true},{"PRN":28,"el":53,"az":143,"ss":37,"used":true},{"PRN":135,"el":20,"az":247,"ss":0,"used":false},{"PRN":138,"el":39,"az":223,"ss":0,"used":false}]}
{"class":"TPV","device":"/dev/ttyACM0","mode":3,"time":"2019-05-16T21:09:26.000Z","ept":0.005,"lat":35.932963667,"lon":-78.917770833,"alt":103.100,"epx":9.392,"epy":13.513,"epv":39.330,"track":149.6500,"speed":12.636,"climb":0.000,"eps":27.03}
{"class":"SKY","device":"/dev/ttyACM0","xdop":0.63,"ydop":0.90,"vdop":1.40,"tdop":0.82,"hdop":1.12,"gdop":1.84,"pdop":1.79,"satellites":[{"PRN":1,"el":5,"az":48,"ss":0,"used":false},{"PRN":2,"el":23,"az":238,"ss":28,"used":true},{"PRN":3,"el":28,"az":57,"ss":35,"used":true},{"PRN":6,"el":61,"az":245,"ss":39,"used":true},{"PRN":12,"el":2,"az":319,"ss":0,"used":false},{"PRN":17,"el":63,"az":24,"ss":42,"used":true},{"PRN":19,"el":60,"az":334,"ss":38,"used":true},{"PRN":22,"el":13,"az":43,"ss":33,"used":true},{"PRN":24,"el":17,"az":296,"ss":16,"used":true},{"PRN":28,"el":52,"az":143,"ss":37,"used":true},{"PRN":135,"el":20,"az":247,"ss":0,"used":false},{"PRN":138,"el":39,"az":223,"ss":0,"used":false}]}
{"class":"TPV","device":"/dev/ttyACM0","mode":3,"time":"2019-05-16T21:09:27.000Z","ept":0.005,"lat":35.932868667,"lon":-78.917701333,"alt":104.000,"epx":9.392,"epy":13.513,"epv":39.330,"track":149.2400,"speed":12.104,"climb":0.000,"eps":27.03}
{"class":"SKY","device":"/dev/ttyACM0","xdop":0.63,"ydop":0.90,"vdop":1.40,"tdop":0.82,"hdop":1.12,"gdop":1.84,"pdop":1.79,"satellites":[{"PRN":1,"el":5,"az":48,"ss":0,"used":false},{"PRN":2,"el":23,"az":238,"ss":26,"used":true},{"PRN":3,"el":28,"az":57,"ss":31,"used":true},{"PRN":6,"el":61,"az":245,"ss":34,"used":true},{"PRN":12,"el":2,"az":319,"ss":0,"used":false},{"PRN":17,"el":63,"az":24,"ss":42,"used":true},{"PRN":19,"el":60,"az":334,"ss":38,"used":true},{"PRN":22,"el":13,"az":43,"ss":27,"used":true},{"PRN":24,"el":17,"az":296,"ss":15,"used":true},{"PRN":28,"el":52,"az":143,"ss":37,"used":true},{"PRN":135,"el":20,"az":247,"ss":0,"used":false},{"PRN":138,"el":39,"az":223,"ss":0,"used":false}]}
{"class":"TPV","device":"/dev/ttyACM0","mode":3,"time":"2019-05-16T21:09:28.000Z","ept":0.005,"lat":35.932779833,"lon":-78.917636500,"alt":103.900,"epx":9.392,"epy":13.513,"epv":32.200,"track":148.9200,"speed":11.294,"climb":0.000,"eps":27.03}
{"class":"SKY","device":"/dev/ttyACM0","xdop":0.63,"ydop":0.90,"vdop":1.40,"tdop":0.82,"hdop":1.12,"gdop":1.84,"pdop":1.79,"satellites":[{"PRN":1,"el":5,"az":48,"ss":0,"used":false},{"PRN":2,"el":23,"az":238,"ss":26,"used":true},{"PRN":3,"el":28,"az":57,"ss":30,"used":true},{"PRN":6,"el":61,"az":245,"ss":40,"used":true},{"PRN":12,"el":2,"az":319,"ss":0,"used":false},{"PRN":17,"el":63,"az":24,"ss":42,"used":true},{"PRN":19,"el":60,"az":334,"ss":38,"used":true},{"PRN":22,"el":13,"az":43,"ss":24,"used":true},{"PRN":24,"el":17,"az":296,"ss":13,"used":true},{"PRN":28,"el":52,"az":143,"ss":37,"used":true},{"PRN":135,"el":20,"az":247,"ss":0,"used":false},{"PRN":138,"el":39,"az":223,"ss":0,"used":false}]}
{"class":"TPV","device":"/dev/ttyACM0","mode":3,"time":"2019-05-16T21:09:29.000Z","ept":0.005,"lat":35.932696667,"lon":-78.917577167,"alt":104.200,"epx":9.392,"epy":13.513,"epv":32.200,"track":150.3300,"speed":10.436,"climb":0.000,"eps":27.03}
{"class":"SKY","device":"/dev/ttyACM0","xdop":0.63,"ydop":0.90,"vdop":1.40,"tdop":0.82,"hdop":1.12,"gdop":1.84,"pdop":1.79,"satellites":[{"PRN":1,"el":5,"az":48,"ss":0,"used":false},{"PRN":2,"el":23,"az":238,"ss":26,"used":true},{"PRN":3,"el":28,"az":57,"ss":30,"used":true},{"PRN":6,"el":61,"az":245,"ss":40,"used":true},{"PRN":12,"el":2,"az":319,"ss":0,"used":false},{"PRN":17,"el":63,"az":24,"ss":42,"used":true},{"PRN":19,"el":60,"az":334,"ss":38,"used":true},{"PRN":22,"el":13,"az":43,"ss":22,"used":true},{"PRN":24,"el":17,"az":296,"ss":13,"used":true},{"PRN":28,"el":52,"az":143,"ss":37,"used":true},{"PRN":135,"el":20,"az":247,"ss":0,"used":false},{"PRN":138,"el":39,"az":223,"ss":0,"used":false}]}
{"class":"TPV","device":"/dev/ttyACM0","mode":3,"time":"2019-05-16T21:09:30.000Z","ept":0.005,"lat":35.932620667,"lon":-78.917522000,"alt":104.600,"epx":9.392,"epy":13.513,"epv":32.200,"track":149.9000,"speed":9.564,"climb":0.000,"eps":27.03}
{"class":"SKY","device":"/dev/ttyACM0","xdop":0.63,"ydop":0.90,"vdop":1.40,"tdop":0.82,"hdop":1.12,"gdop":1.84,"pdop":1.79,"satellites":[{"PRN":1,"el":5,"az":48,"ss":0,"used":false},{"PRN":2,"el":23,"az":238,"ss":24,"used":true},{"PRN":3,"el":28,"az":57,"ss":29,"used":true},{"PRN":6,"el":61,"az":245,"ss":36,"used":true},{"PRN":12,"el":2,"az":319,"ss":0,"used":false},{"PRN":17,"el":63,"az":24,"ss":42,"used":true},{"PRN":19,"el":60,"az":334,"ss":36,"used":true},{"PRN":22,"el":13,"az":43,"ss":20,"used":true},{"PRN":24,"el":17,"az":296,"ss":14,"used":true},{"PRN":28,"el":52,"az":143,"ss":37,"used":true},{"PRN":135,"el":20,"az":247,"ss":0,"used":false},{"PRN":138,"el":39,"az":223,"ss":0,"used":false}]}
{"class":"TPV","device":"/dev/ttyACM0","mode":3,"time":"2019-05-16T21:09:31.000Z","ept":0.005,"lat":35.932551500,"lon":-78.917472000,"alt":104.600,"epx":9.392,"epy":13.513,"epv":32.200,"track":148.8900,"speed":8.816,"climb":0.000,"eps":27.03}
{"class":"SKY","device":"/dev/ttyACM0","xdop":0.63,"ydop":0.90,"vdop":1.40,"tdop":0.82,"hdop":1.12,"gdop":1.84,"pdop":1.79,"satellites":[{"PRN":1,"el":5,"az":48,"ss":0,"used":false},{"PRN":2,"el":23,"az":238,"ss":24,"used":true},{"PRN":3,"el":28,"az":57,"ss":27,"used":true},{"PRN":6,"el":61,"az":245,"ss":39,"used":true},{"PRN":12,"el":2,"az":319,"ss":0,"used":false},{"PRN":17,"el":63,"az":24,"ss":41,"used":true},{"PRN":19,"el":60,"az":334,"ss":37,"used":true},{"PRN":22,"el":13,"az":43,"ss":30,"used":true},{"PRN":24,"el":17,"az":296,"ss":16,"used":true},{"PRN":28,"el":52,"az":143,"ss":37,"used":true},{"PRN":135,"el":20,"az":247,"ss":0,"used":false},{"PRN":138,"el":39,"az":223,"ss":0,"used":false}]}
{"class":"TPV","device":"/dev/ttyACM0","mode":3,"time":"2019-05-16T21:09:32.000Z","ept":0.005,"lat":35.932487833,"lon":-78.917427000,"alt":104.300,"epx":9.392,"epy":13.513,"epv":32.200,"track":150.1700,"speed":8.040,"climb":0.000,"eps":27.03}
{"class":"SKY","device":"/dev/ttyACM0","xdop":0.63,"ydop":0.90,"vdop":1.40,"tdop":0.82,"hdop":1.12,"gdop":1.84,"pdop":1.79,"satellites":[{"PRN":1,"el":5,"az":48,"ss":0,"used":false},{"PRN":2,"el":23,"az":238,"ss":21,"used":true},{"PRN":3,"el":28,"az":57,"ss":25,"used":true},{"PRN":6,"el":61,"az":245,"ss":29,"used":true},{"PRN":12,"el":2,"az":319,"ss":0,"used":false},{"PRN":17,"el":63,"az":24,"ss":42,"used":true},{"PRN":19,"el":60,"az":334,"ss":39,"used":true},{"PRN":22,"el":13,"az":43,"ss":23,"used":true},{"PRN":24,"el":17,"az":296,"ss":16,"used":true},{"PRN":28,"el":52,"az":143,"ss":37,"used":true},{"PRN":135,"el":20,"az":247,"ss":0,"used":false},{"PRN":138,"el":39,"az":223,"ss":0,"used":false}]}
{"class":"TPV","device":"/dev/ttyACM0","mode":3,"time":"2019-05-16T21:09:33.000Z","ept":0.005,"lat":35.932429667,"lon":-78.917390000,"alt":103.300,"epx":9.392,"epy":13.513,"epv":32.200,"track":152.1100,"speed":7.150,"climb":0.000,"eps":27.03}
