{"class":"VERSION","release":"3.16","rev":"3.16-4","proto_major":3,"proto_minor":11}
{"class":"DEVICES","devices":[{"class":"DEVICE","path":"/dev/ttyACM0","activated":"2019-08-03T15:20:26.254Z","native":0,"bps":9600,"parity":"N","stopbits":1,"cycle":1.00}]}
{"class":"WATCH","enable":true,"json":true,"nmea":false,"raw":0,"scaled":false,"timing":false,"split24":false,"pps":false}
{"class":"SKY","device":"/dev/ttyACM0","xdop":8.14,"ydop":2.41,"vdop":63.64,"tdop":48.66,"hdop":9.94,"gdop":74.40,"pdop":64.41,"satellites":[{"PRN":6,"el":53,"az":231,"ss":30,"used":true},{"PRN":11,"el":6,"az":62,"ss":0,"used":false},{"PRN":17,"el":63,"az":350,"ss":27,"used":true},{"PRN":19,"el":55,"az":315,"ss":29,"used":true},{"PRN":28,"el":65,"az":130,"ss":22,"used":true}]}
{"class":"TPV","device":"/dev/ttyACM0","mode":0,"time":"2019-08-03T15:20:27.000Z","ept":0.005}
{"class":"SKY","device":"/dev/ttyACM0","xdop":8.14,"ydop":2.41,"vdop":63.59,"tdop":48.66,"hdop":9.92,"gdop":74.40,"pdop":64.36,"satellites":[{"PRN":6,"el":53,"az":231,"ss":31,"used":true},{"PRN":11,"el":6,"az":62,"ss":0,"used":false},{"PRN":17,"el":63,"az":350,"ss":27,"used":true},{"PRN":19,"el":55,"az":315,"ss":29,"used":true},{"PRN":28,"el":65,"az":130,"ss":22,"used":true}]}
{"class":"TPV","device":"/dev/ttyACM0","mode":0,"time":"2019-08-03T15:20:28.000Z","ept":0.005}
{"class":"SKY","device":"/dev/ttyACM0","xdop":8.14,"ydop":2.41,"vdop":63.54,"tdop":48.66,"hdop":9.90,"gdop":74.40,"pdop":64.30,"satellites":[{"PRN":6,"el":53,"az":231,"ss":30,"used":true},{"PRN":11,"el":6,"az":62,"ss":0,"used":false},{"PRN":17,"el":63,"az":350,"ss":27,"used":true},{"PRN":19,"el":55,"az":315,"ss":29,"used":true},{"PRN":28,"el":65,"az":130,"ss":21,"used":true}]}
{"class":"TPV","device":"/dev/ttyACM0","mode":0,"time":"2019-08-03T15:20:29.000Z","ept":0.005}
{"class":"SKY","device":"/dev/ttyACM0","xdop":8.14,"ydop":2.41,"vdop":63.48,"tdop":48.66,"hdop":9.89,"gdop":74.40,"pdop":64.25,"satellites":[{"PRN":6,"el":53,"az":231,"ss":31,"used":true},{"PRN":11,"el":6,"az":62,"ss":0,"used":false},{"PRN":17,"el":63,"az":350,"ss":27,"used":true},{"PRN":19,"el":55,"az":315,"ss":29,"used":true},{"PRN":28,"el":65,"az":130,"ss":21,"used":true}]}
{"class":"TPV","device":"/dev/ttyACM0","mode":0,"time":"2019-08-03T15:20:30.000Z","ept":0.005}
{"class":"SKY","device":"/dev/ttyACM0","xdop":8.14,"ydop":2.41,"vdop":63.43,"tdop":48.66,"hdop":9.87,"gdop":74.40,"pdop":64.20,"satellites":[{"PRN":6,"el":53,"az":231,"ss":30,"used":true},{"PRN":11,"el":6,"az":62,"ss":0,"used":false},{"PRN":17,"el":63,"az":350,"ss":27,"used":true},{"PRN":19,"el":55,"az":315,"ss":29,"used":true},{"PRN":28,"el":65,"az":130,"ss":21,"used":true}]}
{"class":"TPV","device":"/dev/ttyACM0","mode":0,"time":"2019-08-03T15:20:31.000Z","ept":0.005}
{"class":"SKY","device":"/dev/ttyACM0","xdop":8.14,"ydop":2.41,"vdop":63.38,"tdop":48.66,"hdop":9.85,"gdop":74.40,"pdop":64.14,"satellites":[{"PRN":6,"el":53,"az":231,"ss":30,"used":true},{"PRN":11,"el":6,"az":62,"ss":0,"used":false},{"PRN":17,"el":63,"az":350,"ss":27,"used":true},{"PRN":19,"el":55,"az":315,"ss":29,"used":true},{"PRN":28,"el":65,"az":130,"ss":21,"used":true}]}
{"class":"TPV","device":"/dev/ttyACM0","mode":0,"time":"2019-08-03T15:20:32.000Z","ept":0.005}
{"class":"SKY","device":"/dev/ttyACM0","xdop":8.14,"ydop":2.41,"vdop":63.33,"tdop":48.66,"hdop":9.84,"gdop":74.40,"pdop":64.09,"satellites":[{"PRN":6,"el":53,"az":231,"ss":30,"used":true},{"PRN":11,"el":6,"az":62,"ss":0,"used":false},{"PRN":17,"el":63,"az":350,"ss":27,"used":true},{"PRN":19,"el":55,"az":315,"ss":30,"used":true},{"PRN":28,"el":65,"az":130,"ss":21,"used":true}]}
{"class":"TPV","device":"/dev/ttyACM0","mode":0,"time":"2019-08-03T15:20:33.000Z","ept":0.005}
{"class":"SKY","device":"/dev/ttyACM0","xdop":8.14,"ydop":2.41,"vdop":63.28,"tdop":48.66,"hdop":9.82,"gdop":74.40,"pdop":64.04,"satellites":[{"PRN":6,"el":53,"az":231,"ss":30,"used":true},{"PRN":11,"el":6,"az":62,"ss":0,"used":false},{"PRN":17,"el":63,"az":350,"ss":27,"used":true},{"PRN":19,"el":55,"az":315,"ss":30,"used":true},{"PRN":28,"el":65,"az":130,"ss":20,"used":true}]}
{"class":"TPV","device":"/dev/ttyACM0","mode":0,"time":"2019-08-03T15:20:34.000Z","ept":0.005}
{"class":"SKY","device":"/dev/ttyACM0","xdop":8.14,"ydop":2.41,"vdop":63.23,"tdop":48.66,"hdop":9.80,"gdop":74.40,"pdop":63.98,"satellites":[{"PRN":6,"el":53,"az":231,"ss":30,"used":true},{"PRN":11,"el":6,"az":62,"ss":0,"used":false},{"PRN":17,"el":63,"az":350,"ss":27,"used":true},{"PRN":19,"el":55,"az":315,"ss":30,"used":true},{"PRN":28,"el":65,"az":130,"ss":21,"used":true}]}
{"class":"TPV","device":"/dev/ttyACM0","mode":0,"time":"2019-08-03T15:20:35.000Z","ept":0.005}
{"class":"SKY","device":"/dev/ttyACM0","xdop":8.14,"ydop":2.41,"vdop":63.18,"tdop":48.66,"hdop":9.79,"gdop":74.40,"pdop":63.93,"satellites":[{"PRN":6,"el":53,"az":231,"ss":30,"used":true},{"PRN":11,"el":6,"az":62,"ss":0,"used":false},{"PRN":17,"el":63,"az":350,"ss":27,"used":true},{"PRN":19,"el":55,"az":315,"ss":29,"used":true},{"PRN":28,"el":65,"az":130,"ss":20,"used":true}]}
{"class":"TPV","device":"/dev/ttyACM0","mode":0,"time":"2019-08-03T15:20:36.000Z","ept":0.005}
{"class":"SKY","device":"/dev/ttyACM0","xdop":8.14,"ydop":2.41,"vdop":63.13,"tdop":48.66,"hdop":9.77,"gdop":74.40,"pdop":63.88,"satellites":[{"PRN":6,"el":53,"az":231,"ss":30,"used":true},{"PRN":11,"el":6,"az":62,"ss":0,"used":false},{"PRN":17,"el":63,"az":350,"ss":27,"used":true},{"PRN":19,"el":55,"az":315,"ss":29,"used":true},{"PRN":28,"el":65,"az":130,"ss":21,"used":true}]}
{"class":"TPV","device":"/dev/ttyACM0","mode":0,"time":"2019-08-03T15:20:37.000Z","ept":0.005}
{"class":"SKY","device":"/dev/ttyACM0","xdop":8.14,"ydop":2.41,"vdop":63.08,"tdop":48.66,"hdop":9.76,"gdop":74.40,"pdop":63.83,"satellites":[{"PRN":6,"el":53,"az":231,"ss":30,"used":true},{"PRN":11,"el":6,"az":62,"ss":0,"used":false},{"PRN":17,"el":63,"az":350,"ss":27,"used":true},{"PRN":19,"el":55,"az":315,"ss":29,"used":true},{"PRN":28,"el":65,"az":130,"ss":22,"used":true}]}
{"class":"TPV","device":"/dev/ttyACM0","mode":0,"time":"2019-08-03T15:20:38.000Z","ept":0.005}
{"class":"SKY","device":"/dev/ttyACM0","xdop":8.14,"ydop":2.41,"vdop":63.03,"tdop":48.66,"hdop":9.74,"gdop":74.40,"pdop":63.77,"satellites":[{"PRN":6,"el":53,"az":231,"ss":30,"used":true},{"PRN":11,"el":6,"az":62,"ss":0,"used":false},{"PRN":17,"el":63,"az":350,"ss":27,"used":true},{"PRN":19,"el":55,"az":315,"ss":29,"used":true},{"PRN":28,"el":65,"az":130,"ss":22,"used":true}]}
{"class":"TPV","device":"/dev/ttyACM0","mode":0,"time":"2019-08-03T15:20:39.000Z","ept":0.005}
{"class":"SKY","device":"/dev/ttyACM0","xdop":8.14,"ydop":2.41,"vdop":62.97,"tdop":48.66,"hdop":9.72,"gdop":74.40,"pdop":63.72,"satellites":[{"PRN":6,"el":53,"az":231,"ss":30,"used":true},{"PRN":11,"el":6,"az":62,"ss":0,"used":false},{"PRN":17,"el":63,"az":350,"ss":27,"used":true},{"PRN":19,"el":55,"az":315,"ss":29,"used":true},{"PRN":28,"el":65,"az":130,"ss":22,"used":true}]}
{"class":"TPV","device":"/dev/ttyACM0","mode":0,"time":"2019-08-03T15:20:40.000Z","ept":0.005}
{"class":"SKY","device":"/dev/ttyACM0","xdop":8.14,"ydop":2.41,"vdop":62.92,"tdop":48.66,"hdop":9.71,"gdop":74.40,"pdop":63.67,"satellites":[{"PRN":6,"el":53,"az":231,"ss":30,"used":true},{"PRN":11,"el":6,"az":62,"ss":0,"used":false},{"PRN":17,"el":63,"az":350,"ss":27,"used":true},{"PRN":19,"el":55,"az":315,"ss":29,"used":true},{"PRN":28,"el":65,"az":130,"ss":22,"used":true}]}
{"class":"TPV","device":"/dev/ttyACM0","mode":0,"time":"2019-08-03T15:20:41.000Z","ept":0.005}
{"class":"SKY","device":"/dev/ttyACM0","xdop":8.14,"ydop":2.41,"vdop":62.87,"tdop":48.66,"hdop":9.69,"gdop":74.40,"pdop":63.62,"satellites":[{"PRN":6,"el":53,"az":231,"ss":30,"used":true},{"PRN":11,"el":6,"az":62,"ss":0,"used":false},{"PRN":17,"el":63,"az":350,"ss":27,"used":true},{"PRN":19,"el":55,"az":315,"ss":29,"used":true},{"PRN":28,"el":65,"az":130,"ss":22,"used":true}]}
{"class":"TPV","device":"/dev/ttyACM0","mode":0,"time":"2019-08-03T15:20:42.000Z","ept":0.005}
{"class":"SKY","device":"/dev/ttyACM0","xdop":8.14,"ydop":2.41,"vdop":62.82,"tdop":48.66,"hdop":9.68,"gdop":74.40,"pdop":63.56,"satellites":[{"PRN":6,"el":53,"az":231,"ss":30,"used":true},{"PRN":11,"el":5,"az":62,"ss":0,"used":false},{"PRN":17,"el":63,"az":350,"ss":27,"used":true},{"PRN":19,"el":55,"az":315,"ss":29,"used":true},{"PRN":22,"el":21,"az":53,"ss":0,"used":false},{"PRN":28,"el":65,"az":130,"ss":23,"used":true}]}
{"class":"TPV","device":"/dev/ttyACM0","mode":0,"time":"2019-08-03T15:20:43.000Z","ept":0.005}
